REPORTING YEAR	TRADE SECRET INDICATOR	TRIFID	FACILITY NAME	FACILITY STREET	FACILITY CITY	FACILITY COUNTY	FACILITY STATE	FACILITY ZIP CODE	ENTIRE FACILITY IND	PARTIAL FACILITY IND	FEDERAL FACILITY IND	GOCO FACILITY FLAG	PRIMARY SIC CODE	SIC CODE 2	SIC CODE 3	SIC CODE 4	SIC CODE 5	SIC CODE 6	NAICS ORIGIN	PRIMARY NAICS CODE	NAICS CODE 2	NAICS CODE 3	NAICS CODE 4	NAICS CODE 5	NAICS CODE 6	LATITUDE	LONGITUDE	DB NR A	DB NR B	RCRA NR A	RCRA NR B	NPDES NR A	NPDES NR B	UIC NR A	UIC NR B	PARENT COMPANY NAME	PARENT COMPANY DB NR	DOCUMENT CONTROL NUMBER	CAS NUMBER	CHEMICAL NAME	CLASSIFICATION	UNIT OF MEASURE	DIOXIN DISTRIBUTION 1	DIOXIN DISTRIBUTION 2	DIOXIN DISTRIBUTION 3	DIOXIN DISTRIBUTION 4	DIOXIN DISTRIBUTION 5	DIOXIN DISTRIBUTION 6	DIOXIN DISTRIBUTION 7	DIOXIN DISTRIBUTION 8	DIOXIN DISTRIBUTION 9	DIOXIN DISTRIBUTION 10	DIOXIN DISTRIBUTION 11	DIOXIN DISTRIBUTION 12	DIOXIN DISTRIBUTION 13	DIOXIN DISTRIBUTION 14	DIOXIN DISTRIBUTION 15	DIOXIN DISTRIBUTION 16	DIOXIN DISTRIBUTION 17	STREAM 1 - WASTE STREAM CODE	STREAM 1 - TRTMT METHOD -  SEQUENCE 1	STREAM 1 - TRTMT METHOD -  SEQUENCE 2	STREAM 1 - TRTMT METHOD -  SEQUENCE 3	STREAM 1  -TRTMT METHOD -  SEQUENCE 4	STREAM 1 - TRTMT METHOD -  SEQUENCE 5	STREAM 1 - TRTMT METHOD -  SEQUENCE 6	STREAM 1 - TRTMT METHOD -  SEQUENCE 7	STREAM 1 - TRTMT METHOD -  SEQUENCE 8	STREAM 1 - RANGE INFLUENT CONCENT	STREAM 1 - TRTMT EFFICIENCY EST	STREAM 1 - BASED ON OPERATING DATA?	STREAM 2 - WASTE STREAM CODE	STREAM 2 - TRTMT METHOD -  SEQUENCE 1	STREAM 2 - TRTMT METHOD -  SEQUENCE 2	STREAM 2 - TRTMT METHOD -  SEQUENCE 3	STREAM 2  -TRTMT METHOD -  SEQUENCE 4	STREAM 2 - TRTMT METHOD -  SEQUENCE 5	STREAM 2 - TRTMT METHOD -  SEQUENCE 6	STREAM 2 - TRTMT METHOD -  SEQUENCE 7	STREAM 2 - TRTMT METHOD -  SEQUENCE 8	STREAM 2 - RANGE INFLUENT CONCENT	STREAM 2 - TRTMT EFFICIENCY EST	STREAM 2 - BASED ON OPERATING DATA?	STREAM 3 - WASTE STREAM CODE	STREAM 3 - TRTMT METHOD -  SEQUENCE 1	STREAM 3 - TRTMT METHOD -  SEQUENCE 2	STREAM 3 - TRTMT METHOD -  SEQUENCE 3	STREAM 3  -TRTMT METHOD -  SEQUENCE 4	STREAM 3 - TRTMT METHOD -  SEQUENCE 5	STREAM 3 - TRTMT METHOD -  SEQUENCE 6	STREAM 3 - TRTMT METHOD -  SEQUENCE 7	STREAM 3 - TRTMT METHOD -  SEQUENCE 8	STREAM 3 - RANGE INFLUENT CONCENT	STREAM 3 - TRTMT EFFICIENCY EST	STREAM 3 - BASED ON OPERATING DATA?	STREAM 4 - WASTE STREAM CODE	STREAM 4 - TRTMT METHOD -  SEQUENCE 1	STREAM 4 - TRTMT METHOD -  SEQUENCE 2	STREAM 4 - TRTMT METHOD -  SEQUENCE 3	STREAM 4  -TRTMT METHOD -  SEQUENCE 4	STREAM 4 - TRTMT METHOD -  SEQUENCE 5	STREAM 4 - TRTMT METHOD -  SEQUENCE 6	STREAM 4 - TRTMT METHOD -  SEQUENCE 7	STREAM 4 - TRTMT METHOD -  SEQUENCE 8	STREAM 4 - RANGE INFLUENT CONCENT	STREAM 4 - TRTMT EFFICIENCY EST	STREAM 4 - BASED ON OPERATING DATA?	STREAM 5 - WASTE STREAM CODE	STREAM 5 - TRTMT METHOD -  SEQUENCE 1	STREAM 5 - TRTMT METHOD -  SEQUENCE 2	STREAM 5 - TRTMT METHOD -  SEQUENCE 3	STREAM 5  -TRTMT METHOD -  SEQUENCE 4	STREAM 5 - TRTMT METHOD -  SEQUENCE 5	STREAM 5 - TRTMT METHOD -  SEQUENCE 6	STREAM 5 - TRTMT METHOD -  SEQUENCE 7	STREAM 5 - TRTMT METHOD -  SEQUENCE 8	STREAM 5 - RANGE INFLUENT CONCENT	STREAM 5 - TRTMT EFFICIENCY EST	STREAM 5 - BASED ON OPERATING DATA	ASSIGNED FED. FACILITY FLAG	PUBLIC CONTACT EMAIL	REVISION CODE 1	REVISION CODE 2	METAL INDICATOR	20-NOV-13	
2012	NO	18974PRSSR9LUIS	PRESSURE PRODUCTS INDUSTRIES MILTON ROY	900 LOUIS DR	WARMINSTER	BUCKS	PA	18974	YES	NO	NO	NO								333912						40.205376	-75.082226	194598637										1312209981380	007440020	NICKEL	TRI	Pounds																		NA									N 																																																			NO	DFRANKE@MILTONROY.COM			YES	 	
2012	NO	15845PNNTC100CE	DOMTAR - JOHNSONBURG MILL	100 CENTER ST	JOHNSONBURG	ELK	PA	15845	YES	NO	NO	NO								322121						41.492222	-78.676667	789245110								DOMTAR CORP	789245110	1312210426767	N450	MANGANESE COMPOUNDS	TRI	Pounds																		W	H123								N 	E6																																																		NO	ANDY.REDMOND@DOMTAR.COM			YES	 	
2012	NO	15061ZNCCR300FR	HORSEHEAD CORP MONACA SMELTER	300 FRANKFORT RD	MONACA	BEAVER	PA	150612295	YES	NO	NO	NO								331492						40.67058	-80.3365	609074703								HORSEHEAD HOLDING CORP		1312210555328	N150	DIOXIN AND DIOXIN-LIKE COMPOUNDS	DIOXIN	Grams																		NA									N 																																																			NO	AALAVI@HORSEHEAD.NET			NO	 	
2012	NO	15086GTNNC780CO	GATAN INC	780 COMMONWEALTH DR	WARRENDALE	BUTLER	PA	15086	YES	NO	NO	NO								334513						40.681944	-80.11									ROPER INDUSTRIES		1312209967571	N420	LEAD COMPOUNDS	PBT	Pounds																		NA									N 																																																			NO	BWEIGAND@GATAN.COM			YES	 	
2012	NO	17331RHSHP247EM	RH SHEPPARD CO INC	REAR 447 E MIDDLE ST	HANOVER	YORK	PA	17331	YES	NO	NO	NO								331511						39.805656	-76.972202	003008521								RH SHEPPARD CO INC	003008521	1312210175117	007440508	COPPER	TRI	Pounds																		NA									N 																																																			NO	JLSMITH@RHSHEPPARD.COM			YES	 	
2012	NO	16148DVNCDONELL	CCL CONTAINER AEROSOL DIV	ONE LLODIO DR	HERMITAGE	MERCER	PA	16148	YES	NO	NO	NO								332431						41.196294	-80.47852	153743653										1312210037875	000091203	NAPHTHALENE	TRI	Pounds																		A	H040								N 	E4																																																		NO	EFRANTZ@CCLIND.COM			NO	 	
2012	NO	17821MNTRS18MCM	MONTOUR STEAM ELECTRIC STATION	18 MCMICHAEL RD	DANVILLE	MONTOUR	PA	17821	YES	NO	NO	NO								221122						41.069974	-76.665133	621528199								PPL CORP	144973083	1312210419545	N495	NICKEL COMPOUNDS	TRI	Pounds																		A	A05	A06	H123	A03					N 	E3																																																		NO	JLMCCABE@PPLWEB.COM			YES	 	
2012	NO	19344RVNDS584PO	R-V INDUSTRIES INC	584 POPLAR RD	HONEY BROOK	CHESTER	PA	19344	YES	NO	NO	NO								332313						40.105556	-75.923611	075481234								R-V INDUSTRIES INC		1312210856074	007440020	NICKEL	TRI	Pounds																		NA									N 																																																			NO				YES	 	
2012	NO	17931WHLBRMOREA	WHEELABRATOR FRACKVILLE ENERGY CO INC	475 MOREA RD	FRACKVILLE	SCHUYLKILL	PA	17931	YES	NO	NO	NO								221112						40.7817	-76.1781	188414303								WASTE MANAGEMENT INC	047577416	1312210269522	N020	ARSENIC COMPOUNDS	TRI	Pounds																		NA									N 																																																			NO				YES	 	
2012	NO	16701KNDLL77NKE	AMERICAN REFINING GROUP INC	77 N KENDALL AVE	BRADFORD	MCKEAN	PA	16701	YES	NO	NO	NO								324110						41.965472	-78.633108	021957329										1312210722866	000100414	ETHYLBENZENE	TRI	Pounds																		W	H081								N 	E4																																																		NO	SSHERK@AMREF.COM			NO	 	
2012	NO	15846RBCNC650BR	REBCO INC	650 BRANDY CAMP RD	KERSEY	ELK	PA	15846	YES	NO	NO	NO								332710						41.356902	-78.643291	080313364										1312209968926	007440508	COPPER	TRI	Pounds																		A	A07								N 	E4																																																		NO	KENHUEY@REBCOINC.BIZ			YES	 	
2012	NO	16121DFRCF15ROE	NLMK PENNSYLVANIA CORP	15 ROEMER BLVD	FARRELL	MERCER	PA	16121	YES	NO	NO	NO								331221						41.21294	-80.50974	120448449								TOP GUN INVESTMENT CORP II	120448449	1312210033977	007440020	NICKEL	TRI	Pounds																		W	H123	H124							N 	E4																																																		NO	RHERMAN@US.NLMK.COM			YES	 	
2012	NO	15857PWDRM879WA	METAL POWDER PRODUCTS CO WASHINGTON ST DIV	879 WASHINGTON ST	SAINT MARYS	ELK	PA	15857	YES	NO	NO	NO								332117						41.446604	-78.556315	090262135								METAL POWDER PRODUCTS CO	052859246	1312210105730	007429905	ALUMINUM (FUME OR DUST)	TRI	Pounds																		NA									N 																																																			NO	NGISMONDI@METALPOWDERPORDUCTS.COM			YES	 	
2012	NO	1700WBLSCP4NRTH	BLUESCOPE BUILDINGS NA	400 N WEABER ST	ANNVILLE	LEBANON	PA	17003	YES	NO	NO	NO								332999						40.33706	-76.49915											1312210218160	007439921	LEAD	TRI	Pounds																		NA									N 																																																			NO	WEZEIGLER@BUTLERMFG.COM			YES	 	
2012	NO	17922RNRFLHICKO	OMNOVA SOLUTIONS INC AUBURN P LANT	95 HICKORY DR	AUBURN	SCHUYLKILL	PA	17922	YES	NO	NO	NO								326113						40.60846	-76.09621	807799010								OMNOVA SOLUTIONS INC	088498618	1312210664710	N420	LEAD COMPOUNDS	PBT	Pounds																		NA									N 																																																			NO	STEPHEN.VASKO@OMNOVA.COM			YES	 	
2012	NO	19380SFTYK1140G	SAFETY-KLEEN SYSTEMS (213902)	1140 GREENHILL RD	WEST CHESTER	CHESTER	PA	19380	YES	NO	NO	NO								562112	484220	484230				40.000445	-75.586448	053976551								SAFETY-KLEEN INC	053976551	1312210393296	000191242	BENZO(G,H,I)PERYLENE	PBT	Pounds																		NA									N 																																																			NO	HASSAN.MCINTYRE@SAFETY-KLEEN.COM			NO	 	
2012	NO	16055RCMXF359NO	HARSCO MINERALS OF PA LLC	359 N PIKE RD	SARVER	BUTLER	PA	16055	YES	NO	NO	NO								339999						40.75083	-79.7611	787415686	829193619							HARSCO CORP	003002268	1312210529893	N450	MANGANESE COMPOUNDS	TRI	Pounds																		NA									N 																																																			NO	JNARDONE@HARSCO.COM			YES	 	
2012	NO	16673PPLTN100PA	APPVION INC	100 PAPER MILL RD	ROARING SPRING	BLAIR	PA	16673	YES	NO	NO	NO								322121						40.347784	-78.399631	089581557								APPLETON PAPERS INC	089581557	1312210608079	007664939	SULFURIC ACID (1994 AND AFTER "ACID AEROSOLS" ONLY)	TRI	Pounds																		NA									N 																																																			NO	TCHURBOCK@APPVION.COM			NO	 	
2012	NO	1903WBNGTN55LDB	ABINGTON RELDAN METALS LLC	550 OLD BORDENTOWN RD	FAIRLESS HILLS	BUCKS	PA	19030	YES	NO	NO	NO								331419						40.1675	-74.758056											1312210829976	007440224	SILVER	TRI	Pounds																		NA																																																												NO	RKORODAN@ARMETALS.COM			YES	 	
2012	NO	19134MPNNC2254E	MPN INC DBA ACTIVE RADIATOR	2254 E VENANGO ST	PHILADELPHIA	PHILADELPHIA	PA	19134	YES	NO	NO	NO								336399	336370					39.996944	-75.091667	779972017								MPN INC DBA ACTIVE RADIATOR		1312210858179	007440508	COPPER	TRI	Pounds																		NA									N 																																																			NO	TONYC@ACTIVERADIATOR.COM			YES	 	
2012	NO	17601WGGRN202GR	WORLEY & OBETZ	202 GREENFIELD RD	LANCASTER	LANCASTER	PA	17601	YES	NO	NO	NO								424710						40.047492	-76.255761	014356463								WORLEY & OBETZ	014356463	1312210294916	000095636	1,2,4-TRIMETHYLBENZENE	TRI	Pounds																		NA									N 																																																			NO	GHESS@WORLEYOBETZ.COM			NO	 	
2012	NO	17601WGGRN202GR	WORLEY & OBETZ	202 GREENFIELD RD	LANCASTER	LANCASTER	PA	17601	YES	NO	NO	NO								424710						40.047492	-76.255761	014356463								WORLEY & OBETZ	014356463	1312210294930	000110827	CYCLOHEXANE	TRI	Pounds																		NA									N 																																																			NO	GHESS@WORLEYOBETZ.COM			NO	 	
2012	NO	15059WSTHMONE12	WHEMCO-STEEL CASTINGS INC	12 TH ST	MIDLAND	BEAVER	PA	15059	YES	NO	NO	NO								331513						40.631177	-80.44951									WHEMCO INC		1312210638540	N090	CHROMIUM COMPOUNDS(EXCEPT CHROMITE ORE MINED IN THE TRANSVAAL REGION)	TRI	Pounds																		NA									N 																																																			NO	CCOHOLICH@WHEMCO.COM			YES	 	
2012	NO	19460MCVYV75MCA	MCAVOY VITIRFIED BRICK CO	75 MCAVOY LN	PHOENIXVILLE	CHESTER	PA	19460	YES	NO	NO	NO								327121						40.1259	-75.47837											1312210409126	N450	MANGANESE COMPOUNDS	TRI	Pounds																																																																														NO	CHMCAVOY@MCAVOYBRICK.COM			YES	 	
2012	NO	18504MSTRH1NSRD	MASTER HALCO INC	1000 N S RD	SCRANTON	LACKAWANNA	PA	18504	YES	NO	NO	NO								332618						41.436614	-75.679938	008261620								ITOCHU CORP OF AMERICA INC	006985956	1312210294423	007439921	LEAD	TRI	Pounds																		A	A06								N 	E5																																																		NO	MMCGARVEY@MASTERHALCO.COM			YES	 	
2012	NO	15201PRSSR3419S	PRESSURE CHEMICAL CO	3419 SMALLMAN ST	PITTSBURGH	ALLEGHENY	PA	15201	YES	NO	NO	NO								325199						40.463673	-79.968266	004498432								PRESSURE CHEMICAL CO.	004498432	1312210519435	000075092	DICHLOROMETHANE	TRI	Pounds																		NA									N 																																																			NO				NO	 	
2012	NO	15066DMSCSPOBOX	DAMASCUSS STEEL CASTING CO	BLOCKHOUSE RUN RD EXT	NEW BRIGHTON	BEAVER	PA	15066	YES	NO	NO	NO								331513						40.735344	-80.308118	004334918										1312210533840	007440020	NICKEL	TRI	Pounds																		NA									N 																																																			NO	TCOKAIN@DAMASCUSSTEEL.COM			YES	 	
2012	NO	1630WWBCND363SE	WEBCO INDUSTRIES INC OIL CITY TUBE DIV	363 SENECA ST	OIL CITY	VENANGO	PA	16301	YES	NO	NO	NO								331210						41.432277	-79.708369	038326740		PAD098432503		PAR208326				WEBCO INDUSTRIES INC	038326740	1312210364713	007439965	MANGANESE	TRI	Pounds																		NA									N 																																																			NO	MMARTIN@WEBCOINDUSTRIES.COM			YES	 	
2012	NO	15857SGLCR900TH	SGL CARBON LLC	900 THERESIA ST	SAINT MARYS	ELK	PA	15857	YES	NO	NO	NO								335991						41.43213	-78.54331	001467976								SGL CARBON GROUP		1312210401360	N590	POLYCYCLIC AROMATIC COMPOUNDS	PBT	Pounds																		A	A03								N 	E2																																																		NO	KATHY.NERO@SGLCARBON.COM			NO	 	
2012	NO	17976STNCHHWY54	SAINT NICHOLAS COGENERATION PROJECT	HWY 54 E TWP RT 851	SHENANDOAH	SCHUYLKILL	PA	17976	YES	NO	NO	NO								221112						40.822464	-76.17337	154309306										1312210566891	N420	LEAD COMPOUNDS	PBT	Pounds																		NA									N 																																																			NO	RHOPPE@ULTRACLEANFUELS.COM			YES	 	
2012	NO	18840RYNNMNORTH	RYNONE MANUFACTURING CORP	N THOMAS AVE	SAYRE	BRADFORD	PA	18840	YES	NO	NO	NO								326191						41.98826	-76.51552	040955569								RYNONE MANUFACTURING CORP		1312210107619	000100425	STYRENE	TRI	Pounds																		NA									N 																																																			NO	RMC@RYNONE.COM			NO	 	
2012	NO	17701HGHST3501S	HIGH STEEL STRUCTURES - WILLIAMSPORT FACILITY	3501 W FOURTH ST	WILLIAMSPORT	LYCOMING	PA	17701	YES	NO	NO	NO								332312						41.240354	-77.084134	182181917								HIGH INDUSTRIES INC	084877505	1312210470480	001344281	ALUMINUM OXIDE (FIBROUS FORMS)	TRI	Pounds																		NA									N 																																																			NO	CWEYLAND@HIGH.NET			YES	 	
2012	NO	19007RHMNDOLDRT	ROHM & HAAS CHEMICALS LLC	200 RT 413	BRISTOL	BUCKS	PA	19007	YES	NO	NO	NO								325211	325199					40.094102	-74.870534	619645075								THE DOW CHEMICAL CO	001381581	1312210566687	000079107	ACRYLIC ACID	TRI	Pounds																		A	A03								N 	E5		W	H129	H121	H081	H077	H123	H101			N 	E3		A	H040								N 	E4																										NO	JMLAND@DOW.COM			NO	 	
2012	NO	15801TRNGLMALON	TRIANGLE SUSPENSION SYSTEMS INC	200 E MALONEY RD	DU BOIS	CLEARFIELD	PA	15801	YES	NO	NO	NO								332611						41.10784	-78.769753	361319528										1312209983117	007440473	CHROMIUM	TRI	Pounds																		NA									N 																																																			NO	BNASUTI@TRIANGLEUSA.COM			YES	 	
2012	NO	16161WHTLNCOUNC	JMC STEEL GROUP WHEATLAND TUBE DIV -  COUNCIL	1 COUNCIL AVE	WHEATLAND	MERCER	PA	16161	YES	NO	NO	NO								331210	332996					41.189157	-80.491706	002287035								JMC STEEL GROUP	007913981	1312210214565	N090	CHROMIUM COMPOUNDS(EXCEPT CHROMITE ORE MINED IN THE TRANSVAAL REGION)	TRI	Pounds																		W	H121	H077	H123	H101					N 	E4																																																		NO	MIKE.SCHIMP@JMCSTEEL.COM			YES	 	
2012	NO	16365NTDRFPOBOX	UNITED REFINING CO	15 BRADLEY ST	WARREN	WARREN	PA	16365	YES	NO	NO	NO								324110						41.82992	-79.12444	118331149								UNITED REFINING CO	118331149	1312210492411	000108883	TOLUENE	TRI	Pounds																		W	H083	H124	H121	H129	H124	H081			N 	E3																																																		NO	RKAEMMERER@URC.COM			NO	 	
2012	NO	19013NRTHM1200W	EVONIK CORP	1200 W FRONT ST	CHESTER	DELAWARE	PA	190133438	YES	NO	NO	NO								327999						39.837605	-75.37294	147322838								EVONIK INDUSTRIES	068209295	1312210038954	007664939	SULFURIC ACID (1994 AND AFTER "ACID AEROSOLS" ONLY)	TRI	Pounds																		NA									N 																																																			NO	DAVID.ELLIOTT@EVONIK.COM			NO	 	
2012	NO	18020MHNNC2513H	POLYONE CORP	2513 HIGHLAND AVE	BETHLEHEM	NORTHAMPTON	PA	18020	YES	NO	NO	NO								325991						40.67722	-75.35778	800967705								POLYONE CORP	800967705	1312210356438	N420	LEAD COMPOUNDS	PBT	Pounds																		W	H123								N 	E5																																																		NO	JOE.SIRIANNI@POLYONE.COM			YES	 	
2012	NO	17540DRTCN60EAS	DART CONTAINER CORP OF PENNSYLVANIA	60 E MAIN ST	LEOLA	LANCASTER	PA	17540	YES	NO	NO	NO								325211						40.087481	-76.187277	006522890								DART CONTAINER CORP	006522890	1312210033357	N982	ZINC COMPOUNDS	TRI	Pounds																																																																														NO	BESTON.CHITALA@DART.BIZ			YES	 	
2012	NO	17545FLSMD262SC	FL SMIDTH INC	262 S CHERRY ST	MANHEIM	LANCASTER	PA	17545	YES	NO	NO	NO								333912						40.154262	-76.392183											1312210076764	007440020	NICKEL	TRI	Pounds																		NA									N 																																																			NO	JOHN.HOUGENDOBLER@FLSMIDTH.COM			YES	 	
2012	NO	15095TRCTHCRANB	ALCOA COMMERCIAL WINDOWS LLC	71 PROGRESS AVE	CRANBERRY TOWNSHIP	BUTLER	PA	16066	YES	NO	NO	NO								332321						40.707594	-80.110431									ALCOA INC	001339472	1312210300240	N120	DIISOCYANATES	TRI	Pounds																																																																														NO	KEITH.CESSNA@ALCOA.COM			NO	 	
2012	NO	15225NVLLC2800N	NEVILLE CHEMICAL CO	2800 NEVILLE RD	PITTSBURGH	ALLEGHENY	PA	152251496	YES	NO	NO	NO								325188						40.502778	-80.099167	004334157										1312210540290	000108883	TOLUENE	TRI	Pounds																		A	H040								N 	E3		W	H121	H129	H124	H123	H082				N 	E4																																						NO	ZOSIECKI@NEVCHEM.COM			NO	 	
2012	NO	17362PHGLT228SO	P H GLATFELTER CO - SPRING GROVE MILL	228 S MAIN ST	SPRING GROVE	YORK	PA	173621000	YES	NO	NO	NO								322121						39.871147	-76.868351	003003407										1312210539425	007664393	HYDROGEN FLUORIDE	TRI	Pounds																		A	A06	A05							N 	E6		A	A07								N 	E5																																						NO	WILLIAM.YANAVITCH@GLATFELTER.COM			NO	 	
2012	NO	16115NVRTR118PA	SIEMENS INDUSTRY INC DARLINGTON FACILITY	118 PARK RD	DARLINGTON	BEAVER	PA	16115	YES	NO	NO	NO								562211						40.796131	-80.4679	187894373								SIEMENS AG		1312210665675	000108883	TOLUENE	TRI	Pounds																		A	H040	A03							N 	E2																																																		NO	DAVID.M.ADAMS@SIEMENS.COM			NO	 	
2012	NO	19406TCHTB72VAN	TECH TUBE	750 VANDENBERG BLVD	KING OF PRUSSIA	MONTGOMERY	PA	19406	YES	NO	NO	NO								331210						40.10397	-75.40209	612465463										1312210123699	007440473	CHROMIUM	TRI	Pounds																		NA									N 																																																			NO	SALES@TECHTUBE.COM			YES	 	
2012	NO	15944CNMGHRTE20	CONEMAUGH POWER PLANT	1442 POWER PLANT RD	NEW FLORENCE	INDIANA	PA	15944	YES	NO	NO	NO								221112						40.380628	-79.065585	118301233								NRG ENERGY INC	793422213	1312210407209	007664939	SULFURIC ACID (1994 AND AFTER "ACID AEROSOLS" ONLY)	TRI	Pounds																		A	H082	A05	A03						N 	E5																																																		NO	JAMES.BRUNSON@NRGENERGY.COM			NO	 	
2012	NO	16502NTNLF1341W	ERIE FORGE & STEEL INC	1341 W 16 TH ST	ERIE	ERIE	PA	16502	YES	NO	NO	NO								332710	332811					42.10858	-80.11151									WHEMCO INC		1312210638235	007440508	COPPER	TRI	Pounds																																																																														NO	RINGOLS@ERIEFORGE.COM			YES	 	
2012	NO	16873SHWVLRTE97	SHAWVILLE STATION	250 POWER PLANT DR	SHAWVILLE	CLEARFIELD	PA	16873	YES	NO	NO	NO								221112						41.067	-78.3656	790875629								NRG ENERGY INC	793422213	1312210029411	N458	MERCURY COMPOUNDS	PBT	Pounds																		A	A05								N 	E6		W	H129	H121	H123						N 	E6																																						NO	SCOTT.PALIAN@NRGENERGY.COM			YES	 	
2012	NO	16365SPRRT1818P	SUPERIOR TIRE & RUBBER CORP	1818 PENNSYLVANIA AVE W	WARREN	WARREN	PA	16365	YES	NO	NO	NO								326211						41.839138	-79.169789	002131357										1312210183479	N120	DIISOCYANATES	TRI	Pounds																		NA									N 																																																			NO				NO	 	
2012	NO	19464HMMND10SOU	HAMMOND LEAD PRODUCTS	10 S GROSSTOWN RD	POTTSTOWN	MONTGOMERY	PA	19464	YES	NO	NO	NO								325998	327910					40.236206	-75.689077	005226790								HAMMOND GROUP INC	005226790	1312210230607	N982	ZINC COMPOUNDS	TRI	Pounds																		NA									N 																																																			NO	JBANDSTRA@HMNDGROUP.COM			YES	 	
2012	NO	18702NSNNG1141H	WYMAN GORDON TRU-FORM	1141 HWY 315	WILKES BARRE	LUZERNE	PA	187026928	YES	NO	NO	NO								336412						41.257778	-75.821389	009027970								PRECISION CASTPARTS CORP	009027970	1312210230773	007440473	CHROMIUM	TRI	Pounds																		NA									N 																																																			NO	KKELLER@WYMAN.COM			YES	 	
2012	NO	17751CRDNCDRAKE	CRODA INC	8 CRODA WAY	MILL HALL	CLINTON	PA	17751	YES	NO	NO	NO								325620						41.102778	-77.5	001331032								CRODA INC	001331032	1312210302511	000064675	DIETHYL SULFATE	TRI	Pounds																		NA									N 																																																			NO	CHARLES.WILLIAMS@CRODA.COM			NO	 	
2012	NO	16003RMCDVROUTE	AK STEEL--BUTLER WORKS	RT 8 S	BUTLER	BUTLER	PA	16001	YES	NO	NO	NO								331111						40.82926	-79.94273	621437755								AK STEEL CORP	606072130	1312210337592	N495	NICKEL COMPOUNDS	TRI	Pounds																		NA									N 																																																			NO	BARRY.RACEY@AKSTEEL.COM			YES	 	
2012	NO	15077FRSTNOFFRT	BRUCE MANSFIELD POWER PLANT	OFF RT 168 NEAR OHIO RIVER	SHIPPINGPORT	BEAVER	PA	150770038	YES	NO	NO	NO								221112	221113	221119	221122	221111	221121	40.6344	-80.42	150181923								FIRSTENERGY GENERATION CORP	800459724	1312210477461	007647010	HYDROCHLORIC ACID (1995 AND AFTER "ACID AEROSOLS" ONLY)	TRI	Pounds																		A	A03								N 	E4		A	A05	A03							N 	E4																																						NO	DURBINM@FIRSTENERGYCORP.COM			NO	 	
2012	NO	15051MRCNRSTATE	KINDER MORGAN TRANSMIX CO LLC	918 RT 910	INDIANOLA	ALLEGHENY	PA	15051	YES	NO	NO	NO								324110	424710					40.571179	-79.863385	035123850								KINDER MORGAN		1312210601884	000100414	ETHYLBENZENE	TRI	Pounds																		W	H124								N 	E3		A	H082								N 	E3																																						NO	RICK_KREJCI@KINDERMORGAN.COM			NO	 	
2012	NO	15104HRSCH13THB	HARSCO METALS - BRI	13TH & BRADDOCK AVE C/O USS	BRADDOCK	ALLEGHENY	PA	15104	YES	NO	NO	NO								331111						40.39722	-79.85972	003952009								HARSCO CORP	003952009	1312210439877	007439965	MANGANESE	TRI	Pounds																		NA									N 																																																			NO				YES	 	
2012	NO	15557RCKWD300MA	ROCKWOOD MANUFACTURING CO	300 MAIN ST	ROCKWOOD	SOMERSET	PA	15557	YES	NO	NO	NO								332510	332813					39.913476	-79.163153									ASSA ABLOY INC	609161294	1312210067486	007440508	COPPER	TRI	Pounds																		A	A06								N 	E3		W	H077	H101	H123						N 	E4																																						NO	DTHOMPSON@ROCKWOODMFG.COM			YES	 	
2012	NO	17356PXRTH15CHU	APEX URETHANE MILLWORK LLC	105 CHURCH LN	RED LION	YORK	PA	17356	YES	NO	NO	NO								326150						39.901813	-76.604136											1312210152967	N120	DIISOCYANATES	TRI	Pounds																																																																														NO	TERESAWARE@AUMILL.COM			NO	 	
2012	NO	16105XNPWR361CL	AXION POWER BATTERY MFG CO	3601 CLOVER LN	NEW CASTLE	LAWRENCE	PA	16105	YES	NO	NO	NO								335911						41.069024	-80.361757									AXION POWER INTERNATIONAL INC		1312210180586	007439921	LEAD	TRI	Pounds																		NA									N 																																																			NO	JCOLE@AXIONPOWER.COM			YES	 	
2012	NO	17751VRYCHDRAKE	AVERY DENNISON MILL HALL	171 DRAKETOWN RD	MILL HALL	CLINTON	PA	17751	YES	NO	NO	NO								325520						41.1153	-77.468133	008256364								AVERY DENNISON CORP	008256364	1312210334102	001330207	XYLENE (MIXED ISOMERS)	TRI	Pounds																		A	H040								N 	E3		W	H129	H101	H121	H123	H124				N 	E6																																						NO	NAT.WEINER@AVERYDENNISON.COM			NO	 	
2012	NO	17370BRNNRWAGOR	BRUNNER ISLAND STEAM ELECTRIC STATION	WAGO RD PPL BRUNNER ISLAND SES	YORK HAVEN	YORK	PA	173700221	YES	NO	NO	NO								221112						40.095991	-76.696951	063877997								PPL CORP	143513583	1312210419255	N100	COPPER COMPOUNDS	TRI	Pounds																		A	A05	A06	H123	A03					N 	E3																																																		NO	RDFOLTZ@PPLWEB.COM			YES	 	
2012	NO	17042LBNNC1600E	LEBANON SEABOARD CORP	1600 E CUMBERLAND ST	LEBANON	LEBANON	PA	17042	YES	NO	NO	NO								325314						40.3475	-76.385556	003005477								LEBANON SEABOARD CORP		1312210257630	000093652	MECOPROP	TRI	Pounds																																																																														NO	JKUHLE@LEBSEA.COM			NO	 	
2012	NO	1522WVRCHM3499G	LANXESS CORP NEVILLE ISLAND	3499 GRAND AVE	PITTSBURGH	ALLEGHENY	PA	152251507	YES	NO	NO	NO								325320						40.50787	-80.11171									LANXESS CORP	145858770	1312210014041	000533744	DAZOMET	TRI	Pounds																																																																														NO	GARY.LAGAMBA@LANXESS.COM			NO	 	
2012	NO	15301JSSPS500GR	JESSOP STEEL LLC	500 GREEN ST	WASHINGTON	WASHINGTON	PA	15301	YES	NO	NO	NO								331111						40.176739	-80.273395	004322343								ALLEGHENY TECHNOLOGIES INC	949262737	1312210274647	007664393	HYDROGEN FLUORIDE	TRI	Pounds																		W	H077	H129	H123	H101					N 	E3																																																		NO	DAN.GREENFIELD@ATIMETALS.COM			NO	 	
2012	NO	17752CRYMCPAROU	SPRINGS WINDOW FASHIONS LLC	8601 RT 405 S	MONTGOMERY	LYCOMING	PA	17752	YES	NO	NO	NO								337920						41.18	-76.92	067790670								SPRINGS INDUSTRIES INC	003163102	1312210322374	000108883	TOLUENE	TRI	Pounds																		A	H040								N 	E4																																																		NO	JOHN.STRIMPLE@SPRINGSWINDOWFASHIONS.COM			NO	 	
2012	NO	16154GRNVLRD2BO	GREENVILLE METALS INC	99 CRESTVIEW DR	TRANSFER	MERCER	PA	16154	YES	NO	NO	NO								331492						41.35856	-80.40583	112740568								PRECISION CASTPARTS CORP	009027970	1312210558918	007440473	CHROMIUM	TRI	Pounds																		NA									N 																																																			NO	CURIG@GREENVILLEMETALS.COM			YES	 	
2012	NO	17602JWLTR411EA	J WALTER MILLER CO	411 E CHESTNUT ST	LANCASTER	LANCASTER	PA	17602	YES	NO	NO	NO								331525						40.04189	-76.297158	003009685										1312210582363	007440508	COPPER	TRI	Pounds																		A	A06								N 	E4		A	A06								N 	E3																																						NO				YES	 	
2012	NO	19380CHBBN350EA	KIDDE FIRE FIGHTING INC	350 E UNION ST	WEST CHESTER	CHESTER	PA	19382	YES	NO	NO	NO								325998						39.950109	-75.599654	157295361								UNITED TECHNOLOGIES CORP	001344142	1312210751549	000107211	ETHYLENE GLYCOL	TRI	Pounds																		NA									N 																																																			NO	RUSTY.FURTICK@KIDDE-FIRE.COM			NO	 	
2012	NO	19603NTRNTPOBOX	IFS INDUSTRIES INC	400 ORRTON AVE	READING	BERKS	PA	19611	NO	NO	NO	NO								325520						40.314832	-75.928708	014498109		PAD014998109						ONA CORP	161000708	1312210854004	000067630	ISOPROPYL ALCOHOL (MANUFACTURING,STRONG-ACID PROCESS ONLY,NO SUPPLIER)	TRI	Pounds																																																																														NO	PDONAHUE@IFSCOS.COM			NO	 	
2012	NO	16201RMSTRRD1ST	ALLEGHENY ENERGY INC ARMSTRONG POWER STATION	R D 1 STATE RT 4006	KITTANNING	ARMSTRONG	PA	16201	YES	NO	NO	NO								221112						40.9294	-79.4671	007911050		PAD052191806		PA0002917				ALLEGHENY ENERGY INC	006979660	1312210141204	007664939	SULFURIC ACID (1994 AND AFTER "ACID AEROSOLS" ONLY)	TRI	Pounds																		A	A05	A07							N 	E5																																																		NO	DURBINM@FIRSTENERGYCORP.COM			NO	 	
2012	NO	19406DCKSN386EB	DICKSON INVESTMENT HARDWARE INC	386 E CHURCH RD	KING OF PRUSSIA	MONTGOMERY	PA	19406	YES	NO	NO	NO								331512						40.090569	-75.343313	057965915										1312210680878	007440473	CHROMIUM	TRI	Pounds																																																																														NO	JOHN@DICKSON-HDW.COM			YES	 	
2012	NO	16148DVNCDONELL	CCL CONTAINER AEROSOL DIV	ONE LLODIO DR	HERMITAGE	MERCER	PA	16148	YES	NO	NO	NO								332431						41.196294	-80.47852	153743653										1312210037863	000872504	N-METHYL-2-PYRROLIDONE	TRI	Pounds																		A	H040								N 	E4																																																		NO	EFRANTZ@CCLIND.COM			NO	 	
2012	NO	17537XDCRP829PA	EXIDE TECHNOLOGIES LAMPETER	829 PARAMOUNT AVE	LANCASTER	LANCASTER	PA	17602	YES	NO	NO	NO								325211						40.015	-76.247222	038009866								EXIDE TECHNOLOGIES		1312210618892	007439921	LEAD	TRI	Pounds																		NA									N 																																																			NO	THOM.BEAKY@EXIDE.COM			YES	 	
2012	NO	15136STNDR75NIC	STANDARD FORGED PRODUCTS LLC PLT 1112	75 NICHOL AVE	MC KEES ROCKS	ALLEGHENY	PA	15136	YES	NO	NO	NO								332111						40.48237	-80.06525	608351797								TRINITY INDUSTRIES INC	007324254	1312210012959	007440020	NICKEL	TRI	Pounds																																																																														NO	THEIS.RICE@TRIN.NET			YES	 	
2012	NO	15864GLNGRRT28	GLEN-GERY CORP	RT 28	SUMMERVILLE	JEFFERSON	PA	15864	YES	NO	NO	NO								327121						41.119787	-79.190039	004318341								OLDCASTLE INC	037176591	1312209983473	N450	MANGANESE COMPOUNDS	TRI	Pounds																																																																														NO	DAN.HANNON@OLDCASTLE.COM			YES	 	
2012	NO	18848MSNTCMASON	CRAFTMASTER MANUFACTURING INC	825 SHINER RD	WYSOX	BRADFORD	PA	18854	YES	NO	NO	NO								321219						41.763408	-76.416051	009040288								JELD-WEN INC	009040288	1312210083059	N450	MANGANESE COMPOUNDS	TRI	Pounds																		A	A07	A06	A05	A03	H040				N 	E3		A	H040								N 	E6		A	H040								N 	E6		A	A07	A06	A05	A03	H040				N 	E3		A	A06	A05	A03	H040					N 	E3		NO	COLBY.BENTON@CMICOMPANY.COM			YES	 	
2012	NO	15061PLYSR370FR	BASF CORP	370 FRANKFORT RD	MONACA	BEAVER	PA	15061	YES	NO	NO	NO								325211	325212					40.660554	-80.347521	001307032								BASF CORP	071014385	1312210103990	N511	NITRATE COMPOUNDS	TRI	Pounds																		W	H121	H077	H124	H081	H121	H123	H124		N 	E4																																																		NO				NO	 	
2012	NO	1616WPMKLC4CUNC	PM KALCO INC	40 COUNCIL AVE	WHEATLAND	MERCER	PA	16161	YES	NO	NO	NO								331528						41.19669	-80.49228	087623109								PM RECOVERY INC.	039397849	1312210292999	007440020	NICKEL	TRI	Pounds																		NA									N 																																																			NO	CHRISTINE@PMRECOVERY.COM			YES	 	
2012	NO	18071MPLNCRD2LI	AMPAL INC	2125 LITTLE GAP RD	PALMERTON	CARBON	PA	18071	YES	NO	NO	NO								331314						40.81729	-75.55184	075373027								US METAL POWDERS INC	004109290	1312210408769	007429905	ALUMINUM (FUME OR DUST)	TRI	Pounds																		NA									N 																																																			NO	JASKELAN@AMPAL-INC.COM			YES	 	
2012	NO	16229BRGNDSILVE	OBERG FREEPORT	2301 SILVERVILLE RD	FREEPORT	BUTLER	PA	16229	YES	NO	NO	NO								333514	339112					40.680621	-79.678937	004344644								OBERG INDUSTRIES INC	004344644	1312210766871	007440484	COBALT	TRI	Pounds																		A	A06								N 	E4																																																		NO	GREG.CHAMBERS@OBERG.COM			YES	 	
2012	NO	15061MTSZC300FR	HORSEHEAD ZINC POWDERS LLC	302 FRANKFORT RD	MONACA	BEAVER	PA	150612295	YES	NO	NO	NO								331419						40.67058	-80.3365									HORSEHEAD HOLDING CORP.		1312210860666	N420	LEAD COMPOUNDS	PBT	Pounds																		A	A06								N 	E3																																																		NO	AALAVI@HORSEHEAD.NET			YES	 	
2012	NO	19428CHMLLCONSH	CHEMALLOY CO INC	1301 CONSHOHOCKEN RD	CONSHOHOCKEN	MONTGOMERY	PA	19428	YES	NO	NO	NO								331112						40.098917	-75.317372	043566777								CHEMALLOY CO INC	043566777	1312210062042	N450	MANGANESE COMPOUNDS	TRI	Pounds																		NA									N 																																																			NO				YES	 	
2012	NO	16502BCNDS1325L	EBC INDUSTRIES	1325 LIBERTY ST	ERIE	ERIE	PA	16502	YES	NO	NO	NO								332722						42.115278	-80.097222	045764958								DONCASTERS LTD	805345170	1312210145470	007440473	CHROMIUM	TRI	Pounds																		NA									N 																																																			NO	DPERRY@EBCIND.COM			YES	 	
2012	NO	15857CNTCT229WC	CONTACT TECHNOLOGIES INC	229 W CREEK RD	SAINT MARYS	ELK	PA	158570149	YES	NO	NO	NO								335931						41.452778	-78.550278	361850530										1312210518751	007440224	SILVER	TRI	Pounds																		NA									N 																																																			NO	MLWHITEMAN_CTI@WINDSTREAM.NET			YES	 	
2012	NO	16424MLDDFEASTE	MOLDED FIBER GLASS TRAY CO	6175 U.S. HWY 6	LINESVILLE	CRAWFORD	PA	16424	YES	NO	NO	NO								326199						41.52278	-80.40721	803687995								MOLDED FIBER GLASS CO	048414098	1312210417580	000100425	STYRENE	TRI	Pounds																		NA									N 																																																			NO	JTHOMPSON@MFGTRAY.COM			NO	 	
2012	NO	19030SSFRLMAILS	USS FAIRLESS PLANT	S END PENNSYLVANIA AVE	FAIRLESS HILLS	BUCKS	PA	19030	YES	NO	NO	NO								331111						40.1567	-74.74544	118965966								US STEEL CORP	029990699	1312210512416	007439921	LEAD	TRI	Pounds																		W	H121	H071	H123	H101	H124				N 	E2																																																		NO	CABOONE@USS.COM			YES	 	
2012	NO	18014KYSTNRT329	KEYSTONE CEMENT CO	RT 329	BATH	NORTHAMPTON	PA	180140058	YES	NO	NO	NO								327310						40.7159	-75.3985	869563304								GIANT CEMENT HOLDING INC	869563304	1312210719035	000108101	METHYL ISOBUTYL KETONE	TRI	Pounds																		NA									N 																																																			NO	JEFFERY.SMITH@GCPV.COM			NO	 	
2012	NO	15774KYSTNRTE21	KEYSTONE POWER PLANT	313 KEYSTONE DR	SHELOCTA	ARMSTRONG	PA	157747625	YES	NO	NO	NO								221112						40.659509	-79.337818									NRG ENERGY INC	793422213	1312210110565	N982	ZINC COMPOUNDS	TRI	Pounds																		W	H129	H121	H071	H123	H101				N 	E4		A	A05								N 	E4																																						NO	MARK.JACKLIN@NRGENERGY.COM			YES	 	
2012	NO	16117CLGNCPOBOX	NALCO CO	125 NALCO WAY/RT 65	ELLWOOD CITY	BEAVER	PA	16117	YES	NO	NO	NO								325998						40.851731	-80.273952	006154611								ECOLAB INC	006154611	1312210140618	000079061	ACRYLAMIDE	TRI	Pounds																		NA									N 																																																			NO	SSCHAWALDER@NALCO.COM	RR5		NO	 	
2012	NO	1512WLFRGD481BU	LAFARGE - DUQUESNE SLAG	4810 BUTTERMILK HOLLOW RD	WEST MIFFLIN	ALLEGHENY	PA	15122	YES	NO	NO	NO								327992						40.35823	-79.909058	884046079								LAFARGE N.A.	067568246	1312210196414	N420	LEAD COMPOUNDS	PBT	Pounds																		A	A06								N 	E6																																																		NO	BRENDYN.JONES@LAFARGE-NA.COM			YES	 	
2012	NO	16101NRTHM710MO	NORTH AMERICAN FORGEMASTERS	710 MORAVIA ST	NEW CASTLE	LAWRENCE	PA	16101	YES	NO	NO	NO								332111						40.991199	-80.352676	035422612								ECF HOLDINGS CO (50%) & SCOT FORGE HOLDINGS INC (50%)		1312210144489	007439965	MANGANESE	TRI	Pounds																		NA									N 																																																			NO	GFRAY@ELWD.COM			YES	 	
2012	NO	19061PSLNPBLUEB	BRASKEM AMERICA INC	750 W 10TH ST	MARCUS HOOK	DELAWARE	PA	19061	YES	NO	NO	NO								325211						39.817776	-75.427628	161669049								BRASKEM AMERICA		1312210233161	N100	COPPER COMPOUNDS	TRI	Pounds																		NA									N 																																																			NO	JEREMY.GLISSON@BRASKEM.COM			YES	 	
2012	NO	15144PPGND125CO	PPG INDUSTRIES,INC-SPRINGDALE COMPLEX	125 COLFAX ST	SPRINGDALE	ALLEGHENY	PA	15144	YES	NO	NO	NO								325510						40.537182	-79.785081	004336319								PPG INDUSTRIES INC	001344803	1312210262200	N982	ZINC COMPOUNDS	TRI	Pounds																																																																														NO	JOSEPHFRANK@PPG.COM			YES	 	
2012	NO	18063CNGRF4888S	CONAGRA FOODS MARTINS CREEK PA	4888 S DELAWARE DR	MARTINS CREEK	NORTHAMPTON	PA	18063	YES	NO	NO	NO								311211						40.7605	-75.1858	053064721								CONAGRA FOODS INC	007258908	1312210369005	007782505	CHLORINE	TRI	Pounds																																																																														NO	KEITH.LORENZ@CONAGRAFOODS.COM			NO	 	
2012	NO	16673PPLTN100PA	APPVION INC	100 PAPER MILL RD	ROARING SPRING	BLAIR	PA	16673	YES	NO	NO	NO								322121						40.347784	-78.399631	089581557								APPLETON PAPERS INC	089581557	1312210607976	010049044	CHLORINE DIOXIDE	TRI	Pounds																		A	A03								N 	E2		W	H129	H123	H129	H081	H123				N 	E1																																						NO	TCHURBOCK@APPVION.COM			NO	 	
2012	NO	18018BRRNM824TW	B BRAUN MEDICAL INC MANUFACTURING DIV	901 MARCON BLVD	ALLENTOWN	LEHIGH	PA	181099341	YES	NO	NO	NO								339112						40.641498	-75.447786	002397347								B BRAUN MEDICAL INC	044787661	1312210600324	000107211	ETHYLENE GLYCOL	TRI	Pounds																		NA									N 																																																			NO	DAVID.LAUER@BBRAUN.COM	RR5		NO	 	
2012	NO	17604THRMC780ED	THERMACORE INC	780 EDEN RD	LANCASTER	LANCASTER	PA	176014794	YES	NO	NO	NO								339999						40.070961	-76.290067	055625685										1312210081295	007440508	COPPER	TRI	Pounds																		NA									N 																																																			NO	G.J.BALDASSARRE@THERMACORE.COM			YES	 	
2012	NO	16063RMMTL7WNEW	ATI PRECISION FINISHING LLC - ZELIENOPLE	700 W NEW CASTLE ST	ZELIENOPLE	BUTLER	PA	16063	YES	NO	NO	NO								332312						40.79444	-80.14861	786601393								ALLEGHENY TECHNOLOGIES INC	004335154	1312210274508	N450	MANGANESE COMPOUNDS	TRI	Pounds																		NA									N 																																																			NO	DAN.GREENFIELD@ATIMETALS.COM			YES	 	
2012	NO	17318CHSDSCONNE	SHARRETTS PLATING CO INC	3315 CONNELLY RD	EMIGSVILLE	YORK	PA	17318	YES	NO	NO	NO								332813						40.02	-76.72194	069799419										1312210822882	N420	LEAD COMPOUNDS	PBT	Pounds																		W	H129	H121	H077	H123	NA					E3		S	H101	NA								E6																																						NO	SPC@SHARRETTSPLATING.COM			YES	 	
2012	NO	15147FFVLN1297E	AFFIVAL INC	1967 EASTERN AVE	VERONA	ALLEGHENY	PA	15147	YES	NO	NO	NO								332618						40.516944	-79.813056									AFFIVAL INC.		1312210278242	N090	CHROMIUM COMPOUNDS(EXCEPT CHROMITE ORE MINED IN THE TRANSVAAL REGION)	TRI	Pounds																																																																														NO	CARDELEAN@AFFIVALINC.COM			YES	 	
2012	NO	16003NTRNTPOBOX	NORTH AMERICAN STEEL & WIRE INC	629 E BUTLER RD	BUTLER	BUTLER	PA	16002	YES	NO	NO	NO								331222	332813					40.867286	-79.871165	962790841								STEMAR INVESTMENTS INC		1312210564340	N982	ZINC COMPOUNDS	TRI	Pounds																		W	H121	H123	H101						N 	E6																																																		NO	GSTARESINIC@NASW.BIZ			YES	 	
2012	NO	17402HRLYD1425E	HARLEY-DAVIDSON MOTOR CO OPERATIONS INC	1425 EDEN RD	YORK	YORK	PA	17402	YES	NO	NO	NO								336991						39.988007	-76.716486	062629324								HARLEY-DAVIDSON MOTOR CO		1312210608129	N230	CERTAIN GLYCOL ETHERS	TRI	Pounds																		W	H121	H071	H129	H123	H101				N 	E6		A	H040								N 	E4																																						NO	SHARON.FISHER@HARLEY-DAVIDSON.COM			NO	 	
2012	NO	16433LRDCRSOUTH	LORD CORP	601 S ST	SAEGERTOWN	CRAWFORD	PA	164331050	YES	NO	NO	NO								325520	325510					41.713056	-80.141944	048203822								LORD CORP	048203822	1312210460996	000075092	DICHLOROMETHANE	TRI	Pounds																		NA									N 																																																			NO	DAWN_ASTORINO@LORD.COM			NO	 	
2012	NO	15201PRSSR3419S	PRESSURE CHEMICAL CO	3419 SMALLMAN ST	PITTSBURGH	ALLEGHENY	PA	15201	YES	NO	NO	NO								325199						40.463673	-79.968266	004498432								PRESSURE CHEMICAL CO.	004498432	1312210519447	000067561	METHANOL	TRI	Pounds																		NA									N 																																																			NO				NO	 	
2012	NO	17856THRML2821L	SPX THERMAL PRODUCT SOLUTIONS	2821 OLD RT 15	NEW COLUMBIA	UNION	PA	17856	YES	NO	NO	NO								333994	333999					41.061609	-76.869949	106206857								SPX CORP		1312210614703	007440473	CHROMIUM	TRI	Pounds																		NA									N 																																																			NO	KELLI.LYTLE@SPX.COM			YES	 	
2012	NO	16025LLGHN1024K	CMC IMPACT METALS	1024 KITTANING PIKE	CHICORA	BUTLER	PA	160252030	YES	NO	NO	NO								332811						40.960556	-79.691944	965526593								COMMERCIAL METALS CO	007925845	1312210123814	N450	MANGANESE COMPOUNDS	TRI	Pounds																																																																														NO	ALAN.GILLESPIE@CMC.COM			YES	 	
2012	NO	15025MRTHN1100G	MARATHON PETROLEUM CO - FLOREFFE PA ASPHALT	1100 GLASS HOUSE RD	JEFFERSON HILLS	ALLEGHENY	PA	15025	YES	NO	NO	NO								324121	424710					40.256389	-79.916944	156082042								MARATHON PETROLEUM CORP	968393996	1312210399972	000091203	NAPHTHALENE	TRI	Pounds																		NA									N 																																																			NO	WGMOORE@MARATHONPETROLEUM.COM			NO	 	
2012	NO	15020SNCCHBUNOL	UNIVAR USA INC - BUNOLA BRANCH	328 BUNOLA RIVER RD	BUNOLA	ALLEGHENY	PA	15020	YES	NO	NO	NO								424690						40.237222	-79.961389									UNIVAR USA INC	102971785	1312210459121	007664417	AMMONIA	TRI	Pounds																																																																														NO	STEVEN.BERG@UNIVARUSA.COM			NO	 	
2012	NO	15020SNCCHBUNOL	UNIVAR USA INC - BUNOLA BRANCH	328 BUNOLA RIVER RD	BUNOLA	ALLEGHENY	PA	15020	YES	NO	NO	NO								424690						40.237222	-79.961389									UNIVAR USA INC	102971785	1312210459158	000100414	ETHYLBENZENE	TRI	Pounds																																																																														NO	STEVEN.BERG@UNIVARUSA.COM			NO	 	
2012	NO	15748MHMRC1750P	HOMER CITY GENERATION LP	1750 POWER PLANT RD	HOMER CITY	INDIANA	PA	15748	YES	NO	NO	NO								221112						40.511254	-79.194364	077011539								AIRCRAFT SERVICES CORP	037512191	1312210606808	007664939	SULFURIC ACID (1994 AND AFTER "ACID AEROSOLS" ONLY)	TRI	Pounds																		A	A07	A05	A03						N 	E5																																																		NO	GARY.CLINE@NRGENERGY.COM			NO	 	
2012	NO	19145TLNTC3144P	PHILADELPHIA ENERGY SOLUTIONS REFINING PHILADELPHIA REFINERY	3144 PASSYUNK AVE	PHILADELPHIA	PHILADELPHIA	PA	19145	YES	NO	NO	NO								324110						39.91354	-75.19889	078625328								PHILADELPHIA ENERGY SOLUTIONS REFINING & MARKETING LLC		1312210711432	N420	LEAD COMPOUNDS	PBT	Pounds																		NA									N 																																																			NO	CHERICE.CORELY@PES-COMPANIES.COM			YES	 	
2012	NO	16950MTLKRRTE49	METALKRAFT INDUSTRIES INC	1944 SHUMWAY HILL RD	WELLSBORO	TIOGA	PA	16901	YES	NO	NO	NO								332117						41.74174	-77.26803	101657211										1312210144174	007440020	NICKEL	TRI	Pounds																																																																														NO	AARON@METALKRAFTPM.COM			YES	 	
2012	NO	17868MRCKC100AV	CHEROKEE PHARMACEUTICALS LLC	100 AVE C	RIVERSIDE	NORTHUMBERLAND	PA	17868	YES	NO	NO	NO								325110	325414	325320				40.96131	-76.64329	001317064		PAD003043353		PA0008419				MERCK & CO INC	003043353	1312210409052	000108883	TOLUENE	TRI	Pounds																		W	H075	H129	H121	H081	H123	H101	H040		N 	E3		A	A02								N 	E5		A	H040	H121	A03						N 	E2																										NO	REG.TANNER@MERCK.COM			NO	 	
2012	NO	15139TRNGL931TH	GLOBAL CIRCUITS INC	931 3RD ST	OAKMONT	ALLEGHENY	PA	15139	YES	NO	NO	NO								334412						40.526564	-79.842689									MBG TECHNOLOGIES INC.		1312209923388	000128041	SODIUM DIMETHYLDITHIOCARBAMATE	TRI	Pounds																		W	H129								N 	E5																																																		NO	JCLARK@GLOBALCIRCUITS.COM			NO	 	
2012	NO	15853LPHSNBOX42	ALPHA SINTERED METALS	95 MASON RUN RD	RIDGWAY	ELK	PA	15853	YES	NO	NO	NO								332117						41.45645	-78.749751	046770582										1312210078414	007440473	CHROMIUM	TRI	Pounds																		NA									N 																																																			NO	JBUTTERFUSS@ALPHASINTERED.COM			YES	 	
2012	NO	17841HLLMREASTO	HALLMARK IND	48 E OHIO ST	MCCLURE	SNYDER	PA	178418884	YES	NO	NO	NO								337215						40.708132	-77.306378	007259484		PAD001944859								1312210796266	007439921	LEAD	TRI	Pounds																		NA									N 																																																			NO	KERRY.SHAFFAR@LOZIER.BIZ			YES	 	
2012	NO	19034MCNLCCAMPH	MCNEIL CONSUMER HEALTHCARE	7050 CAMPHILL RD	FORT WASHINGTON	MONTGOMERY	PA	19034	YES	NO	NO	NO								325412						40.125256	-75.209023	002347102								JOHNSON & JOHNSON INC	001307081	1312210430740	000191242	BENZO(G,H,I)PERYLENE	PBT	Pounds																		NA									N 																																																			NO	SGROGAN@ITS.JNJ.COM			NO	 	
2012	NO	15225NVLLC2800N	NEVILLE CHEMICAL CO	2800 NEVILLE RD	PITTSBURGH	ALLEGHENY	PA	152251496	YES	NO	NO	NO								325188						40.502778	-80.099167	004334157										1312210540237	000098828	CUMENE	TRI	Pounds																		W	H121	H129	H124	H123	H082				N 	E4		A	H040								N 	E3																																						NO	ZOSIECKI@NEVCHEM.COM			NO	 	
2012	NO	15522HDSTRSUNNY	DEFIANCE METAL PRODUCTS	550 SUNNYSIDE RD, SUITE 101	BEDFORD	BEDFORD	PA	15522	YES	NO	NO	NO								332116						40.021774	-78.482552	005041272		PAD001127331		PA0007625						1312210120996	007439965	MANGANESE	TRI	Pounds																		NA									N 																																																			NO	FWILLIS@DEFIANCEMETAL.COM			YES	 	
2012	NO	19020LFTCH100PA	ARKEMA INC ALTUGLAS DIV	100 PA RT 413	BRISTOL	BUCKS	PA	19007	YES	NO	NO	NO								325211						40.097713	-74.871887	002290773								ARKEMA DELAWARE INC	622121697	1312210410318	000100425	STYRENE	TRI	Pounds																		A	A03								N 	E6																																																		NO	STEVE.BADER@ARKEMA.COM			NO	 	
2012	NO	17857KYSTN215DU	KEYSTONE FORGING CO	215 DUKE ST	NORTHUMBERLAND	NORTHUMBERLAND	PA	178571838	YES	NO	NO	NO								332111						40.888687	-76.797713	003045085										1312210131532	007440473	CHROMIUM	TRI	Pounds																		NA									N 																																																			NO				YES	 	
2012	NO	19032THBLL1640D	BULLEN COS	1640 DELMAR DR	FOLCROFT	DELAWARE	PA	19032	YES	NO	NO	NO								325611						39.895391	-75.277407	004019001										1312210284915	N230	CERTAIN GLYCOL ETHERS	TRI	Pounds																																																																														NO	SJARDEN@BULLENAIRX.COM			NO	 	
2012	NO	16740LLGHNRD1HU	GEORGIA-PACIFIC-MTJEWETT COMPLE X-MDF	149 TEMPLE DR	MOUNT JEWETT	MCKEAN	PA	16740	YES	NO	NO	NO								321219						41.676174	-78.643359	126484422								KOCH INDUSTRIES INC	006944334	1312210853432	000067561	METHANOL	TRI	Pounds																		A	H040								N 	E5		A	H040								N 	E5																																						NO	HEATHER.REITER@GAPAC.COM	RR2		NO	 	
2012	NO	17331PNNMR500BR	PENN-MAR CASTINGS INC	500 BROADWAY	HANOVER	YORK	PA	17331	YES	NO	NO	NO								331511						39.8051	-76.979703	184562635		PAR000008789								1312210139566	007439965	MANGANESE	TRI	Pounds																		NA									N 																																																			NO	JLEMMERMAN@PENNMARCASTINGS.COM			YES	 	
2012	NO	19067VNWTR200DE	UNIVAR USA INC MORRISVILLE BRANCH	200 DEAN SIEVERS PL	MORRISVILLE	BUCKS	PA	19067	YES	NO	NO	NO								424690						40.214889	-74.823	102971785								UNIVAR USA INC	102971785	1312210207256	N230	CERTAIN GLYCOL ETHERS	TRI	Pounds																		NA									N 																																																			NO	STEVE.LAMB@UNIVARUSA.COM			NO	 	
2012	NO	17370BRNNRWAGOR	BRUNNER ISLAND STEAM ELECTRIC STATION	WAGO RD PPL BRUNNER ISLAND SES	YORK HAVEN	YORK	PA	173700221	YES	NO	NO	NO								221112						40.095991	-76.696951	063877997								PPL CORP	143513583	1312210419533	007664939	SULFURIC ACID (1994 AND AFTER "ACID AEROSOLS" ONLY)	TRI	Pounds																		A	A05	A06	H123	A03					N 	E1																																																		NO	RDFOLTZ@PPLWEB.COM			NO	 	
2012	NO	17066BNNYFRT522	BONNEY FORGE CORP	14496 CROGHAN PIKE	MOUNT UNION	HUNTINGDON	PA	17066	YES	NO	NO	NO								332111						40.365278	-77.865278	121715908								BONNEY FORGE CORP		1312210597264	007439965	MANGANESE	TRI	Pounds																		NA									N 																																																			NO	GGRIBBLE@BONNEYFORGE.COM			YES	 	
2012	NO	19428SMTHK900RI	JOHNSON MATTHEY INC	900 RIVER RD	CONSHOHOCKEN	MONTGOMERY	PA	19428	YES	NO	NO	NO								325199						40.07893	-75.321556	002326734								JOHNSON MATTHEY INC	002326734	1312210613547	000108883	TOLUENE	TRI	Pounds																		L	H040								N 	E2		A	A02								N 	E4		W	H081								N 	E5																										NO	PETER.MCGINNIS@JMUSA.COM			NO	 	
2012	NO	19061BPLCMPOSTR	MONROE ENERGY LLC - TRAINER REFINERY	4101 POST RD	TRAINER	DELAWARE	PA	19061	YES	NO	NO	NO								324110						39.829311	-75.401169	078522170								DELTA AIR LINES INC.	006924872	1312210641787	000110827	CYCLOHEXANE	TRI	Pounds																		A	A01								N 	E3		W	H124	H121	H123	H129	H081	H101	H123		N 	E5																																						NO	MATT.TORELL@MONROE-ENERGY.COM			NO	 	
2012	NO	16946WRDMNRTE15	HITACHI METALS AUTOMOTIVE COMPONENTS USA LLC	18986 RT 287	LAWRENCEVILLE	TIOGA	PA	16929	YES	NO	NO	NO								331511						41.963056	-77.109167									HITACHI METALS OF AMERICA LTD	070572482	1312210282481	N100	COPPER COMPOUNDS	TRI	Pounds																		NA									N 																																																			NO				YES	 	
2012	NO	17552SPNGL19NOR	WILKINS ROGERS MILLS	19 N MARKET ST	MOUNT JOY	LANCASTER	PA	17552	YES	NO	NO	NO								311211						40.110884	-76.503061									WILKINS-ROGERS INC	053937983	1312209913779	007782505	CHLORINE	TRI	Pounds																																																																														NO	TROGERS@WRMILLS.COM			NO	 	
2012	NO	16101LLWDD700MO	ELLWOOD QUALITY STEELS CO	700 MORAVIA ST	NEW CASTLE	LAWRENCE	PA	16101	YES	NO	NO	NO								331111						40.986078	-80.351404	940921083										1312209965223	N096	COBALT COMPOUNDS	TRI	Pounds																		NA									N 																																																			NO	RSCHOCHET@ELWD.COM			YES	 	
2012	NO	17921GLDSPEASTC	ASHLAND FOUNDRY & MACHINE WORKS	500 E CENTRE ST	ASHLAND	SCHUYLKILL	PA	17921	YES	NO	NO	NO								331513	332710	332811	332997			40.783421	-76.333004	832943943										1312210094874	007440508	COPPER	TRI	Pounds																		NA									N 																																																			NO	ALDEN.ROBERTS@ASHLANDFOUNDRYMACHINE.COM			YES	 	
2012	NO	15656LLGHNPOBOX	ALLEGHENY LUDLUM LLC	585 SILICON DR	LEECHBURG	ARMSTRONG	PA	156568545	YES	NO	NO	NO								331111						40.641389	-79.6	004335162								ALLEGHENY TECHNOLOGIES INC	949262737	1312210259077	N495	NICKEL COMPOUNDS	TRI	Pounds																		A	A06								N 	E3		W	H129	H077	H121	H123	H101				N 	E3																																						NO	DAN.GREENFIELD@ATIMETALS.COM			YES	 	
2012	NO	17821MNTRS18MCM	MONTOUR STEAM ELECTRIC STATION	18 MCMICHAEL RD	DANVILLE	MONTOUR	PA	17821	YES	NO	NO	NO								221122						41.069974	-76.665133	621528199								PPL CORP	144973083	1312210419317	N150	DIOXIN AND DIOXIN-LIKE COMPOUNDS	DIOXIN	Grams																		A	A05	A06	H123	A03					N 	E3																																																		NO	JLMCCABE@PPLWEB.COM			NO	 	
2012	NO	17552DNSCNSOUTH	DONSCO INC	100 S JACOB ST	MOUNT JOY	LANCASTER	PA	17552	YES	NO	NO	NO								331511						40.1075	-76.494999	069776987										1312210260170	007440508	COPPER	TRI	Pounds																		NA									N 																																																			NO	JFLUCK@DONSCO.COM			YES	 	
2012	NO	17552DNSCNSOUTH	DONSCO INC	100 S JACOB ST	MOUNT JOY	LANCASTER	PA	17552	YES	NO	NO	NO								331511						40.1075	-76.494999	069776987										1312210260257	000108952	PHENOL	TRI	Pounds																		NA									N 																																																			NO	JFLUCK@DONSCO.COM			NO	 	
2012	NO	17833WDMTL1SECO	WOOD-MODE INC	1 SECOND ST	KREAMER	SNYDER	PA	17833	YES	NO	NO	NO								337110						40.80407	-76.96337	003019114										1312210062903	000100414	ETHYLBENZENE	TRI	Pounds																		A	H040								N 	E3																																																		NO	JASOND@WOODMODE.COM			NO	 	
2012	NO	19601MRTNP150CO	AKZO NOBEL COATINGS	150 COLUMBIA ST	READING	BERKS	PA	19601	YES	NO	NO	NO								325510						40.353151	-75.94664	062999347								AKZO NOBEL NV	232127291	1312210072777	N982	ZINC COMPOUNDS	TRI	Pounds																		W	H071								N 	E4																																																		NO	KEITH.ORT@AKZONOBEL.COM			YES	 	
2012	NO	18042SMTHN2000S	SMOOTH-ON INC	2000 ST JOHN ST	EASTON	NORTHAMPTON	PA	18042	YES	NO	NO	NO								325998						40.673	-75.206	001215425										1312210162626	N458	MERCURY COMPOUNDS	PBT	Pounds																		NA									N 																																																			NO	DOM@SMOOTH-ON.COM			YES	 	
2012	NO	15935FRSTMRTE60	NORTH AMERICAN HOGANAS	111 HOGANAS WAY	HOLLSOPPLE	SOMERSET	PA	159356416	YES	NO	NO	NO								331111	331513					40.192646	-78.933994	196671416								NORTH AMERICAN HOGANAS INC	090160008	1312210301329	N982	ZINC COMPOUNDS	TRI	Pounds																		NA									N 																																																			NO	TERRY.HUNSICKER@NAH.COM			YES	 	
2012	NO	15122SFTYK650NO	SAFETY-KLEEN SYSTEMS (414502)	650 NOBLE DR	WEST MIFFLIN	ALLEGHENY	PA	15122	YES	NO	NO	NO								562112	484220	484230				40.361155	-79.931012	053976551								SAFETY-KLEEN INC	053976551	1312210391316	000107211	ETHYLENE GLYCOL	TRI	Pounds																		NA									N 																																																			NO	WAYNE.HARVEY@SAFETY-KLEEN.COM			NO	 	
2012	NO	15834GKNSNRR2AI	GKN SINTER METALS - AIRPORT RO AD	1 AIRPORT RD	EMPORIUM	CAMERON	PA	15834	YES	NO	NO	NO								332117						41.508674	-78.24501	002131837								GKN N.A. INC	002131837	1312210024511	007440508	COPPER	TRI	Pounds																		NA									N 																																																			NO	TONY.CASILIO@GKNSINTERMETALS.COM			YES	 	
2012	NO	16501NNLCT1712G	UNION ELECTRIC STEEL CORP	1712 GREENGARDEN RD	ERIE	ERIE	PA	16501	YES	NO	NO	NO								333516						42.105613	-80.116171									AMPCO-PITTSBURGH CORP	004327862	1312209989639	007440473	CHROMIUM	TRI	Pounds																		NA									N 																																																			NO	BKELLY@UNIONES.COM			YES	 	
2012	NO	1673WLLGHN11LIN	ALLEGHENY BRADFORD CORP	11 LINCOLN AVE	LEWIS RUN	MCKEAN	PA	16738	YES	NO	NO	NO								332410	332996	332813	332313			41.869336	-78.662385	059958983								ALLEGHENY BRADFORD CORP	059958983	1312209969726	007440473	CHROMIUM	TRI	Pounds																																																																														NO	DMCCUNE@ALLEGHENYBRADFORD.COM			YES	 	
2012	NO	16373MTLLB1058T	FUCHS LUBRICANTS CO	105 EIGHTH ST	EMLENTON	VENANGO	PA	16373	YES	NO	NO	NO								324191						41.183394	-79.699772	005127402								FUCHS LUBRICANTS CO		1312210054449	007664417	AMMONIA	TRI	Pounds																		NA									N 																																																			NO	CBIGELOW@FUCHS.COM			NO	 	
2012	NO	17931WHLBRMOREA	WHEELABRATOR FRACKVILLE ENERGY CO INC	475 MOREA RD	FRACKVILLE	SCHUYLKILL	PA	17931	YES	NO	NO	NO								221112						40.7817	-76.1781	188414303								WASTE MANAGEMENT INC	047577416	1312210269623	N725	SELENIUM COMPOUNDS	TRI	Pounds																		NA									N 																																																			NO				YES	 	
2012	NO	16335PPGNDKEBER	PITTSBURGH GLASS WORKS LLC WORKS 8	5123 VICTORY BLVD	COCHRANTON	CRAWFORD	PA	16314	YES	NO	NO	NO								327211						41.537276	-80.217006			PAD045878238		PA0027341						1312210548311	N096	COBALT COMPOUNDS	TRI	Pounds																		NA									N 																																																			NO	DVOGT@PGWGLASS.COM			YES	 	
2012	NO	16701KNDLL77NKE	AMERICAN REFINING GROUP INC	77 N KENDALL AVE	BRADFORD	MCKEAN	PA	16701	YES	NO	NO	NO								324110						41.965472	-78.633108	021957329										1312210722942	007664939	SULFURIC ACID (1994 AND AFTER "ACID AEROSOLS" ONLY)	TRI	Pounds																		NA									N 																																																			NO	SSHERK@AMREF.COM			NO	 	
2012	NO	16046PRVSB321MA	PURVIS BROTHERS INC	321 MARS-VALENCIA RD	MARS	BUTLER	PA	16046	YES	NO	NO	NO								424710						40.68848	-80.00567	014361588								PURVIS BROTHERS INC		1312209903398	000067561	METHANOL	TRI	Pounds																																																																														NO	MACPJR@PURVISBROS.COM			NO	 	
2012	NO	16124MRCNS97MAI	BONSAL AMERICAN INC	97 MAIN ST	FREDONIA	MERCER	PA	16124	YES	NO	NO	NO								327390						41.323889	-80.26	003149457								OLDCASTLE INC	037176591	1312209917982	N420	LEAD COMPOUNDS	PBT	Pounds																		NA									N 																																																			NO	JACK.COVER@OLDCASTLE.COM			YES	 	
2012	NO	17201KNSFD521EG	KNOUSE FOODS COOP INC CHAMBERSBURG PLANT	421 E GRANT ST	CHAMBERSBURG	FRANKLIN	PA	17201	YES	NO	NO	NO								311421						39.940987	-77.655024	003002680		PAD003022639						KNOUSE FOODS COOP INC		1312210254761	007664417	AMMONIA	TRI	Pounds																																																																														NO	CBENNETT@KNOUSE.COM			NO	 	
2012	NO	15650LTRBS2626L	LATROBE SPECIALTY METALS	2626 LIGONIER ST	LATROBE	WESTMORELAND	PA	15650	YES	NO	NO	NO								331111						40.302646	-79.372795	004393468								CARPENTER TECHNOLOGY CORP	002344315	1312210609487	001313275	MOLYBDENUM TRIOXIDE	TRI	Pounds																		A	A06								N 	E4		W	H123								N 	E4																																						NO	RWALKER@CARTECH.COM			YES	 	
2012	NO	18621GTLTSUSRTE	UGI DEVELOPMENT CO  HUNLOCK CREEK ENERGY CENTER	390 RT 11	HUNLOCK CREEK	LUZERNE	PA	18621	YES	NO	NO	NO								221112						41.201997	-76.070093	231650159								UGI DEVELOPMENT CO	231650159	1312209992914	007664417	AMMONIA	TRI	Pounds																		A	H071								N 	E4																																																		NO	PQUATTRINI@UGIES.COM			NO	 	
2012	NO	16056VNC  375SA	II-VI INC	375 SAXONBURG BLVD	SAXONBURG	BUTLER	PA	16056	YES	NO	NO	NO								333314						40.731667	-79.818333	055529333										1312210370250	N982	ZINC COMPOUNDS	TRI	Pounds																		W	H071	H124							N 	E3																																																		NO	RLEONARD@II-VI.COM			YES	 	
2012	NO	16134JMSTW108MA	JAMESTOWN COATING TECHNOLOGIES	108 MAIN ST	JAMESTOWN	MERCER	PA	16134	YES	NO	NO	NO								325510						41.484096	-80.43802	004323788										1312210723540	001330207	XYLENE (MIXED ISOMERS)	TRI	Pounds																		NA									N 																																																			NO	CGEORGE@JAMESTOWNCOATINGS.COM			NO	 	
2012	NO	16825GLNGRBOX33	GLEN-GERY CORP BIGLER PLANT	24 PINE TOP RD	BIGLER	CLEARFIELD	PA	168250338	YES	NO	NO	NO								327121						40.98099	-78.31019	004318341								OLDCASTLE INC	037176591	1312209983396	N040	BARIUM COMPOUNDS	TRI	Pounds																																																																														NO	BURT.DIXON@OLDCASTLE.COM			YES	 	
2012	NO	16505GNRLP1702P	GENERAL PARTITIONS MANUFACTURING CORP	1702 PENINSULA DR	ERIE	ERIE	PA	16505	YES	NO	NO	NO								337215						42.09497	-80.142929	041401472										1312210047445	007440473	CHROMIUM	TRI	Pounds																		NA									N 																																																			NO	SCOTT@GENERALPARTITIONS.COM			YES	 	
2012	NO	16003NTRNTPOBOX	NORTH AMERICAN STEEL & WIRE INC	629 E BUTLER RD	BUTLER	BUTLER	PA	16002	YES	NO	NO	NO								331222	332813					40.867286	-79.871165	962790841								STEMAR INVESTMENTS INC		1312210564314	007439965	MANGANESE	TRI	Pounds																		W	H121	H123	H101						N 	E6																																																		NO	GSTARESINIC@NASW.BIZ			YES	 	
2012	NO	1683WRCSNC14421	ORICA USA INC - CLEARFIELD PA	1442 18 HOLLOW RD	CLEARFIELD	CLEARFIELD	PA	16830	YES	NO	NO	NO								424690						40.973254	-78.448433	061783130								ORICA USA INC	949299622	1312210800708	N511	NITRATE COMPOUNDS	TRI	Pounds																		NA									N 																																																			NO	RANDY.NELSON@ORICA.COM			NO	 	
2012	NO	16512MDRNN613W1	MODERN INDUSTRIES INC	613 W 11TH ST	ERIE	ERIE	PA	16501	YES	NO	NO	NO								336350						42.11944	-80.09555	068736065										1312210818896	007664417	AMMONIA	TRI	Pounds																		NA									N 																																																			NO	DAVES@MODERNIND.COM			NO	 	
2012	NO	16136HRSCC6THMO	HARSCO METALS - KOPPEL	6TH & MOUNT ST C/O KOPPEL STEEL	KOPPEL	BEAVER	PA	16136	YES	NO	NO	NO								327992						40.8356	-80.32197	003952009								HARSCO CORP	003952009	1312210439574	N420	LEAD COMPOUNDS	PBT	Pounds																		NA									N 																																																			NO				YES	 	
2012	NO	19148SHLND2801S	ASHLAND PERFORMANCE MATERIALS PHILADELPHIA PLANT	2801 CHRISTOPHER COLUMBUS BLVD	PHILADELPHIA	PHILADELPHIA	PA	19148	YES	NO	NO	NO								325211						39.909557	-75.130454	051096592								ASHLAND INC	005003264	1312210201822	003296900	2,2-BIS(BROMOMETHYL)-1,3-PROPANEDIOL	TRI	Pounds																		NA									N 																																																			NO	GLRHODES@ASHLAND.COM			NO	 	
2012	NO	15059MDLNDRTE68	MARATHON PETROLEUM CO - MIDLAND PA TERMINAL	3852 RT 68	MIDLAND	BEAVER	PA	15059	YES	NO	NO	NO								424710						40.630066	-80.441732	068212752								MARATHON PETROLEUM CORP	968393996	1312210400026	000100414	ETHYLBENZENE	TRI	Pounds																		NA									N 																																																			NO	WGMOORE@MARATHONPETROLEUM.COM			NO	 	
2012	NO	19426SPRRT3900G	SUPERIOR TUBE CO INC	3900 GERMANTOWN PIKE	COLLEGEVILLE	MONTGOMERY	PA	194263112	YES	NO	NO	NO								331210						40.184927	-75.434621	002353407										1312210620302	007440473	CHROMIUM	TRI	Pounds																		W	H077	H121	H123	H101					N 	E5																																																		NO	RYAN.PRESTON@SUPERIORTUBE.COM			YES	 	
2012	NO	15801BRKPRGUYAV	STELLA-JONES CORP	392 LARKEYTOWN RD	DU BOIS	CLEARFIELD	PA	15801	YES	NO	NO	NO								321114						41.140618	-78.789752			PAD059087163		PAR224847				STELLA-JONES INC	605929814	1312210596209	008001589	CREOSOTE	TRI	Pounds																		W	H077	H081	H123	H082					N 	E3																																																		NO	MROSIEK@STELLA-JONES.COM			NO	 	
2012	NO	15748MHMRC1750P	HOMER CITY GENERATION LP	1750 POWER PLANT RD	HOMER CITY	INDIANA	PA	15748	YES	NO	NO	NO								221112						40.511254	-79.194364	077011539								AIRCRAFT SERVICES CORP	037512191	1312210606810	N770	VANADIUM COMPOUNDS	TRI	Pounds																		A	A07	A05	A03						N 	E3																																																		NO	GARY.CLINE@NRGENERGY.COM			YES	 	
2012	NO	17868MRCKC100AV	CHEROKEE PHARMACEUTICALS LLC	100 AVE C	RIVERSIDE	NORTHUMBERLAND	PA	17868	YES	NO	NO	NO								325110	325414	325320				40.96131	-76.64329	001317064		PAD003043353		PA0008419				MERCK & CO INC	003043353	1312210409037	000110543	N-HEXANE	TRI	Pounds																		W	H075	H129	H121	H081	H123	H101	H040		N 	E3		A	H040	H121	A03						N 	E2																																						NO	REG.TANNER@MERCK.COM			NO	 	
2012	NO	17402GNLCT1087V	GENIE ELECTRONICS CO INC	1087 VALLEY VIEW RD	YORK	YORK	PA	17406	YES	NO	NO	NO								334418						39.979167	-76.591667	054138433								GENIE ELECTRONICS CO INC	054138433	1312210487322	N420	LEAD COMPOUNDS	PBT	Pounds																		NA									N 																																																			NO	BMCMULLIN@GENIEELECTRONICS.COM			YES	 	
2012	NO	16501MRCNT522WE	AMERICAN TINNING & GALVANIZING CO	552 W 12TH ST	ERIE	ERIE	PA	16501	YES	NO	NO	NO								332813						42.119061	-80.093533											1312210678874	N982	ZINC COMPOUNDS	TRI	Pounds																		L	H129	H121	H071	H077					N 	E6		W	H129	H121	H071	H077					N 	E6		S	H129	H121	H071	H077					N 	E6																										NO				YES	 	
2012	NO	18105PRRCT22332	PRIOR COATED METALS	2233 26TH ST SW	ALLENTOWN	LEHIGH	PA	181036699	YES	NO	NO	NO								332812						40.567245	-75.477111	056602923								NICHOLAS J BOURAS	002562312	1312210281174	001330207	XYLENE (MIXED ISOMERS)	TRI	Pounds																		A	H040								N 	E4																																																		NO	MICKEY@PRIORCOATED.COM			NO	 	
2012	NO	19605TXTLCPOTTS	BRENNTAG NORTHEAST INC	81 W HULLER LN	READING	BERKS	PA	19605	YES	NO	NO	NO								424690						40.416944	-75.935	002361764								BRENNTAG N.A. INC	092963644	1312210514079	001330207	XYLENE (MIXED ISOMERS)	TRI	Pounds																		NA									N 																																																			NO	DEISENHOFER@BRENNTAG.COM			NO	 	
2012	NO	17325GWYNC1892Y	COOPERATIVE MILLING	1892 YORK RD	GETTYSBURG	ADAMS	PA	17325	YES	NO	NO	NO								311119						39.849818	-77.179428	008964637								SOUTHERN STATES COOP INC	008964637	1312210017733	N450	MANGANESE COMPOUNDS	TRI	Pounds																																																																														NO	ROGER.SCHOLTEN@SSCOOP.COM			YES	 	
2012	NO	16738LLGHN14EGB	ALLEGHENY SURFACE TECHNOLOGY	14 EGBERT LN	LEWIS RUN	MCKEAN	PA	16738	YES	NO	NO	NO								332813						41.868333	-78.6525	059958983		PAD055054316						ALLEGHENY BRADFORD CORP	059958983	1312209975349	007697372	NITRIC ACID	TRI	Pounds																		W	H071	H101	H121	H123					N 	E1																																																		NO	DMCCUNE@ALLEGHENYBRADFORD.COM			NO	 	
2012	NO	15061RMMTL27PEN	ATI PRECISION FINISHING LLC - MONACA	2070 PENNSYLVANIA AVE	MONACA	BEAVER	PA	15061	YES	NO	NO	NO								332312						40.684807	-80.267329	170757251								ALLEGHENY TECHNOLOGIES INC	004335154	1312210274510	N495	NICKEL COMPOUNDS	TRI	Pounds																		NA									N 																																																			NO	DAN.GREENFIELD@ATIMETALS.COM			YES	 	
2012	NO	15061BVRVL1899B	BEAVER VALLEY ALLOY FOUNDRY CO	4165 BRODHEAD RD	MONACA	BEAVER	PA	15061	YES	NO	NO	NO								331513						40.690622	-80.284784	004372488										1312210561080	007439965	MANGANESE	TRI	Pounds																		A	A06								N 	E4																																																		NO	TOM@BVALLEY.COM			YES	 	
2012	NO	19446LHGHV880AL	TUSCAN/LEHIGH DAIRIES INC	880 ALLENTOWN RD	LANSDALE	MONTGOMERY	PA	19446	YES	NO	NO	NO								311511						40.230944	-75.299667	152202990								TUSCAN/LEHIGH DAIRIES INC		1312210129591	N511	NITRATE COMPOUNDS	TRI	Pounds																		L	H121	H081	H123						N 	E1																																																		NO	JIM_MACRI@DEANFOODS.COM			NO	 	
2012	NO	1756WBSLMN77NRT	BOOSE ALUMINUM FOUNDRY CO INC	77 N REAMSTOWN RD	REAMSTOWN	LANCASTER	PA	17567	YES	NO	NO	NO								331524						40.214447	-76.120101	003004058										1312210074896	N120	DIISOCYANATES	TRI	Pounds																		NA									N 																																																			NO	PENNY@BOOSEALUM.COM			NO	 	
2012	NO	17362PHGLT228SO	P H GLATFELTER CO - SPRING GROVE MILL	228 S MAIN ST	SPRING GROVE	YORK	PA	173621000	YES	NO	NO	NO								322121						39.871147	-76.868351	003003407										1312210539336	N150	DIOXIN AND DIOXIN-LIKE COMPOUNDS	DIOXIN	Grams																		A	A06	A05							N 	E3		W	H123	H129	H081	H123					N 	E5		A	A03								N 	E5		W	H123	H082							N 	E5														NO	WILLIAM.YANAVITCH@GLATFELTER.COM			NO	 	
2012	NO	15927CLVRP141IN	COLVER POWER PROJECT	141 INTERPOWER DR	COLVER	CAMBRIA	PA	15927	YES	NO	NO	NO								221112						40.550378	-78.804741	110665130								INTER-POWER/AHL/CON PARTNERS LP	110665130	1312210030502	N982	ZINC COMPOUNDS	TRI	Pounds																		NA									N 																																																			NO				YES	 	
2012	NO	15931CMBRC243RU	CAMBRIA COGEN CO	243 RUBISCH RD	EBENSBURG	CAMBRIA	PA	15931	YES	NO	NO	NO								221112						40.473611	-78.701389	148629848								NORTHERN STAR GENERATION SERVICES LLC		1312210055063	N450	MANGANESE COMPOUNDS	TRI	Pounds																		NA									N 																																																			NO	SHAWN.SIMMERS@NSGEN.COM			YES	 	
2012	NO	17545WRLYB85WHI	WORLEY & OBETZ	85 WHITE OAK RD	MANHEIM	LANCASTER	PA	17545	YES	NO	NO	NO								424710						40.170972	-76.388194	014356463								WORLEY & OBETZ	014356463	1312210294967	000071432	BENZENE	TRI	Pounds																		NA									N 																																																			NO	GHESS@WORLEYOBETZ.COM			NO	 	
2012	NO	19543MRGNCONEMO	MORGAN TRUCK BODY LLC MORGANTOWN	1 MORGAN WAY	MORGANTOWN	BERKS	PA	19543	YES	NO	NO	NO								336211						40.159264	-75.875489	002360485								JB POINDEXTER & CO INC	154280655	1312210612925	N100	COPPER COMPOUNDS	TRI	Pounds																		NA									N 																																																			NO	DOUG.SANDERS@MORGANCORP.COM			YES	 	
2012	NO	16323JYTCHRTE8N	JOY TECHNOLOGIES INC	RT 8 N	FRANKLIN	VENANGO	PA	16323	YES	NO	NO	NO								333131						41.41666	-79.76944	172920225								JOY GLOBAL INC	153550793	1312210611810	N450	MANGANESE COMPOUNDS	TRI	Pounds																		NA									N 																																																			NO	VICKIE.WEBER@JOYGLOBAL.COM			YES	 	
2012	NO	15425BRDLY608WE	BRADLEY COATINGS GROUP	608 W CRAWFORD AVE	CONNELLSVILLE	FAYETTE	PA	15425	YES	NO	NO	NO								325510						40.016887	-79.596781	004319463								LOCKHART CHEMICAL CO	059079509	1312210267720	001330207	XYLENE (MIXED ISOMERS)	TRI	Pounds																		NA									N 																																																			NO	D.BENTLEY@BRADLEYCOATINGS.COM			NO	 	
2012	NO	15025RSTCH400ST	KOPPERS INC CLAIRTON TAR PLANT	300 N STATE ST	CLAIRTON	ALLEGHENY	PA	15025	YES	NO	NO	NO								324199						40.306459	-79.881715	938682853								KOPPERS INC	196991582	1312210562676	000108883	TOLUENE	TRI	Pounds																		A	A07								N 	E4																																																		NO				NO	 	
2012	NO	18411SNDVKIVYIN	SANDVIK MATERIALS TECHNOLOGY	982 GRIFFIN POND RD	CLARKS SUMMIT	LACKAWANNA	PA	18411	YES	NO	NO	NO								331210	331222	332611				41.525	-75.66	041023700								SANDVIK INC		1312210690400	007697372	NITRIC ACID	TRI	Pounds																		NA									N 																																																			NO	JIM.RUSK@SANDVIK.COM			NO	 	
2012	NO	16115PTTSBCANNE	ALLIANCE TUBULAR HOLDINGS LLC	305 CANNELTON RD	DARLINGTON	BEAVER	PA	16115	YES	NO	NO	NO								331210						40.797841	-80.462289	028339729								PTC ALLIANCE HOLDINGS CORP	964516137	1312210231407	N450	MANGANESE COMPOUNDS	TRI	Pounds																																																																														NO	TIMOTHY.HARVEY@PTCALLIANCE.COM			YES	 	
2012	NO	15061BVRVL1899B	BEAVER VALLEY ALLOY FOUNDRY CO	4165 BRODHEAD RD	MONACA	BEAVER	PA	15061	YES	NO	NO	NO								331513						40.690622	-80.284784	004372488										1312210561078	007440473	CHROMIUM	TRI	Pounds																		A	A06								N 	E4																																																		NO	TOM@BVALLEY.COM			YES	 	
2012	NO	19543MRGNCONEMO	MORGAN TRUCK BODY LLC MORGANTOWN	1 MORGAN WAY	MORGANTOWN	BERKS	PA	19543	YES	NO	NO	NO								336211						40.159264	-75.875489	002360485								JB POINDEXTER & CO INC	154280655	1312210612952	N120	DIISOCYANATES	TRI	Pounds																		NA									N 																																																			NO	DOUG.SANDERS@MORGANCORP.COM			NO	 	
2012	NO	19554CSTMC5FEIC	CUSTOM COMPOSITES	50 FEICK INDUSTRIAL DR	SHARTLESVILLE	BERKS	PA	19554	NO	YES	NO	NO								326199						40.518639	-76.106079									CUSTOM COMPOSITES 1018 EAST MADISON OKLAHOMA CITY OK 73111		1312210822262	000100425	STYRENE	TRI	Pounds																		NA																																																												NO	HNOLLJR@YAHOO.COM			NO	 	
2012	NO	19442MNSYPCOLDS	HENRY CO	336 COLD STREAM RD	KIMBERTON	CHESTER	PA	19442	YES	NO	NO	NO								324122						40.12996	-75.57441	058012022								HENRY CO		1312210296632	N590	POLYCYCLIC AROMATIC COMPOUNDS	PBT	Pounds																		NA									N 																																																			NO	RNAGEL@HENRY.COM			NO	 	
2012	NO	15944CNMGHRTE20	CONEMAUGH POWER PLANT	1442 POWER PLANT RD	NEW FLORENCE	INDIANA	PA	15944	YES	NO	NO	NO								221112						40.380628	-79.065585	118301233								NRG ENERGY INC	793422213	1312210407019	N096	COBALT COMPOUNDS	TRI	Pounds																		A	A05	A03							N 	E4		W	H081	H121	H071	H123	H124				N 	E4																																						NO	JAMES.BRUNSON@NRGENERGY.COM			YES	 	
2012	NO	16428LCTRC50SWA	ELECTRIC MATERIALS CO	50 S WASHINGTON ST	NORTH EAST	ERIE	PA	16428	YES	NO	NO	NO								331421	335312	331525	332112	335313	332813	42.214224	-79.826439	005028642								UNITED STARS INC	005186259	1312210442289	N100	COPPER COMPOUNDS	TRI	Pounds																		A	A07								N 	E4		W	H121	H077	H123	H101	H121				N 	E4		W	H073	H121	H077	H123	H101	H121			N 	E4		A	A07								N 	E5														NO	MERICKSON@ELECMAT.COM			YES	 	
2012	NO	16502MRCNH191RA	AMERICAN HOLLOW BORING CO	1901 RASPBERRY ST	ERIE	ERIE	PA	16502	YES	NO	NO	NO								332710						42.108943	-80.1004	005028386										1312209999806	007440020	NICKEL	TRI	Pounds																		NA									N 																																																			NO				YES	 	
2012	NO	17070SDLDF2001M	DEFENSE DISTRIBUTION CENTER SUSQUEHANNA	2001 MISSION DR	NEW CUMBERLAND	YORK	PA	170705002	YES	NO	YES	NO								928110						40.219444	-76.836667									US DEPARTMENT OF DEFENSE		1312210397295	N590	POLYCYCLIC AROMATIC COMPOUNDS	PBT	Pounds																		NA									N 																																																			YES	STEPHEN.TUSHEK@DLA.MIL			NO	 	
2012	NO	16740LLGHNRD1HU	GEORGIA-PACIFIC-MTJEWETT COMPLE X-MDF	149 TEMPLE DR	MOUNT JEWETT	MCKEAN	PA	16740	YES	NO	NO	NO								321219						41.676174	-78.643359	126484422								KOCH INDUSTRIES INC	006944334	1312210853418	N120	DIISOCYANATES	TRI	Pounds																		A	H040								N 	E5																																																		NO	HEATHER.REITER@GAPAC.COM	RR4		NO	 	
2012	NO	19426SMTHL1250S	GLAXOSMITHKLINE LLC	1250 S COLLEGEVILLE RD MAIL CODE UP2410	COLLEGEVILLE	MONTGOMERY	PA	19426	YES	NO	NO	NO								325412						40.158703	-75.475433	001381342								GLAXOSMITHKLINE INC	001381342	1312210182426	000075058	ACETONITRILE	TRI	Pounds																		NA									N 																																																			NO	MELINDA.S.STUBBEE@GSK.COM			NO	 	
2012	NO	15077FRSTNOFFRT	BRUCE MANSFIELD POWER PLANT	OFF RT 168 NEAR OHIO RIVER	SHIPPINGPORT	BEAVER	PA	150770038	YES	NO	NO	NO								221112	221113	221119	221122	221111	221121	40.6344	-80.42	150181923								FIRSTENERGY GENERATION CORP	800459724	1312210477752	N725	SELENIUM COMPOUNDS	TRI	Pounds																		A	A03								N 	E5		A	A05	A03							N 	E5																																						NO	DURBINM@FIRSTENERGYCORP.COM			YES	 	
2012	NO	19404SPRYP1323C	SPRAY PRODUCTS CORP	1323 CONSHOHOCKEN RD	PLYMOUTH MEETING	MONTGOMERY	PA	19462	YES	NO	NO	NO								325998						40.103333	-75.317778	042716084										1312210552257	000108883	TOLUENE	TRI	Pounds																																																																														NO	BART@SPRAYPRODUCTS.COM			NO	 	
2012	NO	16046JMSSTMARSV	JAMES AUSTIN CO	115 DOWNIEVILLE RD	MARS	BUTLER	PA	16046	YES	NO	NO	NO								325612						40.681389	-80.00075	004340923								JAMES AUSTIN CO	004340923	1312209915596	000067561	METHANOL	TRI	Pounds																		NA									N 																																																			NO	BWALTERS@JAMESAUSTIN.COM			NO	 	
2012	NO	16125SLMTBFOURT	SALEM TUBE INC	951 FOURTH ST	GREENVILLE	MERCER	PA	16125	YES	NO	NO	NO								331210						41.35553	-80.41124	044316636								TUBACEX SA		1312210077071	007439965	MANGANESE	TRI	Pounds																		NA									N 																																																			NO	FREDP@SALEMTUBE.COM			YES	 	
2012	NO	15339RTCHY3GERG	RITCHEY METALS CO INC	30 GEORGETOWN RD	CANONSBURG	WASHINGTON	PA	15317	YES	NO	NO	NO								331492	331314					40.29886	-80.14818	004360582										1312210328771	007440666	ZINC (FUME OR DUST)	TRI	Pounds																		NA									N 																																																			NO	JIM@RITCHEYMETALS.COM			YES	 	
2012	NO	17901WRLDRWALNU	WORLD RESOURCES CO	170 WALNUT LN	POTTSVILLE	SCHUYLKILL	PA	17901	YES	NO	NO	NO								327999						40.687306	-76.232913	048340749								WORLD RESOURCES CO		1312210126696	007440473	CHROMIUM	TRI	Pounds																																																																														NO	KRIEGEL@WRCUSA.NET			YES	 	
2012	NO	16214PNYCRRR2BO	PINEY CREEK LP	428 POWER LN	CLARION	CLARION	PA	162143820	YES	NO	NO	NO								221112						41.1776	-79.4418	188438873								COLMAC CLARION INC		1312210452153	007664417	AMMONIA	TRI	Pounds																		NA									N 																																																			NO	KREED@PINEYCREEKLP.COM			NO	 	
2012	NO	15061SBVRV394FR	AES BEAVER VALLEY LLC	394 FRANKFORT RD	MONACA	BEAVER	PA	15061	YES	NO	NO	NO								221112						40.655143	-80.349491	043857812								AES CORP	043857812	1312210591451	007664393	HYDROGEN FLUORIDE	TRI	Pounds																																																																														NO	GARY.LECKONBY@AES.COM			NO	 	
2012	NO	17350PLGRM304SW	PLAINVILLE FARMS-HPPC	304 S WATER ST	NEW OXFORD	ADAMS	PA	173500038	YES	NO	NO	NO								311615						39.858889	-77.056667									HAIN PURE PROTEIN		1312210165940	N511	NITRATE COMPOUNDS	TRI	Pounds																		W	H129	H124	H077						N 	E6																																																		NO	DJONES@NEWOXFOODS.COM			NO	 	
2012	NO	17752KPPRSTOWNS	KOPPERS INC (SUSQUEHANA PA)	50 KOPPERS LN	MONTGOMERY	LYCOMING	PA	17752	YES	NO	NO	NO								321114						41.187326	-76.830057	056723265								KOPPERS INC	196991582	1312210234290	N420	LEAD COMPOUNDS	PBT	Pounds																		NA									N 																																																			NO	RUTZAR@KOPPERS.COM			YES	 	
2012	NO	15104SSDGRBRADD	USS MON VALLEY WORKS - EDGAR THOMSON PLANT	BRADDOCK AVE & 13TH ST	BRADDOCK	ALLEGHENY	PA	15104	YES	NO	NO	NO								331111						40.395902	-79.863382	060682606								US STEEL CORP	029990699	1312210512909	007632000	SODIUM NITRITE	TRI	Pounds																		W	H101								N 	E1																																																		NO	CABOONE@USS.COM			YES	 	
2012	NO	16512RSTRY1851R	ERIE STRAYER	1851 RUDOLPH	ERIE	ERIE	PA	165121031	YES	NO	NO	NO								333120						42.100827	-80.121415	005028295										1312210514840	007439965	MANGANESE	TRI	Pounds																		NA									N 																																																			NO				YES	 	
2012	NO	16323MNYCHTWOMI	OMG AMERICAS	TWO MILE RUN RD	FRANKLIN	VENANGO	PA	163230111	YES	NO	NO	NO								325199	325188					41.412307	-79.796342	556869238	004165742							OM GROUP INC	556869238	1312210712737	N982	ZINC COMPOUNDS	TRI	Pounds																		NA									N 																																																			NO	JAMES.DAUGHERTY@NA.OMGI.COM			YES	 	
2012	NO	19134MPNNC3675A	MPN INC DBA ACTIVE RADIATOR	3675 AMBER ST	PHILADELPHIA	PHILADELPHIA	PA	19134	YES	NO	NO	NO								336399	336370					39.997222	-75.100556	779972017								MPN INC DBA ACTIVE RADIATOR		1312210858181	007439921	LEAD	TRI	Pounds																		NA									N 																																																			NO	TONYC@ACTIVERADIATOR.COM			YES	 	
2012	NO	16901GTPRD1JACK	OSRAM SYLVANIA INC	1 JACKSON ST	WELLSBORO	TIOGA	PA	16901	YES	NO	NO	NO								327212						41.749306	-77.287876	044119816								OSRAM SYLVANIA INC	001495928	1312209945346	007664393	HYDROGEN FLUORIDE	TRI	Pounds																		W	H121	H077	H123	H101					N 	E1																																																		NO	MATTHEW.GONTARZ@SYLVANIA.COM			NO	 	
2012	NO	16107FLWLN1400N	FLOWLINE DIV EZEFLOW USA INC	1400 NEW BUTLER RD	NEW CASTLE	LAWRENCE	PA	161017027	YES	NO	NO	NO								332996						41.01667	-80.41665	004327417										1312210821753	007440473	CHROMIUM	TRI	Pounds																		W	H121	H123							N 	E5		A	A06								N 	E5																																						NO	RICHARDL@FLOWLINEFITTINGS.COM			YES	 	
2012	NO	15088HRCLSSTATE	EASTMAN CHEMICAL RESINS INC	STATE HWY 837	WEST ELIZABETH	ALLEGHENY	PA	15088	YES	NO	NO	NO								325211						40.26358	-79.904961	510339353								EASTMAN CHEMICAL CO	808898381	1312210245546	000108883	TOLUENE	TRI	Pounds																		A	A07								N 	E5		A	A07								N 	E4		A	H040								N 	E2		W	H121	H123	H124	H129	H081				N 	E4														NO	GKUHN@EASTMAN.COM			NO	 	
2012	NO	17821MNTRS18MCM	MONTOUR STEAM ELECTRIC STATION	18 MCMICHAEL RD	DANVILLE	MONTOUR	PA	17821	YES	NO	NO	NO								221122						41.069974	-76.665133	621528199								PPL CORP	144973083	1312210419091	007664417	AMMONIA	TRI	Pounds																		A	A05	A06	H123	A03					N 	E4																																																		NO	JLMCCABE@PPLWEB.COM			NO	 	
2012	NO	17832FSTRWMARIO	MOUNT CARMEL COGEN FACILITY	MARION HEIGHTS RD	MARION HEIGHTS	NORTHUMBERLAND	PA	17832	YES	NO	NO	NO								221112						40.809392	-76.455219	001339456										1312210713626	N450	MANGANESE COMPOUNDS	TRI	Pounds																		NA									N 																																																			NO	PAULFREEMAN@MTCARMELCOGEN.COM			YES	 	
2012	NO	15697FRSTNBUILD	FIRESTONE BUILDING PRODUCTS	BUILDING 102, AVE A	YOUNGWOOD	WESTMORELAND	PA	15697	YES	NO	NO	NO								326150						40.2458	-79.5703	809622447								BRIDGESTONE AMERICAS HOLDING INC	111482506	1312210051241	N120	DIISOCYANATES	TRI	Pounds																		A	H040								N 	E4																																																		NO	SCHNELZERTANYA@BFDP.COM			NO	 	
2012	NO	16801MRTRN1900W	SPECTRUM CONTROL TECHNOLOGY INC	1900 W COLLEGE AVE	STATE COLLEGE	CENTRE	PA	16801	YES	NO	NO	NO								334414						40.776473	-77.88448	045674453		PAD043882323						SPECTRUM CONTROL,INC	045674453	1312210082590	000108101	METHYL ISOBUTYL KETONE	TRI	Pounds																		NA																																																												NO	CHARLES.FERMAN@APITECH.COM			NO	 	
2012	NO	18064HPRCH731EN	PORTLAND POWER PLANT	5027 RIVER RD	MOUNT BETHEL	NORTHAMPTON	PA	18343	YES	NO	NO	NO								221112						40.9095	-75.079143	038426144								NRG ENERGY INC	793422213	1312210161004	N458	MERCURY COMPOUNDS	PBT	Pounds																		A	A05								N 	E6																																																		NO	RYAN.DAY@NRGENERGY.COM			YES	 	
2012	NO	16502KLNPL2020G	KLEIN PLATING WORKS INC	2020 GREENGARDEN RD	ERIE	ERIE	PA	165022132	YES	NO	NO	NO								332813						42.10404	-80.111759	005032750										1312210189787	N511	NITRATE COMPOUNDS	TRI	Pounds																		NA									N 																																																			NO	JOED@KLEINPLATING.COM			NO	 	
2012	NO	17751CRDNCDRAKE	CRODA INC	8 CRODA WAY	MILL HALL	CLINTON	PA	17751	YES	NO	NO	NO								325620						41.102778	-77.5	001331032								CRODA INC	001331032	1312210302535	000106898	EPICHLOROHYDRIN	TRI	Pounds																																																																														NO	CHARLES.WILLIAMS@CRODA.COM			NO	 	
2012	NO	16374SCRBGRR1LI	SCRUBGRASS GENERATING PLANT	2151 LISBON RD	KENNERDELL	VENANGO	PA	16374	YES	NO	NO	NO								221112						41.269767	-79.812764									CALYPSO ENERGY HOLDINGS LLC		1312210439093	N458	MERCURY COMPOUNDS	PBT	Pounds																		NA									N 																																																			NO	TODD.LACROSS@SCRUBGRASS.COM			YES	 	
2012	NO	18705NTRMT1101N	INTERMETRO INDUSTRIES CORP	1101 N WASHINGTON ST	WILKES-BARRE	LUZERNE	PA	18705	YES	NO	NO	NO								332618						41.262228	-75.849075	003032752								EMERSON ELECTRIC CO	006269633	1312210215822	N495	NICKEL COMPOUNDS	TRI	Pounds																		W	H071	H121	H124	H123					N 	E3																																																		NO	DAN.SARGE@EMERSON.COM			YES	 	
2012	NO	18706RPRDC827SA	AIR PRODUCTS & CHEMICALS INC	827 SANS SOUCI PKWY	WILKES BARRE	LUZERNE	PA	18706	YES	NO	NO	NO								332420						41.230572	-75.924531	003054202								AIR PRODUCTS & CHEMICALS INC	003001070	1312210381582	007439965	MANGANESE	TRI	Pounds																		NA									N 																																																			NO	KECKBR@AIRPRODUCTS.COM			YES	 	
2012	NO	17517HGHCN125DE	HIGH CONCRETE GROUP LLC - DENVER FACILTIY	125 DENVER RD	DENVER	LANCASTER	PA	17517	YES	NO	NO	NO								327390						40.227315	-76.116612	170729896								HIGH INDUSTRIES INC	084877505	1312210640619	007440020	NICKEL	TRI	Pounds																		NA									N 																																																			NO	CWEYLAND@HIGH.NET			YES	 	
2012	NO	16686QLTYCINDUS	ALBEMARLE CORP	2858 BACK VAIL RD	TYRONE	BLAIR	PA	166860216	YES	NO	NO	NO								325110						40.693119	-78.230157	825080096								ALBEMARLE CORP		1312209979703	007647010	HYDROCHLORIC ACID (1995 AND AFTER "ACID AEROSOLS" ONLY)	TRI	Pounds																		A	A01								N 	E4																																																		NO	JENNIFER_FORDICK@ALBEMARLE.COM			NO	 	
2012	NO	19605HYCMTRD916	HEYCO METALS INC	1069 STINSON DR	READING	BERKS	PA	19605	YES	NO	NO	NO								331421						40.392593	-75.981324	002185007								HEYCO INC	002185007	1312210134399	007440020	NICKEL	TRI	Pounds																																																																														NO	DMANDLE@HEYCOMETALS.COM			YES	 	
2012	NO	17072SFTYK10ELE	SAFETY-KLEEN SYSTEMS (206701)	10 ELEANOR DR PO BOX 279	NEW KINGSTOWN	CUMBERLAND	PA	17072	YES	NO	NO	NO								562112	484220	484230				40.233056	-77.072222	053976551								SAFETY-KLEEN INC	053976551	1312210392609	000107211	ETHYLENE GLYCOL	TRI	Pounds																		NA									N 																																																			NO	JASON.HOFFMAN@SAFETY-KLEEN.COM			NO	 	
2012	NO	15845PNNTC100CE	DOMTAR - JOHNSONBURG MILL	100 CENTER ST	JOHNSONBURG	ELK	PA	15845	YES	NO	NO	NO								322121						41.492222	-78.676667	789245110								DOMTAR CORP	789245110	1312210426437	007664417	AMMONIA	TRI	Pounds																		NA									N 																																																			NO	ANDY.REDMOND@DOMTAR.COM			NO	 	
2012	NO	15061ZNCCR300FR	HORSEHEAD CORP MONACA SMELTER	300 FRANKFORT RD	MONACA	BEAVER	PA	150612295	YES	NO	NO	NO								331492						40.67058	-80.3365	609074703								HORSEHEAD HOLDING CORP		1312210555316	007782505	CHLORINE	TRI	Pounds																		NA									N 																																																			NO	AALAVI@HORSEHEAD.NET			NO	 	
2012	NO	19380CHBBN350EA	KIDDE FIRE FIGHTING INC	350 E UNION ST	WEST CHESTER	CHESTER	PA	19382	YES	NO	NO	NO								325998						39.950109	-75.599654	157295361								UNITED TECHNOLOGIES CORP	001344142	1312210751576	N982	ZINC COMPOUNDS	TRI	Pounds																		NA									N 																																																			NO	RUSTY.FURTICK@KIDDE-FIRE.COM			YES	 	
2012	NO	16123LTGRP195HA	HONEYWELL ELECTRONIC MATERIALS- FOMBELL PA	195 HARTZELL SCHOOL RD	FOMBELL	BEAVER	PA	16123	YES	NO	NO	NO								331419						40.802222	-80.197917	128399404								HONEYWELL INTERNATIONAL INC	139691877	1312210178911	007550450	TITANIUM TETRACHLORIDE	TRI	Pounds																		NA									N 																																																			NO	ROBERT.KARIKA@HONEYWELL.COM			YES	 	
2012	NO	15108PTTSB9THRN	CORAOPOLIS TERMINALS CORP CORAOPOLIS TERMINAL	9 THORN ST	CORAOPOLIS	ALLEGHENY	PA	151080191	YES	NO	NO	NO								424710						40.525901	-80.174781											1312210791341	007439921	LEAD	TRI	Pounds																		W	H124								N 	E5																																																		NO	GEORGEE@PPCTERMINALS.COM			YES	 	
2012	NO	16146SHRNT134MI	JOHN MANEELY CO WHEATLAND TUBE DIV - MILL STREET	134 MILL ST	SHARON	MERCER	PA	161462118	YES	NO	NO	NO								331210	331221					41.240889	-80.513682	002287035								JMC STEEL GROUP	007913981	1312210073591	N511	NITRATE COMPOUNDS	TRI	Pounds																		NA									N 																																																			NO	JIM.WILLIAMS@JMCSTEEL.COM			NO	 	
2012	NO	19536STPNNDEKAR	EAST PENN MANUFACTURING CO INC	102 DEKA RD	LYON STATION	BERKS	PA	19536	YES	NO	NO	NO								335912						40.47166	-75.767	002330165								EAST PENN MANUFACTURING CO INC	002330165	1312210234213	N150	DIOXIN AND DIOXIN-LIKE COMPOUNDS	DIOXIN	Grams																		A	A06	A03							N 	E5																																																		NO	TRGREISS@DEKABATTERIES.COM			NO	 	
2012	NO	16531GNRLL2901E	GENERAL ELECTRIC -  ERIE PLANT GET	2901 E LAKE RD	ERIE	ERIE	PA	16531	YES	NO	NO	NO								336510						42.145453	-80.02544	005033055								GENERAL ELECTRIC CO (GE CO)	001367960	1312210091385	007439965	MANGANESE	TRI	Pounds																		S	H101	H122							N 	E6		W	H129	H071	H077	H129	H123	H129			N 	E5		A	H123								N 	E5																										NO				YES	 	
2012	NO	17517MGSNC178MU	MGS INC	178 MUDDY CREEK CHURCH RD	DENVER	LANCASTER	PA	17517	YES	NO	NO	NO								336999						40.22874	-76.0849											1312210185397	007440473	CHROMIUM	TRI	Pounds																		NA									N 																																																			NO	FKIRKPATRICK@MGSMAIL.COM			YES	 	
2012	NO	17402CMPBL3990E	APEX TOOL GROUP CAMPBELL OPERATIONS	3990 E MARKET ST	YORK	YORK	PA	17402	YES	NO	NO	NO								332618						39.989759	-76.636623	963348037								APEX TOOL GROUP LLC	963348037	1312210818528	007440020	NICKEL	TRI	Pounds																		W	H077	H101							N 	E2																																																		NO	TIM.HANEY@APEXTOOLGROUP.COM			YES	 	
2012	NO	15931FBRBL1CMME	FIBERBLADE LLC	100 COMMERCE DR CAMBRIA COUNTY INDUSTRIAL PARK	EBENSBURG	CAMBRIA	PA	15931	YES	NO	NO	NO								333611						40.453392	-78.747573	780816588								GAMESA TECHNOLOGY CORP INC	602455839	1312210206847	002164172	FLUOMETURON	TRI	Pounds																		NA									N 																																																			NO	JSATKOVICH@GAMESACORP.COM			NO	 	
2012	NO	19428CHMLLCONSH	CHEMALLOY CO INC	1301 CONSHOHOCKEN RD	CONSHOHOCKEN	MONTGOMERY	PA	19428	YES	NO	NO	NO								331112						40.098917	-75.317372	043566777								CHEMALLOY CO INC	043566777	1312210061988	N090	CHROMIUM COMPOUNDS(EXCEPT CHROMITE ORE MINED IN THE TRANSVAAL REGION)	TRI	Pounds																		NA									N 																																																			NO				YES	 	
2012	NO	19050HYDRL520CO	HYDROL CHEMICAL CO	520 COMMERCE DR	YEADON	DELAWARE	PA	19050	YES	NO	NO	NO								325199						39.935389	-75.258222	002261907										1312210323869	000050000	FORMALDEHYDE	TRI	Pounds																		NA									N 																																																			NO	INFO@HYDROLCHEMICAL.COM			NO	 	
2012	NO	18067NRTHM1HORW	NORTHAMPTON GENERATING PLANT	1 HORWITH DR	NORTHAMPTON	NORTHAMPTON	PA	18067	YES	NO	NO	NO								221112						40.691957	-75.479887	877477257								EIF CALYPSO LLC		1312210443646	N100	COPPER COMPOUNDS	TRI	Pounds																		NA									N 																																																			NO	MICHAEL.SALVADOR@NORTHGENCO.COM			YES	 	
2012	NO	16701KNDLL77NKE	AMERICAN REFINING GROUP INC	77 N KENDALL AVE	BRADFORD	MCKEAN	PA	16701	YES	NO	NO	NO								324110						41.965472	-78.633108	021957329										1312210722930	N590	POLYCYCLIC AROMATIC COMPOUNDS	PBT	Pounds																		NA									N 																																																			NO	SSHERK@AMREF.COM			NO	 	
2012	NO	15024CHSWCPITTS	CHESWICK POWER PLANT	PITTSBURGH & PORTER ST	SPRINGDALE	ALLEGHENY	PA	15144	YES	NO	NO	NO								221112						40.545067	-79.793104									NRG ENERGY INC	793422213	1312210105072	007664939	SULFURIC ACID (1994 AND AFTER "ACID AEROSOLS" ONLY)	TRI	Pounds																		A	A05								N 	E6																																																		NO	JILL.BUCKLEY@NRGENERGY.COM			NO	 	
2012	NO	16148NTRST2797F	INTERSTATE CHEMICAL CO INC	2797 FREEDLAND RD	HERMITAGE	MERCER	PA	16148	YES	NO	NO	NO								424690						41.196111	-80.471944	044313443								INTERSTATE CHEMICAL CO INC	044313443	1312210256552	007664417	AMMONIA	TRI	Pounds																		NA									N 																																																			NO	JCORBETT@INTERSTATECHEMICAL.COM			NO	 	
2012	NO	16148NTRST2797F	INTERSTATE CHEMICAL CO INC	2797 FREEDLAND RD	HERMITAGE	MERCER	PA	16148	YES	NO	NO	NO								424690						41.196111	-80.471944	044313443								INTERSTATE CHEMICAL CO INC	044313443	1312210256588	000075092	DICHLOROMETHANE	TRI	Pounds																		NA									N 																																																			NO	JCORBETT@INTERSTATECHEMICAL.COM			NO	 	
2012	NO	18014KYSTNRT329	KEYSTONE CEMENT CO	RT 329	BATH	NORTHAMPTON	PA	180140058	YES	NO	NO	NO								327310						40.7159	-75.3985	869563304								GIANT CEMENT HOLDING INC	869563304	1312210718755	000079005	1,1,2-TRICHLOROETHANE	TRI	Pounds																		NA									N 																																																			NO	JEFFERY.SMITH@GCPV.COM			NO	 	
2012	NO	15774KYSTNRTE21	KEYSTONE POWER PLANT	313 KEYSTONE DR	SHELOCTA	ARMSTRONG	PA	157747625	YES	NO	NO	NO								221112						40.659509	-79.337818									NRG ENERGY INC	793422213	1312210110540	007664939	SULFURIC ACID (1994 AND AFTER "ACID AEROSOLS" ONLY)	TRI	Pounds																		A	A05	H082							N 	E4																																																		NO	MARK.JACKLIN@NRGENERGY.COM			NO	 	
2012	NO	16673PPLTN100PA	APPVION INC	100 PAPER MILL RD	ROARING SPRING	BLAIR	PA	16673	YES	NO	NO	NO								322121						40.347784	-78.399631	089581557								APPLETON PAPERS INC	089581557	1312210608004	007647010	HYDROCHLORIC ACID (1995 AND AFTER "ACID AEROSOLS" ONLY)	TRI	Pounds																		A	A03								N 	E4																																																		NO	TCHURBOCK@APPVION.COM			NO	 	
2012	NO	16823GRYBC710OL	GRAYMONT (PA) INC	965 E COLLEGE AVE	PLEASANT GAP	CENTRE	PA	16823	YES	NO	NO	NO								327410						40.894268	-77.712166	015075175								GRAYMONT WESTERN US INC		1312210128601	N458	MERCURY COMPOUNDS	PBT	Pounds																		NA									N 																																																			NO	BMENSINGER@GRAYMONT.COM			YES	 	
2012	NO	17059MPRKSRD3RI	EMPIRE KOSHER POULTRY INC	247 EMPIRE DR	MIFFLINTOWN	JUNIATA	PA	17059	YES	NO	NO	NO								311615						40.559167	-77.389722	003044567										1312210115667	007782505	CHLORINE	TRI	Pounds																		NA									N 																																																			NO	HAZARDG@EMPIREKOSHER.COM			NO	 	
2012	NO	19380WRCBL205CA	WIRE & CABLE SPECIALTIES INC	205 CARTER DR	WEST CHESTER	CHESTER	PA	19382	YES	NO	NO	NO								332618						39.95131	-75.589581	070282249		PAD982678310						WIRE & CABLE SPECIALTIES INC		1312210595765	007440473	CHROMIUM	TRI	Pounds																		NA									N 																																																			NO	BBROWN@WIRE-CABLESPECIALTIES.COM			YES	 	
2012	NO	15650LTRNC1001L	SPECIALTY SEAL GROUP INC	1001 LLOYD AVE	LATROBE	WESTMORELAND	PA	15650	NO	NO	NO	NO								INVALD						40.305788	-79.393816	828780564		PAD004316030								1312210840233	007664417	AMMONIA	TRI	Pounds																																																																														NO	KMCKELVEY@SPECIALTYSEALGROUP.COM			NO	 	
2012	NO	16023RMSTR100CL	ARMSTRONG CEMENT & SUPPLY CORP	100 CLEARFIELD RD	CABOT	BUTLER	PA	16023	YES	NO	NO	NO								327310						40.7948	-79.70017	045148533								SNYDER ASSOCIATED COS INC	004345591	1312210268773	007647010	HYDROCHLORIC ACID (1995 AND AFTER "ACID AEROSOLS" ONLY)	TRI	Pounds																		A	A05								N 	E4																																																		NO				NO	 	
2012	NO	17540DLRLL25HES	ROTADYNE ROLL GROUP LEOLA	21 ZIMMERMAN RD	LEOLA	LANCASTER	PA	17540	YES	NO	NO	NO								326299						40.09065	-76.15204	064398712								ROTATION DYNAMICS CORP INC	064398712	1312210037697	000117817	DI(2-ETHYLHEXYL) PHTHALATE	TRI	Pounds																		NA									N 																																																			NO	RELLISON@ROTADYNE.COM			NO	 	
2012	NO	19335JHNSN498AC	JOHNSON MATTHEY  INC  DOWNINGTOWN SITE	498 ACORN LN	DOWNINGTOWN	CHESTER	PA	19335	YES	NO	NO	NO								325131						40.006221	-75.691544	849264833								JOHNSON MATTHEY INC	002326734	1312210234896	000067561	METHANOL	TRI	Pounds																		NA									N 																																																			NO	DIONIPT@JMUSA.COM			NO	 	
2012	NO	15650TLDYNROUTE	ALLEGHENY LUDLUM LLC - LATROBE PLANT	RT 981 N	LATROBE	WESTMORELAND	PA	15650	YES	NO	NO	NO								331111						40.329633	-79.370537	070448204								ALLEGHENY TECHNOLOGIES INC	949262737	1312210274179	N090	CHROMIUM COMPOUNDS(EXCEPT CHROMITE ORE MINED IN THE TRANSVAAL REGION)	TRI	Pounds																		A	A06								N 	E4																																																		NO	DAN.GREENFIELD@ATIMETALS.COM			YES	 	
2012	NO	17756SPRTBSHERM	ANDRITZ INC	35 SHERMAN ST	MUNCY	LYCOMING	PA	17756	YES	NO	NO	NO								333291						41.203662	-76.791819	160991113								ANDRITZ (USA) INC		1312210530958	007440508	COPPER	TRI	Pounds																		A	A06								N 	E6																																																		NO	JEREMY.BOYER@ANDRITZ.COM			YES	 	
2012	NO	19541BLKCHOLDRT	BULK CHEMICALS INC	OLD RT 61	MOHRSVILLE	BERKS	PA	19541	YES	NO	NO	NO								325998						40.494538	-75.984935	069799922										1312210056899	007664393	HYDROGEN FLUORIDE	TRI	Pounds																		NA									N 																																																			NO	BSCHAEFFER@BULKCHEMICALS.US			NO	 	
2012	NO	15056CLRWTINDUS	CLEARWATER INTERNATIONAL LLC	100 INDUSTRIAL DR (BLDG 180, 150, & 76)	LEETSDALE	ALLEGHENY	PA	150561017	YES	NO	NO	NO								325998						40.562778	-79.785	789438285								WEATHERFORD INTERNATIONAL	789438285	1312210484919	000107211	ETHYLENE GLYCOL	TRI	Pounds																		NA									N 																																																			NO	MICHAEL.SONNETT@WEATHERFORD.COM			NO	 	
2012	NO	15071CRCBL1001R	ATI POWDER METALS - OAKDALE	1001 ROBB HILL RD	OAKDALE	ALLEGHENY	PA	150713200	YES	NO	NO	NO								332117						40.422291	-80.192558	098210776								ALLEGHENY TECHNOLOGIES INC	949262737	1312210669937	007440484	COBALT	TRI	Pounds																		NA									N 																																																			NO	DAN.GREENFIELD@ATIMETALS.COM			YES	 	
2012	NO	15066DMSCSPOBOX	DAMASCUSS STEEL CASTING CO	BLOCKHOUSE RUN RD EXT	NEW BRIGHTON	BEAVER	PA	15066	YES	NO	NO	NO								331513						40.735344	-80.308118	004334918										1312210533838	007439965	MANGANESE	TRI	Pounds																		NA									N 																																																			NO	TCOKAIN@DAMASCUSSTEEL.COM			YES	 	
2012	NO	18064CPLYCEASTO	ESSROC CEMENT CORP	3938 EASTON NAZARETH HWY	NAZARETH	NORTHAMPTON	PA	18064	YES	NO	NO	NO								327310						40.750097	-75.29129	002389625								ESSROC CEMENT CORP		1312210348355	N450	MANGANESE COMPOUNDS	TRI	Pounds																		NA									N 																																																			NO	RADU.LUNGU@ESSROC.COM			YES	 	
2012	NO	15020SNCCHBUNOL	UNIVAR USA INC - BUNOLA BRANCH	328 BUNOLA RIVER RD	BUNOLA	ALLEGHENY	PA	15020	YES	NO	NO	NO								424690						40.237222	-79.961389									UNIVAR USA INC	102971785	1312210459246	000121448	TRIETHYLAMINE	TRI	Pounds																																																																														NO	STEVEN.BERG@UNIVARUSA.COM			NO	 	
2012	NO	15025SSCLR400ST	USS - CLAIRTON PLANT	400 STATE ST	CLAIRTON	ALLEGHENY	PA	15025	YES	NO	NO	NO								331111						40.3055	-79.877021	004498010								US STEEL CORP	029990699	1312210512974	000085018	PHENANTHRENE	TRI	Pounds																		W	H123	H083	H077	H083	H129	H081	H101	H123	N 	E3																																																		NO	CABOONE@USS.COM			NO	 	
2012	NO	19007RHMNDOLDRT	ROHM & HAAS CHEMICALS LLC	200 RT 413	BRISTOL	BUCKS	PA	19007	YES	NO	NO	NO								325211	325199					40.094102	-74.870534	619645075								THE DOW CHEMICAL CO	001381581	1312210566764	N120	DIISOCYANATES	TRI	Pounds																		NA									N 																																																			NO	JMLAND@DOW.COM			NO	 	
2012	NO	19007RHMNDOLDRT	ROHM & HAAS CHEMICALS LLC	200 RT 413	BRISTOL	BUCKS	PA	19007	YES	NO	NO	NO								325211	325199					40.094102	-74.870534	619645075								THE DOW CHEMICAL CO	001381581	1312210566978	000091203	NAPHTHALENE	TRI	Pounds																		A	H040								N 	E4		A	A03								N 	E5		W	H129	H121	H081	H077	H123	H101			N 	E3																										NO	JMLAND@DOW.COM			NO	 	
2012	NO	1633WSTKTM1965M	SUIT-KOTE MEADVILLE	10965 MCHENRY ST	MEADVILLE	CRAWFORD	PA	16335	YES	NO	NO	NO								324121						41.61629	-80.155446	780797986								SUIT-KOTE CORP		1312210537953	N590	POLYCYCLIC AROMATIC COMPOUNDS	PBT	Pounds																		NA									N 																																																			NO	RDUBOIS@SUIT-KOTE.COM			NO	 	
2012	NO	18014MCHLM723BE	MICHELMAN CANCELLIERE IRON WORKS INC	7230 BETH-BATH PIKE	BATH	NORTHAMPTON	PA	18014	YES	NO	NO	NO								332312						40.69868	-75.39261	002397289										1312210019042	007439965	MANGANESE	TRI	Pounds																		NA									N 																																																			NO				YES	 	
