Year,TRI Facility ID,Facility Name,Street Address,City,County,ST,ZIP,Latitude,Longitude,Primary SIC,SIC 2,SIC 3,SIC 4,SIC 5,SIC 6,Primary NAICS,NAICS 2,NAICS 3,NAICS 4,NAICS 5,NAICS 6,Doc_Ctrl_Num,Chemical,CAS #/Compound ID,Clean Air Act Chemical,Classification,Metal,Metal Category,Carcinogen,Form Type,Unit of Measure,5.1 Fugitive Air,5.2 Stack Air,5.3 Water,5.4.1 Underground Class I,5.4.2 Underground Class II-V,5.5.1A RCRA C Landfills,5.5.1B Other Landfills,5.5.2 Land Treatment,5.5.3 Surface Impoundment,5.5.3A RCRA C Surface Impoundment,5.5.3B Other Surface Impoundment,5.5.4 Other Disposal,On-site Release Total,6.1 POTW - Metals and Metal Compounds,6.1 POTW - Non-Metals,6.1 POTW - Total Transfers,6.2 M10,6.2 M41,6.2 M62,6.2 M71,6.2 M81,6.2 M82,6.2 M72,6.2 M63,6.2 M66,6.2 M67,6.2 M64,6.2 M65,6.2 M73,6.2 M79,6.2 M90,6.2 M94,6.2 M99,Off-Site Release Total,6.2 M20,6.2 M24,6.2 M26,6.2 M28,6.2 M93,Off-Site Recycled Total,6.2 M56,6.2 M92,Off-Site Recovery Total,6.2 M40,6.2 M50,6.2 M54,6.2 M61,6.2 M69,6.2 M95,Off-Site Treated Total,Total Releases,8.1 Releases,8.1a On-site Contained Releases,8.1b On-site Other Releases,8.1c Off-site Contained Releases,8.1d Off-site Other Releases,8.2 Energy Recovery On-site,8.3 Energy Recovery Off-site,8.4 Recycling On-Site,8.5 Recycling Off-Site,8.6 Treatment On-site,8.7 Treatement Off-site,Production Waste (8.1 thru 8.7),8.8 One-time Release,8.9 Production Ratio,Parent Company Name,Parent Company DB Number,3/3/2012 v10
1999,08110LMNMS9000R,ALUMINUM SHAPES LLC,9000 RIVER RD,DELAIR,CAMDEN,NJ,081103296,39.986944,-75.044917,3354,3312,,,,,331316,,,,,,1399130019058,AMMONIA,007664417,NO,NON-PBT,NO,0,NO,R,Pounds,0,168,0,0,0,0,0,0,0,0,0,0,168,0,0,0,0,0,0,0,0,0,0,0,0,0,0,0,0,0,0,0,0,0,0,0,0,0,0,0,0,0,0,0,0,0,0,0,0,0,168,168,0,0,0,0,0,0,0,0,16643,0,16811,0,1.02,SHAPES/ARCH HOLDINGS LLC,958372708
1999,08110CJSBR820SH,COOK COMPOSITES & POLYMERS CO.,820 SHERMAN AVE,PENNSAUKEN,CAMDEN,NJ,081102613,39.974738,-75.059711,2821,,,,,,325211,,,,,,1399130046509,ETHYLENE GLYCOL,000107211,YES,NON-PBT,NO,0,NO,R,Pounds,5,250,0,0,0,0,0,0,0,0,0,0,255,0,0,0,0,0,0,0,0,0,0,0,0,0,0,0,0,0,0,0,0,0,0,0,0,0,0,0,2294,0,2294,0,0,0,3224,0,0,3224,255,14,0,0,0,0,0,2293,0,0,0,3224,5531,0,1.14,COOK COMPOSITES & POLYMERS CO,610416802
1999,07036CTGPT4801S,CITGO PETROLEUM CORP,4801 S WOOD AVE,LINDEN,UNION,NJ,070366543,40.607528,-74.233528,5171,,,,,,424710,,,,,,1399130034919,ETHYLBENZENE,000100414,YES,NON-PBT,NO,0,NO,R,Pounds,52,261,0,0,0,0,0,0,0,0,0,0,313,0,0,0,0,0,0,0,0,0,0,0,0,0,0,0,0,0,0,0,0,0,0,0,0,0,0,0,0,0,0,0,0,0,0,0,0,0,313,313,0,0,0,0,0,0,0,0,0,0,313,0,1.21,CITGO PETROLEUM CORP,102417268
1999,07036CTGPT4801S,CITGO PETROLEUM CORP,4801 S WOOD AVE,LINDEN,UNION,NJ,070366543,40.607528,-74.233528,5171,,,,,,424710,,,,,,1399130034960,ETHYLENE GLYCOL,000107211,YES,NON-PBT,NO,0,NO,R,Pounds,0,0,0,0,0,0,0,0,0,0,0,0,0,0,0,0,0,0,0,0,0,0,0,0,0,0,0,0,0,0,0,0,0,0,0,0,0,0,0,0,0,0,0,0,0,0,0,0,0,0,0,0,0,0,0,0,0,0,0,0,0,0,0,0,0,CITGO PETROLEUM CORP,102417268
1999,08810RPRDCDAYTO,WACKER POLYMERS,11 CORN RD,DAYTON,MIDDLESEX,NJ,08810,40.365,-74.491667,2821,,,,,,325211,,,,,,1399130140344,VINYL ACETATE,000108054,YES,NON-PBT,NO,0,YES,R,Pounds,815,742,0,0,0,0,0,0,0,0,0,0,1557,0,49504,49504,0,0,0,0,0,0,100,0,0,0,0,0,0,0,0,0,0,100,0,0,0,0,0,0,0,0,0,0,90,0,0,0,0,90,1657,1657,0,0,0,0,0,90,0,0,0,49504,51251,0,.98,WACKER CHEMICAL CORP,075400671
1999,08014MNSNTROUTE,FERRO CORP DELAWARE R IVER PLANT,170 RT 130 S,BRIDGEPORT,GLOUCESTER,NJ,080140000,39.788192,-75.396232,2869,2819,2851,,,,325199,,,,,,1399130144114,"HYDROCHLORIC ACID (1995 AND AFTER ""ACID AEROSOLS"" ONLY)",007647010,YES,NON-PBT,NO,0,NO,R,Pounds,100,1100,0,0,0,0,0,0,0,0,0,0,1200,0,0,0,0,0,0,0,0,0,0,0,0,0,0,0,0,0,0,0,0,0,0,0,0,0,0,0,0,0,0,0,0,0,0,0,0,0,1200,1200,0,0,0,0,0,0,0,0,4800000,0,4801200,0,.92,FERRO CORP,004161477
1999,08014MNSNTROUTE,FERRO CORP DELAWARE R IVER PLANT,170 RT 130 S,BRIDGEPORT,GLOUCESTER,NJ,080140000,39.788192,-75.396232,2869,2819,2851,,,,325199,,,,,,1399130144189,TRIETHYLAMINE,000121448,YES,NON-PBT,NO,0,NO,R,Pounds,4700,480,0,0,0,0,0,0,0,0,0,0,5180,0,0,0,0,0,0,0,0,0,0,0,0,0,0,0,0,0,0,0,0,0,0,0,0,0,0,0,5500,0,5500,0,0,0,0,0,0,0,5180,5200,0,0,0,0,0,5500,0,0,28000,0,38700,0,.95,FERRO CORP,004161477
1999,08067THGNCUSRTE,POLYONE CORP,US RT 130 & PORCUPINE RD,PEDRICKTOWN,SALEM,NJ,08067,39.766944,-75.421361,2821,,,,,,325211,,,,,,1399130178205,METHYL ACRYLATE,000096333,NO,NON-PBT,NO,0,NO,R,Pounds,163,0,0,0,0,0,0,0,0,0,0,0,163,0,0,0,0,0,0,0,0,0,0,0,0,0,0,0,0,0,0,0,0,0,0,0,0,0,0,0,0,0,0,0,0,0,0,0,0,0,163,163,0,0,0,0,0,0,0,0,291,0,454,0,1.01,POLYONE CORP,801040023
1999,07036GNRLM1016W,GM TRUCK GROUP LINDEN ASSEMBLY,1016 W EDGAR RD,LINDEN,UNION,NJ,07036,40.618563,-74.254868,3711,,,,,,336112,,,,,,1399130129240,CERTAIN GLYCOL ETHERS,N230,YES,NON-PBT,NO,0,NO,R,Pounds,6300,1200,0,0,0,0,0,0,0,0,0,0,7500,0,99000,99000,0,0,0,0,0,0,280,0,0,0,0,0,0,0,0,0,0,280,0,0,0,0,0,0,49000,0,49000,0,0,0,0,0,0,0,7780,7800,0,0,0,0,0,50000,0,0,24000,99000,180800,0,1.14,GENERAL MOTORS CORP,005356613
1999,07201CNTCT641DO,CONTACT INDUSTRIES,641 DOWD AVE,ELIZABETH,UNION,NJ,072012194,40.668096,-74.188183,2842,2851,2891,,,,325612,,,,,,1399130099094,TETRACHLOROETHYLENE,000127184,YES,NON-PBT,NO,0,YES,R,Pounds,0,0,0,0,0,0,0,0,0,0,0,0,0,0,0,0,0,0,0,0,0,0,0,0,0,0,0,0,0,0,0,0,0,0,0,0,0,0,0,0,0,0,0,0,0,863,0,0,0,863,0,0,0,0,0,0,0,0,0,0,0,863,863,0,.89,SAFEGUARD CHEMICAL CORP,058284167
1999,07095MRCNCCUTTE,CYTEC INDUSTRIES INC,35 CUTTERS DOCK RD.,WOODBRIDGE,MIDDLESEX,NJ,070952703,40.54392,-74.269713,2821,,,,,,325211,,,,,,1399130072527,AMMONIA,007664417,NO,NON-PBT,NO,0,NO,R,Pounds,140,20900,0,0,0,0,0,0,0,0,0,0,21040,0,2800,2800,0,0,0,0,0,0,0,0,0,0,0,0,0,0,0,0,0,0,0,0,0,0,0,0,0,0,0,0,0,0,0,0,0,0,21040,21000,0,0,0,0,0,0,0,0,260000,2800,283800,90,.54,CYTEC INDUSTRIES INC,809749948
1999,08093GLPNTUSRPO,EAGLE POINT COGENERATION PARTNERSHIP (EPCP),US RT 130 S & I-295,WESTVILLE,GLOUCESTER,NJ,08093,39.85937,-75.13491,4911,,,,,,221100,,,,,,1399130106913,XYLENE (MIXED ISOMERS),001330207,YES,NON-PBT,NO,0,NO,R,Pounds,0,49831,0,0,0,0,0,0,0,0,0,0,49831,0,0,0,0,0,0,0,0,0,0,0,0,0,0,0,0,0,0,0,0,0,0,0,0,0,0,0,0,0,0,0,0,0,0,0,0,0,49831,49831,0,0,0,0,0,0,0,0,0,0,49831,0,1.02,NA,NA
1999,07080MTZMT3900S,FERRO CORP,3900 S CLINTON AVE,SOUTH PLAINFIELD,MIDDLESEX,NJ,07080,40.564611,-74.42963,3399,,,,,,331492,,,,,,1399130150283,"SULFURIC ACID (1994 AND AFTER ""ACID AEROSOLS"" ONLY)",007664939,NO,NON-PBT,NO,0,NO,R,Pounds,0,0,0,0,0,0,0,0,0,0,0,0,0,0,0,0,0,0,0,0,0,0,0,0,0,0,0,0,0,0,0,0,0,0,0,0,0,0,0,0,0,0,0,0,0,0,0,0,0,0,0,0,0,0,0,0,0,0,0,0,82804,0,82804,0,1.13,FERRO CORP,004161477
1999,08611MRCRGLAMBE,MERCER GENERATING STATION,2512 LAMBERTON RD,HAMILTON,MERCER,NJ,08611,40.18225,-74.734278,4911,,,,,,221112,,,,,,1399130095870,AMMONIA,007664417,NO,NON-PBT,NO,0,NO,R,Pounds,250,1400,250,0,0,0,0,0,0,0,0,0,1900,0,0,0,0,0,0,0,0,0,0,0,0,0,0,0,0,0,0,0,0,0,0,0,0,0,0,0,0,0,0,0,0,0,2200,0,0,2200,1900,3600,0,0,0,0,0,0,0,0,0,0,3600,0,1.06,PUBLIC SERVICE ENTERPRISE GROUP,848793910
1999,07080VNGRD239ST,VANGUARD RESEARCH INDUSTRIES INC,239 SAINT NICHOLAS AVE,SOUTH PLAINFIELD,MIDDLESEX,NJ,07080,40.563182,-74.421936,3471,3341,,,,,332813,,,,,,1399130084320,COPPER,007440508,NO,NON-PBT,YES,1,NO,R,Pounds,0,0,0,0,0,0,0,0,0,0,0,0,0,15,0,15,1188,0,0,0,0,0,0,0,0,0,0,0,0,0,0,0,0,1188,0,27980,5911,0,0,33891,0,0,0,0,0,0,0,0,0,0,1203,0,0,0,0,0,0,0,0,35079,0,15,35094,0,.86,VANGUARD HOLDINGS,NA
1999,08066LLLYN1991N,LILLY INDUSTRIES INC.,1991 NOLTE DR.,PAULSBORO,GLOUCESTER,NJ,08066,39.818879,-75.204871,2851,,,,,,325510,,,,,,1399130173331,N-BUTYL ALCOHOL,000071363,NO,NON-PBT,NO,0,NO,R,Pounds,1,8,0,0,0,0,0,0,0,0,0,0,9,0,0,0,0,0,0,0,0,0,0,0,0,0,0,0,0,0,0,0,0,0,0,0,0,0,0,0,14136,0,14136,0,0,0,0,0,0,0,9,9,0,0,0,0,0,14136,0,0,526,0,14671,0,1.04,LILLY INDUSTRIES INC,006040117
1999,07203PMRCN209E1,PAMARCO GLOBAL GRAPHICS,235 E ELEVENTH AVE,ROSELLE,UNION,NJ,07203,40.648169,-74.257034,2796,3471,3479,,,,323122,,,,,,1399130073164,NITRIC ACID,007697372,NO,NON-PBT,NO,0,NO,R,Pounds,6011,0,0,0,0,0,0,0,0,0,0,0,6011,0,0,0,0,0,0,0,0,0,0,0,0,0,0,0,0,0,0,0,0,0,0,0,13380,0,0,13380,0,0,0,0,0,0,0,0,0,0,6011,6011,0,0,0,0,0,0,0,0,0,13380,19391,0,.9,PAMARCO INC,NA
1999,08016CCDNTBEVER,COLORITE SPECIALTY RESINS,BEVERLY RD,BURLINGTON,BURLINGTON,NJ,08016,40.071444,-74.87925,2821,,,,,,325211,,,,,,1399130077249,VINYL ACETATE,000108054,YES,NON-PBT,NO,0,YES,R,Pounds,37,44782,0,0,0,0,0,0,0,0,0,0,44819,0,0,0,0,0,0,0,0,0,224,0,0,0,0,0,0,0,0,0,0,224,0,0,0,0,0,0,0,0,0,0,0,0,0,0,0,0,45043,45043,0,0,0,0,0,0,0,0,51505,0,96548,0,.69,TEKNI-PLEX INC,042023333
1999,07036SLRCM1201W,SOLAR COMPOUNDS CORP.,1201 W. BLANKE ST.,LINDEN,UNION,NJ,07036,40.6225,-74.263194,2891,2851,2951,,,,325520,,,,,,1399130134152,TOLUENE,000108883,YES,NON-PBT,NO,0,NO,R,Pounds,1100,250,0,0,0,0,0,0,0,0,0,0,1350,0,0,0,0,0,0,0,0,0,0,0,0,0,0,0,0,0,0,13500,0,13500,0,0,0,0,0,0,0,0,0,0,0,0,0,0,0,0,14850,14850,0,0,0,0,0,0,0,0,0,13500,28350,10000,1.08,NA,NA
1999,08861NGLRT1200A,ENGLERT INC,1200 AMBOY AVE,PERTH AMBOY,MIDDLESEX,NJ,08861,40.539677,-74.272621,3444,3479,,,,,332322,,,,,,1399130136029,XYLENE (MIXED ISOMERS),001330207,YES,NON-PBT,NO,0,NO,R,Pounds,283,402,0,0,0,0,0,0,0,0,0,0,685,0,0,0,0,0,0,0,0,0,0,0,0,0,0,0,0,0,0,0,0,0,0,0,0,0,0,0,643,0,643,0,0,0,0,0,0,0,685,685,0,0,0,0,0,643,0,0,44212,0,45540,0,1.12,NA,NA
1999,08014PGCRPRTE13,LOGAN GENERATING CO LP,75 RT 130,SWEDESBORO,GLOUCESTER,NJ,080854525,39.789722,-75.403333,4911,4931,,,,,221112,,,,,,1399130177886,AMMONIA,007664417,NO,NON-PBT,NO,0,NO,R,Pounds,0,88,0,0,0,0,0,0,0,0,0,0,88,0,0,0,0,0,0,0,0,0,0,0,0,0,0,0,0,0,0,0,0,0,0,0,0,0,0,0,0,0,0,0,0,0,0,0,0,0,88,88,0,0,0,0,0,0,0,0,0,0,88,0,0,CALYPSO ENERGY HOLDINGS LLC,NA
1999,07603MRDHS238WF,HESS CORP BOGOTA TERMINAL,238 W FORT LEE RD,BOGOTA,BERGEN,NJ,07603,40.878139,-74.035222,5171,,,,,,424710,,,,,,1399130294034,BENZENE,000071432,YES,NON-PBT,NO,0,YES,R,Pounds,61,49,0,0,0,0,0,0,0,0,0,0,110,0,0,0,0,0,0,0,0,0,0,0,0,0,0,0,0,0,0,0,0,0,0,0,0,0,0,0,0,0,0,0,0,0,0,0,0,0,110,110,0,0,0,0,0,0,0,0,0,0,110,0,0,HESS CORP,006979785
1999,07306HDSNGDUFFI,PSEG POWER LLC HUDSON GENERATING STATION,DUFFIELD & VAN KEUREN AVE,JERSEY CITY,HUDSON,NJ,07306,40.747611,-74.076556,4911,,,,,,221112,,,,,,1399130221385,CHROMIUM COMPOUNDS(EXCEPT CHROMITE ORE MINED IN THE TRANSVAAL REGION),N090,YES,NON-PBT,YES,1,NO,R,Pounds,250,560,750,0,0,0,0,0,0,0,0,27000,28560,0,0,0,0,0,0,0,0,0,53,0,0,0,0,0,0,0,0,0,0,53,0,0,0,0,0,0,0,0,0,0,0,0,0,0,0,0,28613,28000,0,0,0,0,0,0,0,0,0,0,28000,0,1.46,PUBLIC SERVICE ENTERPRISE GROUP,848793910
1999,07801HWMTCROYST,HOWMET CASTINGS & SERVICS INC,9 ROY ST,DOVER,MORRIS,NJ,078010371,40.881939,-74.532387,3369,,,,,,336412,,,,,,1399130230853,ALUMINUM (FUME OR DUST),007429905,NO,NON-PBT,YES,4,NO,R,Pounds,9720,0,0,0,0,0,0,0,0,0,0,0,9720,0,0,0,0,0,0,0,0,0,9720,0,0,0,0,0,0,0,0,0,0,9720,0,0,0,0,0,0,0,0,0,0,0,0,0,0,0,0,19440,9720,0,0,0,0,0,0,0,0,0,9720,19440,0,1,ALCOA INC,001339472
1999,08110MRDHS123DE,HESS CORP PENNSAUKEN TERMINAL,123 DEROUSSE AVE,PENNSAUKEN,CAMDEN,NJ,08110,39.978889,-75.068278,5171,,,,,,424710,,,,,,1399130286293,TOLUENE,000108883,YES,NON-PBT,NO,0,NO,R,Pounds,397,1322,0,0,0,0,0,0,0,0,0,0,1719,0,0,0,0,0,0,0,0,0,0,0,0,0,0,0,0,0,0,0,0,0,0,0,1,0,0,1,0,0,0,0,0,0,0,0,0,0,1719,1719,0,0,0,0,0,0,0,0,0,1,1720,0,0,HESS CORP,006979785
1999,08023DPNTCRT130,DUPONT CHAMBERS WORKS,RT 130,DEEPWATER,SALEM,NJ,08023,39.682362,-75.491379,2869,2821,2865,2843,,,325211,,,,,,1399130288006,"2-CHLORO-1,1,1,2-TETRAFLUOROETHANE",002837890,NO,NON-PBT,NO,0,NO,R,Pounds,13539,0,0,0,0,0,0,0,0,0,0,0,13539,0,0,0,0,0,0,0,0,0,0,0,0,0,0,0,0,0,0,0,0,0,0,0,0,0,0,0,0,0,0,0,1085,0,0,0,0,1085,13539,13539,0,0,0,0,0,0,0,0,0,1085,14624,0,0,E I DU PONT DE NEMOURS & CO INC,001315704
1999,07064MRDHS750CL,HESS CORP - PORT READING REFINERY,750 CLIFF RD,PORT READING,MIDDLESEX,NJ,07064,40.557528,-74.242444,2911,,,,,,324110,,,,,,1399130294248,METHYL TERT-BUTYL ETHER,001634044,YES,NON-PBT,NO,0,NO,R,Pounds,1113,11711,0,0,0,0,0,0,0,0,0,0,12824,0,0,0,0,0,0,0,0,0,0,0,0,0,0,0,0,0,0,0,0,0,0,0,0,0,0,0,0,0,0,0,0,0,0,0,0,0,12824,12824,0,0,0,0,0,0,0,0,0,0,12824,0,1,HESS CORP,006979785
1999,07105MRDHS1111D,HESS CORP NEWARK-DELANCY STREET TERMINAL,1111 DELANCY ST,NEWARK,ESSEX,NJ,07105,40.706167,-74.123861,5171,,,,,,424710,,,,,,1399130286622,TOLUENE,000108883,YES,NON-PBT,NO,0,NO,R,Pounds,313,285,0,0,0,0,0,0,0,0,0,0,598,0,0,0,0,0,0,0,0,0,0,0,0,0,0,0,0,0,0,0,0,0,1,0,0,0,0,1,0,0,0,0,0,0,0,0,0,0,598,602,0,0,0,0,0,0,0,1,0,0,603,0,0,HESS CORP,006979785
1999,08861MRDHSSMITH,HESS CORP FIRST RESERVE TERMINAL,SMITH ST & CONVERY BLVD,PERTH AMBOY,MIDDLESEX,NJ,08861,40.511556,-74.293889,5171,,,,,,424710,,,,,,1399130287562,ETHYLBENZENE,000100414,YES,NON-PBT,NO,0,NO,R,Pounds,108,164,0,0,0,0,0,0,0,0,0,0,272,0,0,0,0,0,0,0,0,0,0,0,0,0,0,0,0,0,0,0,0,0,0,0,0,0,0,0,0,0,0,0,0,0,0,0,0,0,272,272,0,0,0,0,0,0,0,0,0,0,272,0,0,HESS CORP,006979785
1999,08023DPNTCRT130,DUPONT CHAMBERS WORKS,RT 130,DEEPWATER,SALEM,NJ,08023,39.682362,-75.491379,2869,2821,2865,2843,,,325120,,,,,,1399130288208,CRESOL (MIXED ISOMERS),001319773,YES,NON-PBT,NO,0,NO,R,Pounds,0,103,109,0,0,2245,0,0,0,0,0,0,2457,0,0,0,0,0,0,0,0,0,0,0,0,0,0,0,0,0,0,0,0,0,0,0,0,0,0,0,0,0,0,0,0,0,0,0,0,0,2457,2457,0,0,0,0,0,0,0,0,83387,0,85844,0,0,E I DU PONT DE NEMOURS & CO INC,001315704
1999,08023DPNTCRT130,DUPONT CHAMBERS WORKS,RT 130,DEEPWATER,SALEM,NJ,08023,39.682362,-75.491379,2869,2821,2865,2843,,,325188,,,,,,1399130288285,DIMETHYL SULFATE,000077781,YES,NON-PBT,NO,0,YES,R,Pounds,0,1,3,0,0,0,0,0,0,0,0,0,4,0,0,0,0,0,0,0,0,0,0,0,0,0,0,0,0,0,0,0,0,0,0,0,0,0,0,0,0,0,0,0,0,0,0,0,0,0,4,4,0,0,0,0,0,0,0,0,321,0,325,0,.47,E I DU PONT DE NEMOURS & CO INC,001315704
1999,08903KZCHM500JE,AKCROS CHEMICALS INC,500 JERSEY AVE,NEW BRUNSWICK,MIDDLESEX,NJ,089013502,40.47998,-74.46813,2869,2851,,,,,325199,,,,,,1399130140852,METHANOL,000067561,YES,NON-PBT,NO,0,NO,R,Pounds,62,13,0,0,0,0,0,0,0,0,0,0,75,0,36431,36431,0,0,0,0,0,0,0,0,0,0,0,0,0,0,0,0,0,0,0,0,0,0,0,0,0,55172,55172,0,0,0,0,0,0,0,75,75,0,0,0,0,0,55172,0,0,0,36431,91678,0,1.01,NA,NA
1999,08052STNHR1PARK,STONHARD,1000 E PARK AVE,MAPLE SHADE,BURLINGTON,NJ,08052,39.96111,-74.99386,2851,,,,,,325510,,,,,,1399130255387,LEAD COMPOUNDS,N420,YES,PBT,YES,1,NO,R,Pounds,250,5,0,0,0,0,0,0,0,0,0,0,255,0,0,0,0,0,0,0,0,0,0,0,0,0,0,0,0,0,250,0,0,250,0,0,0,0,0,0,0,0,0,0,0,0,0,0,0,0,505,20,0,0,0,0,0,0,0,0,0,0,20,0,1.16,RPM INC,004155651
1999,07105NWRKB41446,NEWARK BAY COGENERATION PTNR LP,414-462 AVE P,NEWARK,ESSEX,NJ,07105,40.719444,-74.129167,4931,,,,,,221119,,,,,,1399130197256,AMMONIA,007664417,NO,NON-PBT,NO,0,NO,R,Pounds,1017,63338,0,0,0,0,0,0,0,0,0,0,64355,0,0,0,0,0,0,0,0,0,0,0,0,0,0,0,0,0,0,0,0,0,0,0,0,0,0,0,0,0,0,0,0,0,0,0,0,0,64355,64355,0,0,0,0,0,0,0,0,0,0,64355,0,0,NA,NA
1999,08888DRLNGPOBOX,READINGTON FARMS INC,12 MILL RD,WHITEHOUSE STATION,HUNTERDON,NJ,08888,40.624444,-74.75972,2026,,,,,,311511,,,,,,1399130208655,NITRIC ACID,007697372,NO,NON-PBT,NO,0,NO,R,Pounds,5,0,0,0,0,0,0,0,0,0,0,0,5,0,0,0,0,0,0,0,0,0,0,0,0,0,0,0,0,0,0,0,0,0,0,0,0,0,0,0,0,0,0,0,0,0,0,0,0,0,5,1,0,0,0,0,0,0,0,0,14696,0,14697,0,0,WAKEFERN FOOD CORP,006972418
1999,08023DPNTCRT130,DUPONT CHAMBERS WORKS,RT 130,DEEPWATER,SALEM,NJ,08023,39.682362,-75.491379,2869,2821,2865,2843,,,325188,,,,,,1399130288412,HYDROGEN FLUORIDE,007664393,YES,NON-PBT,NO,0,NO,R,Pounds,11,41,0,0,0,0,0,0,0,0,0,0,52,0,0,0,0,0,0,0,0,0,0,0,0,0,0,0,0,0,0,0,0,0,0,0,0,0,0,0,0,0,0,0,0,0,0,0,0,0,52,52,0,0,0,0,0,0,0,0,2694905,0,2694957,0,.98,E I DU PONT DE NEMOURS & CO INC,001315704
1999,08023DPNTCRT130,DUPONT CHAMBERS WORKS,RT 130,DEEPWATER,SALEM,NJ,08023,39.682362,-75.491379,2869,2821,2865,2843,,,325120,,,,,,1399130288487,METHYL METHACRYLATE,000080626,YES,NON-PBT,NO,0,NO,R,Pounds,88,306,0,0,0,0,0,0,0,0,0,0,394,0,0,0,0,0,0,0,0,0,0,0,0,0,0,0,0,0,0,0,0,0,0,0,0,0,0,0,0,0,0,0,13129,0,0,0,0,13129,394,394,0,0,0,0,0,0,0,0,9887,13129,23410,0,.99,E I DU PONT DE NEMOURS & CO INC,001315704
1999,08903KZCHM500JE,AKCROS CHEMICALS INC,500 JERSEY AVE,NEW BRUNSWICK,MIDDLESEX,NJ,089013502,40.47998,-74.46813,2869,2851,,,,,325199,,,,,,1399130140940,NITRATE COMPOUNDS,N511,NO,NON-PBT,NO,0,NO,R,Pounds,0,0,0,0,0,0,0,0,0,0,0,0,0,0,224960,224960,0,0,0,0,0,0,0,0,0,0,0,0,0,0,0,0,0,0,0,0,0,0,0,0,0,0,0,0,0,0,0,0,0,0,0,0,0,0,0,0,0,0,0,0,0,224960,224960,0,1.23,NA,NA
1999,08611MBLLT2785L,EXXONMOBIL OIL CORP TRENTON TERMINAL,2785 LAMBERTON RD,TRENTON,MERCER,NJ,08611,40.183909,-74.746621,5171,,,,,,424710,,,,,,1399130271101,XYLENE (MIXED ISOMERS),001330207,YES,NON-PBT,NO,0,NO,R,Pounds,102,246,5,0,0,0,0,0,0,0,0,0,353,0,0,0,0,0,0,0,0,0,0,0,0,0,0,0,0,0,250,0,0,250,0,0,0,0,0,0,0,0,0,0,0,0,250,0,0,250,603,365,0,0,0,0,0,0,0,0,0,141,506,0,0,EXXONMOBIL CORP,001213214
1999,08023DPNTCRT130,DUPONT CHAMBERS WORKS,RT 130,DEEPWATER,SALEM,NJ,08023,39.682362,-75.491379,2869,2821,2865,2843,,,325120,,,,,,1399130288691,PICRIC ACID,000088891,NO,NON-PBT,NO,0,NO,R,Pounds,0,0,0,0,0,0,0,0,0,0,0,0,0,0,0,0,0,0,0,0,0,0,0,0,0,0,0,0,0,0,0,0,0,0,0,0,0,0,0,0,0,0,0,0,0,0,0,0,0,0,0,0,0,0,0,0,0,0,0,0,344378,0,344378,0,1.01,E I DU PONT DE NEMOURS & CO INC,001315704
1999,08023DPNTCRT130,DUPONT CHAMBERS WORKS,RT 130,DEEPWATER,SALEM,NJ,08023,39.682362,-75.491379,2869,2821,2865,2843,,,325193,,,,,,1399130288766,TRICHLOROFLUOROMETHANE,000075694,NO,NON-PBT,NO,0,NO,R,Pounds,0,0,0,0,0,0,0,0,0,0,0,0,0,0,0,0,0,0,0,0,0,0,0,0,0,0,0,0,0,0,0,0,0,0,0,0,0,0,0,0,0,0,0,0,0,0,0,0,0,0,0,0,0,0,0,0,0,0,0,0,0,0,0,0,1.2,E I DU PONT DE NEMOURS & CO INC,001315704
1999,08817QLTYW8SUTT,QUALITY WALLCOVERING INC.,8 SUTTON PL.,EDISON,MIDDLESEX,NJ,088172223,40.54446,-74.402786,2754,,,,,,323111,,,,,,1399130255817,TOLUENE,000108883,YES,NON-PBT,NO,0,NO,R,Pounds,1501,675,0,0,0,0,0,0,0,0,0,0,2176,0,0,0,0,0,0,0,0,0,0,0,0,0,0,0,0,0,0,0,0,0,0,0,0,0,0,0,7695,0,7695,0,0,0,0,0,0,0,2176,2176,0,0,0,0,0,0,0,0,12834,7695,22705,0,1.03,NA,NA
1999,07036GLFLL2600M,GULF OIL LP LINDEN TERMINAL,2600 MARSHES DOCK RD,LINDEN,UNION,NJ,07036,40.604361,-74.235472,5171,,,,,,424710,,,,,,1399130278878,TOLUENE,000108883,YES,NON-PBT,NO,0,NO,R,Pounds,250,750,5,0,0,0,0,0,0,0,0,0,1005,0,0,0,0,0,0,0,0,0,0,0,0,0,0,0,0,0,0,0,0,0,0,0,0,0,0,0,0,0,0,0,0,0,0,0,0,0,1005,952,0,0,0,0,0,0,0,0,0,0,952,0,1.06,GULF OIL LP,147037154
1999,07631CCMTL456NO,C&C METAL PRODUCTS CORP,456 NORDHOFF PL,ENGLEWOOD,BERGEN,NJ,07631,40.881339,-73.983965,3471,3469,3541,,,,332813,,,,,,1399130178938,NITRIC ACID,007697372,NO,NON-PBT,NO,0,NO,R,Pounds,0,130,0,0,0,0,0,0,0,0,0,0,130,0,0,0,0,0,0,0,0,0,0,0,0,0,0,0,0,0,0,0,0,0,0,0,0,0,0,0,0,0,0,0,0,0,0,0,0,0,130,130,0,0,0,0,0,0,0,0,14143,0,14273,0,.75,NA,NA
1999,07080NTRLB650SO,NBTY NJ (NUTRO LABORATORIES),650 HADLEY RD,SOUTH PLAINFIELD,MIDDLESEX,NJ,070800707,40.551142,-74.413289,2834,,,,,,311999,,,,,,1399130235688,ZINC COMPOUNDS,N982,NO,NON-PBT,YES,1,NO,R,Pounds,0,0,0,0,0,0,0,0,0,0,0,0,0,17,0,17,0,0,0,0,0,0,0,0,0,0,0,0,0,0,0,0,0,0,0,0,0,0,0,0,0,0,0,0,0,0,0,0,0,0,17,17,0,0,0,0,0,0,0,0,0,0,17,0,0,NBTY INC,052790318
1999,07036XXNCH1400P,INFINEUM USA LP-BAYWAY CHEMICAL PLANT,CORNER OF PARK & BRUNSWICK AVENUES,LINDEN,UNION,NJ,070360023,40.640135,-74.21888,2869,,,,,,325000,,,,,,1399130263837,BARIUM COMPOUNDS,N040,NO,NON-PBT,YES,3,NO,R,Pounds,0,0,0,0,0,0,0,0,0,0,0,0,0,0,0,0,0,0,0,0,0,0,0,0,0,0,0,0,0,0,0,0,0,0,0,0,0,0,0,0,0,0,0,0,0,0,0,0,0,0,0,0,0,0,0,0,0,0,0,0,0,0,0,0,.98,INFINEUM USA INC,032105889
1999,07481NVMTS681LA,NOVAMET SPECIALTY PRODUCTS CORP,681 LAWLINS RD,WYCKOFF,BERGEN,NJ,07481,41.015302,-74.185749,3399,,,,,,339999,,,,,,1399130198359,NICKEL,007440020,YES,NON-PBT,YES,1,YES,R,Pounds,0,0,0,0,0,0,0,0,0,0,0,0,0,0,0,0,0,0,0,0,0,0,0,0,0,0,0,0,0,0,0,0,0,0,0,13975,0,0,0,13975,0,0,0,0,0,0,0,0,0,0,0,0,0,0,0,0,0,0,0,13975,0,0,13975,0,1.08,NA,NA
1999,07105DCCHM49RUT,DELTECH RESIN CO,49 RUTHERFORD ST,NEWARK,ESSEX,NJ,07105,40.712446,-74.139073,2821,,,,,,325510,,,,,,1399130250804,ETHYLENE GLYCOL,000107211,YES,NON-PBT,NO,0,NO,R,Pounds,9,9,0,0,0,0,0,0,0,0,0,0,18,0,0,0,0,0,0,0,0,0,0,0,0,0,0,0,0,0,0,0,0,0,0,0,0,0,0,0,0,0,0,0,0,0,465,0,0,465,18,18,0,0,0,0,0,0,0,0,0,653,671,0,1.04,NEWCHEM INC,176819753
1999,07036XXNCH1400P,INFINEUM USA LP-BAYWAY CHEMICAL PLANT,CORNER OF PARK & BRUNSWICK AVENUES,LINDEN,UNION,NJ,070360023,40.640135,-74.21888,2869,,,,,,325000,,,,,,1399130263888,CYCLOHEXANE,000110827,NO,NON-PBT,NO,0,NO,R,Pounds,1026,23,0,0,0,0,0,0,0,0,0,0,1049,0,0,0,0,0,0,0,0,0,0,0,0,0,0,0,0,0,0,0,0,0,0,0,0,0,0,0,0,0,0,0,22,0,0,0,0,22,1049,1049,0,0,0,0,0,0,0,0,292,22,1363,0,.64,INFINEUM USA INC,032105889
1999,07036XXNCH1400P,INFINEUM USA LP-BAYWAY CHEMICAL PLANT,CORNER OF PARK & BRUNSWICK AVENUES,LINDEN,UNION,NJ,070360023,40.640135,-74.21888,2869,,,,,,325000,,,,,,1399130263940,METHYL ETHYL KETONE,000078933,NO,NON-PBT,NO,0,NO,R,Pounds,11039,0,0,0,0,0,0,0,0,0,0,0,11039,0,0,0,0,0,0,0,0,0,0,0,0,0,0,0,0,0,0,0,0,0,0,0,0,0,0,0,0,0,0,0,1080,0,0,0,0,1080,11039,11039,0,0,0,0,0,0,0,0,0,1080,12119,0,1.52,INFINEUM USA INC,032105889
1999,08818MBLCHRT27A,MOBIL CHEMICAL CO SYNTHETICS DIV,2195 RT 27 AT VINEYARD RD,EDISON,MIDDLESEX,NJ,088183140,40.534167,-74.381806,2865,,,,,,325110,,,,,,1399130293107,TOLUENE,000108883,YES,NON-PBT,NO,0,NO,R,Pounds,22,444,0,0,0,0,0,0,0,0,0,0,466,0,12,12,0,0,0,0,0,0,0,0,0,0,0,0,0,0,0,3,0,3,0,0,0,0,0,0,19636,0,19636,0,515,0,0,0,0,515,469,477,0,0,0,0,0,19636,0,0,0,518,20631,0,.61,EXXON MOBIL CORP,001213214
1999,07105SHRWN60LIS,SHERWIN-WILLIAMS CO.  NEWARK,60 LISTER AVE.,NEWARK,ESSEX,NJ,071054524,40.739341,-74.137914,2851,,,,,,325510,,,,,,1399130322340,ETHYLENE GLYCOL,000107211,YES,NON-PBT,NO,0,NO,R,Pounds,0,4,0,0,0,0,0,0,0,0,0,0,4,0,0,0,0,0,0,0,0,0,0,0,0,0,0,0,0,0,0,0,0,0,0,0,0,0,0,0,5193,0,5193,0,0,0,158,0,0,158,4,4,0,0,0,0,0,5193,656,0,0,158,6011,0,.23,SHERWIN-WILLIAMS CO,004206397
1999,07071PLYRT624SC,POLYURETHANE SPECIALTIES COIN C,624 SCHUYLER AVE,LYNDHURST,BERGEN,NJ,07071,40.79907,-74.116276,2821,,,,,,325211,,,,,,1399130312820,METHYL ETHYL KETONE,000078933,NO,NON-PBT,NO,0,NO,R,Pounds,4,232,0,0,0,0,0,0,0,0,0,0,236,0,0,0,0,0,0,0,0,0,0,0,0,0,0,0,0,0,0,0,0,0,0,0,0,0,0,0,0,0,0,0,1542,0,0,0,0,1542,236,236,0,0,0,0,0,0,0,0,0,1542,1778,0,.78,POLYURETHANE CORP OF AMERICA,101385268
1999,08070DPWTR373NB,DEEPWATER ENERGY CENTER,373 N BROADWAY,PENNSVILLE,SALEM,NJ,08070,39.675639,-75.501917,4911,,,,,,221112,,,,,,1399130336682,"HYDROCHLORIC ACID (1995 AND AFTER ""ACID AEROSOLS"" ONLY)",007647010,YES,NON-PBT,NO,0,NO,R,Pounds,0,382625,0,0,0,0,0,0,0,0,0,0,382625,0,0,0,0,0,0,0,0,0,0,0,0,0,0,0,0,0,0,0,0,0,0,0,0,0,0,0,0,0,0,0,0,0,0,0,0,0,382625,382625,0,0,0,0,0,0,0,0,0,0,382625,0,.78,CALPINE CORP,112710876
1999,08873NNCRB40VER,SOMERSET LATEX PLANT UNION CARBIDE CORP,40 VERONICA AVE,SOMERSET,SOMERSET,NJ,08873,40.48236,-74.50163,2821,,,,,,325211,,,,,,1399130394950,METHYL METHACRYLATE,000080626,YES,NON-PBT,NO,0,NO,R,Pounds,339,195,0,0,0,0,0,0,0,0,0,0,534,0,0,0,0,0,0,0,0,0,0,0,0,0,0,0,0,0,0,0,0,0,0,0,0,0,0,0,0,0,0,5,2,0,0,0,0,7,534,535,0,0,0,0,0,0,0,0,414,7,956,0,.94,DOW CHEMICAL CO,001381581
1999,08857LDBRDOLDWA,OLD BRIDGE CHEMIACLS INC,OLD WATERWORKS RD,OLD BRIDGE,MIDDLESEX,NJ,08857,40.432944,-74.328669,2819,,,,,,325188,,,,,,1399130355884,LEAD COMPOUNDS,N420,YES,PBT,YES,1,NO,R,Pounds,0,0,0,0,0,0,0,0,0,0,0,0,0,0,0,0,0,0,0,0,0,0,35800,0,0,0,0,0,0,0,0,0,0,35800,0,0,0,0,0,0,0,0,0,0,0,0,0,0,0,0,35800,0,0,0,0,0,0,0,0,0,0,1260000,1260000,0,1.09,NA,NA
1999,07072GNSCH611BR,NOVUS FINE CHEMICALS,611BROAD ST,CARLSTADT,BERGEN,NJ,07072,40.84166,-74.09949,2833,,,,,,325411,,,,,,1399130380076,FORMALDEHYDE,000050000,YES,NON-PBT,NO,0,YES,R,Pounds,0,4,0,0,0,0,0,0,0,0,0,0,4,0,146,146,0,0,0,0,0,0,0,0,0,0,0,0,0,0,0,0,0,0,0,0,0,0,0,0,0,2794,2794,0,0,0,0,0,0,0,4,4,0,0,0,0,0,2794,0,0,0,146,2944,0,.29,NA,NA
1999,07105QNTMC300DO,EQUISTAR CHEMICALS LP,300 DOREMUS AVENUE,NEWARK,ESSEX,NJ,07105,40.7229,-74.123253,2869,,,,,,325110,,,,,,1399130337239,METHANOL,000067561,YES,NON-PBT,NO,0,NO,R,Pounds,0,291,0,0,0,0,0,0,0,0,0,0,291,0,0,0,0,0,0,0,0,0,0,0,0,0,0,0,0,0,0,0,0,0,0,0,0,0,0,0,0,0,0,0,0,0,0,0,0,0,291,291,0,0,0,0,0,0,0,0,0,0,291,0,.64,LYONDELL CHEMICAL CO,194123154
1999,08818FRDMT939US,FORD MOTOR CO EDISON ASSEMBLY PLANT,939 US HWY 1,EDISON,MIDDLESEX,NJ,08818,40.516777,-74.371651,3711,,,,,,336112,,,,,,1399130344738,ETHYLENE GLYCOL,000107211,YES,NON-PBT,NO,0,NO,R,Pounds,27,19,0,0,0,0,0,0,0,0,0,0,46,0,0,0,0,0,0,0,0,0,0,0,0,0,0,0,0,0,0,0,0,0,0,0,0,0,0,0,180,0,180,0,0,0,0,0,0,0,46,47,0,0,0,0,0,180,0,0,0,0,227,0,1.12,FORD MOTOR CO,001344746
1999,08818FRDMT939US,FORD MOTOR CO EDISON ASSEMBLY PLANT,939 US HWY 1,EDISON,MIDDLESEX,NJ,08818,40.516777,-74.371651,3711,,,,,,336112,,,,,,1399130344803,TOLUENE,000108883,YES,NON-PBT,NO,0,NO,R,Pounds,15000,6500,0,0,0,0,0,0,0,0,0,0,21500,0,0,0,0,0,0,0,0,0,0,0,0,0,0,0,0,0,0,0,0,0,16000,0,2,0,0,16002,2442,0,2442,0,0,0,0,12,0,12,21500,22000,0,0,0,0,0,2400,0,16000,4400,12,44812,0,1.12,FORD MOTOR CO,001344746
1999,08818CNLXC226TA,SHERWIN-WILLIAMS CO. (DBA CONLUX COATINGS),226 TALMADGE RD.,EDISON,MIDDLESEX,NJ,088180847,40.538222,-74.398333,2851,,,,,,325510,,,,,,1399130328014,CERTAIN GLYCOL ETHERS,N230,YES,NON-PBT,NO,0,NO,R,Pounds,0,87,0,0,0,0,0,0,0,0,0,0,87,0,0,0,0,0,0,0,0,0,0,0,0,0,0,0,0,0,0,0,0,0,0,0,0,0,0,0,5504,0,5504,0,0,0,0,0,0,0,87,87,0,0,0,0,0,5504,7051,0,0,0,12642,0,1.09,SHERWIN-WILLIAMS CO,004206397
1999,08818CNLXC226TA,SHERWIN-WILLIAMS CO. (DBA CONLUX COATINGS),226 TALMADGE RD.,EDISON,MIDDLESEX,NJ,088180847,40.538222,-74.398333,2851,,,,,,325510,,,,,,1399130328089,CHROMIUM COMPOUNDS(EXCEPT CHROMITE ORE MINED IN THE TRANSVAAL REGION),N090,YES,NON-PBT,YES,1,NO,R,Pounds,0,2,0,0,0,0,0,0,0,0,0,0,2,0,0,0,0,0,136,0,0,0,0,0,0,0,0,0,0,0,0,0,294,430,0,0,0,0,0,0,0,0,0,0,0,0,0,0,0,0,432,432,0,0,0,0,0,0,322,0,0,0,754,0,1.09,SHERWIN-WILLIAMS CO,004206397
1999,07110TLNTC10KIN,CROMPTON COLORS INC,10 KINGSLAND ST,NUTLEY,ESSEX,NJ,07110,40.82683,-74.14284,2865,,,,,,325132,,,,,,1399130322581,COPPER COMPOUNDS,N100,NO,NON-PBT,YES,1,NO,R,Pounds,0,0,0,0,0,0,0,0,0,0,0,0,0,469,0,469,3,0,0,0,0,0,285,0,0,0,0,0,0,0,0,0,0,288,0,0,0,0,0,0,0,0,0,0,0,0,0,0,0,0,757,288,0,0,0,0,0,0,0,0,0,469,757,0,.22,CROMPTON CORP,052813136
1999,07727CRYCHRR2BO,POLYONE CORP.,10 RUCKLE AVE.,FARMINGDALE,MONMOUTH,NJ,07727,40.224627,-74.145078,3087,,,,,,325991,,,,,,1399130301928,LEAD COMPOUNDS,N420,YES,PBT,YES,1,NO,R,Pounds,89,1,0,0,0,0,5698,0,0,0,0,0,5788,0,0,0,0,0,0,0,0,0,5727,0,0,0,0,0,0,0,0,0,0,5727,0,0,0,0,0,0,0,0,0,0,0,0,0,0,0,0,11515,5817,0,0,0,0,0,0,0,0,0,29,5846,0,1,POLYONE CORP,800967705
1999,07109VNDYKMAINW,ISP VAN DYK INC.,11 WILLIAM ST.,BELLEVILLE,ESSEX,NJ,07109,40.784431,-74.149985,2844,,,,,,325412,,,,,,1399130315373,ETHYLENE GLYCOL,000107211,YES,NON-PBT,NO,0,NO,R,Pounds,2,3,0,0,0,0,0,0,0,0,0,0,5,0,688,688,0,0,0,0,0,0,0,0,0,0,0,0,0,0,0,0,0,0,0,0,0,0,0,0,0,0,0,0,0,0,0,0,0,0,5,5,0,0,0,0,0,0,0,0,0,688,693,0,.93,INTERNATIONAL SPECIALTY PRODUCTS INC,187245105
1999,07105CRMPT52AMS,CROMPTON COLORS INC,52 AMSTERDAM ST,NEWARK,ESSEX,NJ,07105,40.722003,-74.14515,2865,,,,,,325132,,,,,,1399130322783,DIMETHYL SULFATE,000077781,YES,NON-PBT,NO,0,YES,R,Pounds,0,0,0,0,0,0,0,0,0,0,0,0,0,0,0,0,0,0,0,0,0,0,0,0,0,0,0,0,0,0,0,0,0,0,0,0,0,0,0,0,0,0,0,0,0,0,0,0,0,0,0,0,0,0,0,0,0,0,0,0,3097,0,3097,0,.66,CROMPTON CORP,052813136
1999,07036GMRNT1525W,HONEYWELL GNI,1525 W BLANCKE ST,LINDEN,UNION,NJ,07036,40.621762,-74.266079,3081,,,,,,326113,,,,,,1399130412048,XYLENE (MIXED ISOMERS),001330207,YES,NON-PBT,NO,0,NO,R,Pounds,0,250,0,0,0,0,0,0,0,0,0,0,250,0,0,0,0,0,0,0,0,0,0,0,0,0,0,0,0,0,0,0,0,0,0,0,0,0,0,0,0,0,0,0,750,0,0,0,0,750,250,253,0,0,0,0,0,0,0,0,25385,1000,26638,0,3.81,HONEYWELL INTERNATIONAL INC,139691877
1999,08014SFTYKRTE32,SAFETY-KLEEN (BRIDGEPORT) INC.,RTE. 322 & I-295,BRIDGEPORT,GLOUCESTER,NJ,08014,39.78825,-75.354417,4953,,,,,,562000,,,,,,1399130246224,"1,2-DICHLOROBENZENE",000095501,NO,NON-PBT,NO,0,NO,R,Pounds,1,3,0,0,0,0,0,0,0,0,0,0,4,0,0,0,0,0,0,0,0,0,4,0,0,0,0,0,0,0,0,0,0,4,0,0,0,0,0,0,0,0,0,0,0,0,0,0,0,0,8,8,0,0,0,0,0,0,0,0,107914,0,107922,0,1.07,SAFETY-KLEEN CORP,053976551
1999,08014SFTYKRTE32,SAFETY-KLEEN (BRIDGEPORT) INC.,RTE. 322 & I-295,BRIDGEPORT,GLOUCESTER,NJ,08014,39.78825,-75.354417,4953,,,,,,562000,,,,,,1399130246301,ACETONITRILE,000075058,YES,NON-PBT,NO,0,NO,R,Pounds,1,3,0,0,0,0,0,0,0,0,0,0,4,0,0,0,0,0,0,0,0,0,15,0,0,0,0,0,0,0,0,0,0,15,0,0,0,0,0,0,0,0,0,0,0,0,0,0,0,0,19,19,0,0,0,0,0,0,0,0,111191,0,111210,0,1.07,SAFETY-KLEEN CORP,053976551
1999,08014SFTYKRTE32,SAFETY-KLEEN (BRIDGEPORT) INC.,RTE. 322 & I-295,BRIDGEPORT,GLOUCESTER,NJ,08014,39.78825,-75.354417,4953,,,,,,562000,,,,,,1399130246376,BENZENE,000071432,YES,NON-PBT,NO,0,YES,R,Pounds,3,10,0,0,0,0,0,0,0,0,0,0,13,0,0,0,0,0,0,0,0,0,2,0,0,0,0,0,0,0,0,0,0,2,0,0,0,0,0,0,0,0,0,0,0,0,0,0,0,0,15,15,0,0,0,0,0,0,0,0,384262,0,384277,0,1.07,SAFETY-KLEEN CORP,053976551
1999,08014SFTYKRTE32,SAFETY-KLEEN (BRIDGEPORT) INC.,RTE. 322 & I-295,BRIDGEPORT,GLOUCESTER,NJ,08014,39.78825,-75.354417,4953,,,,,,562000,,,,,,1399130246592,EPICHLOROHYDRIN,000106898,YES,NON-PBT,NO,0,YES,R,Pounds,1,1,0,0,0,0,0,0,0,0,0,0,2,0,0,0,0,0,0,0,0,0,0,0,0,0,0,0,0,0,0,0,0,0,0,0,0,0,0,0,0,0,0,0,0,0,0,0,0,0,2,2,0,0,0,0,0,0,0,0,17744,0,17746,0,1.07,SAFETY-KLEEN CORP,053976551
1999,07512HNCHM90MAL,ASHLAND INC,90 MALTESE DR,TOTOWA,PASSAIC,NJ,07512,40.90217,-74.24319,2891,,,,,,325520,,,,,,1399130257696,VINYL ACETATE,000108054,YES,NON-PBT,NO,0,YES,R,Pounds,3,58,0,0,0,0,0,0,0,0,0,0,61,0,0,0,0,0,0,0,0,0,0,0,0,0,0,0,0,0,0,0,0,0,0,0,0,0,0,0,7623,0,7623,0,0,0,0,0,0,0,61,61,0,0,0,0,0,7623,0,0,0,0,7684,0,1.1,ASHLAND INC,005003264
1999,08859DPNTPCHEES,DUPONT PARLIN PLANT,CHEESEQUAKE RD,PARLIN,MIDDLESEX,NJ,088591094,40.452028,-74.331306,2851,3861,,,,,325188,,,,,,1399130341605,BUTYL ACRYLATE,000141322,NO,NON-PBT,NO,0,NO,R,Pounds,1,23,0,0,0,0,0,0,0,0,0,0,24,0,0,0,0,0,0,0,0,0,0,0,0,0,0,0,0,0,0,0,0,0,0,0,0,0,0,0,0,0,0,0,0,57,0,0,0,57,24,24,0,0,0,0,0,0,0,0,0,57,81,0,1.53,E I DU PONT DE NEMOURS & CO INC,001315704
1999,08014SFTYKRTE32,SAFETY-KLEEN (BRIDGEPORT) INC.,RTE. 322 & I-295,BRIDGEPORT,GLOUCESTER,NJ,08014,39.78825,-75.354417,4953,,,,,,562000,,,,,,1399130246440,"1-CHLORO-1,1-DIFLUOROETHANE",000075683,NO,NON-PBT,NO,0,NO,R,Pounds,1,1,0,0,0,0,0,0,0,0,0,0,2,0,0,0,0,0,0,0,0,0,0,0,0,0,0,0,0,0,0,0,0,0,0,0,0,0,0,0,0,0,0,0,0,0,0,0,0,0,2,2,0,0,0,0,0,0,0,0,16312,0,16314,0,1.07,SAFETY-KLEEN CORP,053976551
1999,08014SFTYKRTE32,SAFETY-KLEEN (BRIDGEPORT) INC.,RTE. 322 & I-295,BRIDGEPORT,GLOUCESTER,NJ,08014,39.78825,-75.354417,4953,,,,,,562000,,,,,,1399130246515,DICHLOROBENZENE (MIXED ISOMERS),025321226,NO,NON-PBT,NO,0,YES,R,Pounds,1,1,0,0,0,0,0,0,0,0,0,0,2,0,0,0,0,0,0,0,0,0,0,0,0,0,0,0,0,0,0,0,0,0,0,0,0,0,0,0,0,0,0,0,0,0,0,0,0,0,2,2,0,0,0,0,0,0,0,0,41508,0,41510,0,1.07,SAFETY-KLEEN CORP,053976551
1999,07036PRMNT1515W,PARAMOUNT METAL FINISHING,1515 W ELIZABETH AVE,LINDEN,UNION,NJ,07036,40.619973,-74.263704,3471,,,,,,332813,,,,,,1399130297144,METHYL ETHYL KETONE,000078933,NO,NON-PBT,NO,0,NO,R,Pounds,0,8400,0,0,0,0,0,0,0,0,0,0,8400,0,0,0,0,0,0,0,0,0,0,0,0,0,0,0,0,0,0,0,0,0,0,0,0,0,0,0,17000,0,17000,0,0,0,0,0,0,0,8400,0,0,0,0,0,0,17000,0,0,0,0,17000,0,1.1,NA,NA
1999,08014SFTYKRTE32,SAFETY-KLEEN (BRIDGEPORT) INC.,RTE. 322 & I-295,BRIDGEPORT,GLOUCESTER,NJ,08014,39.78825,-75.354417,4953,,,,,,562000,,,,,,1399130246717,N-METHYL-2-PYRROLIDONE,000872504,NO,NON-PBT,NO,0,NO,R,Pounds,1,3,0,0,0,0,0,0,0,0,0,0,4,0,0,0,0,0,0,0,0,0,0,0,0,0,0,0,0,0,0,0,0,0,0,0,0,0,0,0,0,0,0,0,0,0,0,0,0,0,4,4,0,0,0,0,0,0,0,0,127089,0,127093,0,1.07,SAFETY-KLEEN CORP,053976551
1999,08014SFTYKRTE32,SAFETY-KLEEN (BRIDGEPORT) INC.,RTE. 322 & I-295,BRIDGEPORT,GLOUCESTER,NJ,08014,39.78825,-75.354417,4953,,,,,,562000,,,,,,1399130246768,DICHLOROMETHANE,000075092,YES,NON-PBT,NO,0,YES,R,Pounds,6,21,0,0,0,0,0,0,0,0,0,0,27,0,0,0,0,0,0,0,0,0,2,0,0,0,0,0,0,0,0,0,0,2,0,0,0,0,0,0,0,0,0,0,0,0,0,0,0,0,29,29,0,0,0,0,0,0,0,0,780135,0,780164,0,1.07,SAFETY-KLEEN CORP,053976551
1999,08014SFTYKRTE32,SAFETY-KLEEN (BRIDGEPORT) INC.,RTE. 322 & I-295,BRIDGEPORT,GLOUCESTER,NJ,08014,39.78825,-75.354417,4953,,,,,,562000,,,,,,1399130246844,PHENOL,000108952,YES,NON-PBT,NO,0,NO,R,Pounds,1,3,0,0,0,0,0,0,0,0,0,0,4,0,0,0,0,0,0,0,0,0,4,0,0,0,0,0,0,0,0,0,0,4,0,0,0,0,0,0,0,0,0,0,0,0,0,0,0,0,8,8,0,0,0,0,0,0,0,0,104589,0,104597,0,1.07,SAFETY-KLEEN CORP,053976551
1999,08014SFTYKRTE32,SAFETY-KLEEN (BRIDGEPORT) INC.,RTE. 322 & I-295,BRIDGEPORT,GLOUCESTER,NJ,08014,39.78825,-75.354417,4953,,,,,,562000,,,,,,1399130246895,TOLUENE,000108883,YES,NON-PBT,NO,0,NO,R,Pounds,38,129,0,0,0,0,0,0,0,0,0,0,167,0,0,0,0,0,0,0,0,0,0,0,0,0,0,0,0,0,0,0,0,0,0,0,0,0,0,0,0,0,0,0,155,0,0,0,0,155,167,322,0,0,0,0,0,0,0,0,4787521,0,4787843,0,1.07,SAFETY-KLEEN CORP,053976551
1999,08014SFTYKRTE32,SAFETY-KLEEN (BRIDGEPORT) INC.,RTE. 322 & I-295,BRIDGEPORT,GLOUCESTER,NJ,08014,39.78825,-75.354417,4953,,,,,,562000,,,,,,1399130247000,METHYL TERT-BUTYL ETHER,001634044,YES,NON-PBT,NO,0,NO,R,Pounds,1,1,0,0,0,0,0,0,0,0,0,0,2,0,0,0,0,0,0,0,0,0,0,0,0,0,0,0,0,0,0,0,0,0,0,0,0,0,0,0,0,0,0,0,0,0,0,0,0,0,2,2,0,0,0,0,0,0,0,0,19883,0,19885,0,1.07,SAFETY-KLEEN CORP,053976551
1999,08014SFTYKRTE32,SAFETY-KLEEN (BRIDGEPORT) INC.,RTE. 322 & I-295,BRIDGEPORT,GLOUCESTER,NJ,08014,39.78825,-75.354417,4953,,,,,,562000,,,,,,1399130247048,"HYDROCHLORIC ACID (1995 AND AFTER ""ACID AEROSOLS"" ONLY)",007647010,YES,NON-PBT,NO,0,NO,R,Pounds,0,793,0,0,0,0,0,0,0,0,0,0,793,0,0,0,0,0,0,0,0,0,0,0,0,0,0,0,0,0,0,0,0,0,0,0,0,0,0,0,0,0,0,0,0,0,0,0,0,0,793,793,0,0,0,0,0,0,0,0,2643132,0,2643925,0,1.32,SAFETY-KLEEN CORP,053976551
1999,07105DCCHM49RUT,DELTECH RESIN CO,49 RUTHERFORD ST,NEWARK,ESSEX,NJ,07105,40.712446,-74.139073,2821,,,,,,325510,,,,,,1399130250780,ETHYLBENZENE,000100414,YES,NON-PBT,NO,0,NO,R,Pounds,354,116,0,0,0,0,0,0,0,0,0,0,470,0,0,0,0,0,0,0,0,0,0,0,0,0,0,0,0,0,0,0,0,0,0,0,0,0,0,0,18173,0,18173,0,0,0,1,0,0,1,470,470,0,0,0,0,0,18173,0,0,0,1,18644,0,1.05,NEWCHEM INC,176819753
1999,08066MBLLPNDELA,PAULSBORO REFINED PRODUCTS TERMINAL,N DELAWARE ST,PAULSBORO,GLOUCESTER,NJ,08066,39.842976,-75.248492,5171,,,,,,424710,,,,,,1399130266048,ETHYLBENZENE,000100414,YES,NON-PBT,NO,0,NO,R,Pounds,50,140,0,0,0,0,0,0,0,0,0,0,190,0,0,0,0,0,0,0,0,0,0,0,0,0,0,0,0,0,255,0,0,255,0,0,0,0,0,0,0,0,0,0,0,0,0,0,0,0,445,212,0,0,0,0,0,0,0,0,0,0,212,0,0,VALERO LP,848110701
1999,07036DCKRS1512W,LUBRIZOL CO,1512 W ELIZABETH AVE,LINDEN,UNION,NJ,07036,40.619885,-74.26382,2821,,,,,,325211,,,,,,1399130327190,AMMONIA,007664417,NO,NON-PBT,NO,0,NO,R,Pounds,2,1,0,0,0,0,0,0,0,0,0,0,3,0,144,144,0,0,0,0,0,0,0,0,0,0,0,0,0,0,0,0,0,0,0,0,0,0,0,0,0,0,0,0,8,0,0,0,0,8,3,3,0,0,0,0,0,0,307,0,0,154,464,0,.93,NA,NA
1999,07036DCKRS1512W,LUBRIZOL CO,1512 W ELIZABETH AVE,LINDEN,UNION,NJ,07036,40.619885,-74.26382,2821,,,,,,325211,,,,,,1399130327253,METHYL ACRYLATE,000096333,NO,NON-PBT,NO,0,NO,R,Pounds,239,17,0,0,0,0,0,0,0,0,0,0,256,0,3,3,0,0,0,0,0,0,0,0,0,0,0,0,0,0,0,0,0,0,0,0,0,0,0,0,67,0,67,0,40,0,0,0,0,40,256,256,0,0,0,0,0,67,0,0,0,43,366,0,.93,NA,NA
1999,08854SNCNC1028S,SUNOCO LOGISTICS PISCATAWAY TERMINAL,1028 SHELTON RD,PISCATAWAY,MIDDLESEX,NJ,08854,40.552417,-74.434833,5171,,,,,,424710,,,,,,1399130398011,TOLUENE,000108883,YES,NON-PBT,NO,0,NO,R,Pounds,136,267,0,0,0,0,0,0,0,0,0,0,403,0,0,0,0,0,0,0,0,0,80,0,0,0,0,0,0,0,0,0,0,80,0,0,411,0,0,411,0,0,0,0,0,0,0,0,0,0,483,483,0,0,0,0,0,0,0,411,0,0,894,1,0,SUNOCO PARTNERS MARKETING & TERMINAL LP,064717981
1999,08854SNCNC1028S,SUNOCO LOGISTICS PISCATAWAY TERMINAL,1028 SHELTON RD,PISCATAWAY,MIDDLESEX,NJ,08854,40.552417,-74.434833,5171,,,,,,424710,,,,,,1399130398062,"1,2,4-TRIMETHYLBENZENE",000095636,NO,NON-PBT,NO,0,NO,R,Pounds,37,10,0,0,0,0,0,0,0,0,0,0,47,0,0,0,0,0,0,0,0,0,23,0,0,0,0,0,0,0,0,0,0,23,0,0,116,0,0,116,0,0,0,0,0,0,0,0,0,0,70,70,0,0,0,0,0,0,0,116,0,0,186,0,0,SUNOCO PARTNERS MARKETING & TERMINAL LP,064717981
1999,07036SFTYK1200S,SAFETY-KLEEN SYSTEMS INC,1200 SYLVAN ST,LINDEN,UNION,NJ,07036,40.61418,-74.252845,7389,4953,,,,,325998,,,,,,1399130316247,"N,N-DIMETHYLFORMAMIDE",000068122,YES,NON-PBT,NO,0,YES,R,Pounds,5603,149,0,0,0,0,0,0,0,0,0,0,5752,0,1,1,7,0,0,0,0,0,0,0,0,0,0,0,0,0,69469,0,0,69476,0,0,68,0,0,68,1291198,1376757,2667955,0,62,0,1244642,0,0,1244704,75228,75228,0,0,0,0,0,2667954,210815,68,2830,1244704,4201599,1,110,SAFETY-KLEEN HOLDCO INC,053976551
1999,07036DCKRS1512W,LUBRIZOL CO,1512 W ELIZABETH AVE,LINDEN,UNION,NJ,07036,40.619885,-74.26382,2821,,,,,,325211,,,,,,1399130327455,CUMENE HYDROPEROXIDE,000080159,NO,NON-PBT,NO,0,NO,R,Pounds,0,0,0,0,0,0,0,0,0,0,0,0,0,0,0,0,0,0,0,0,0,0,0,0,0,0,0,0,0,0,0,0,0,0,0,0,0,0,0,0,0,0,0,0,31,0,0,0,0,31,0,0,0,0,0,0,0,0,0,0,0,31,31,0,.93,NA,NA
1999,07064MRDHS750CL,HESS CORP - PORT READING REFINERY,750 CLIFF RD,PORT READING,MIDDLESEX,NJ,07064,40.557528,-74.242444,2911,,,,,,324110,,,,,,1399130372408,"1,3-BUTADIENE",000106990,YES,NON-PBT,NO,0,YES,R,Pounds,4,0,0,0,0,0,0,0,0,0,0,0,4,0,0,0,0,0,0,0,0,0,0,0,0,0,0,0,0,0,0,0,0,0,0,0,0,0,0,0,0,0,0,0,0,0,0,0,0,0,4,4,0,0,0,0,0,0,0,0,99,0,103,0,.99,HESS CORP,006979785
1999,08223BLNGL900NS,BL ENGLAND GENERATING STATIO N,900 N SHORE RD,BEESLEYS POINT,CAPE MAY,NJ,08223,39.291472,-74.636611,4911,,,,,,221112,,,,,,1399130336959,BARIUM COMPOUNDS,N040,NO,NON-PBT,YES,3,NO,R,Pounds,0,2904,0,0,0,0,0,0,0,0,0,0,2904,0,0,0,0,0,0,0,0,0,21633,0,0,0,0,0,0,0,0,1022,0,22655,0,0,0,0,0,0,0,0,0,0,0,0,0,0,0,0,25559,25559,0,0,0,0,0,0,0,0,0,0,25559,0,1.13,ROCKLAND CAPITAL INVESTMENTS,NA
1999,08093CSTLGRTES1,SUNOCO INC,RT 130 & I-295 S,WESTVILLE,GLOUCESTER,NJ,08093,39.876528,-75.157222,2911,,,,,,324110,,,,,,1399130405689,METHYL TERT-BUTYL ETHER,001634044,YES,NON-PBT,NO,0,NO,R,Pounds,24660,32166,53,0,0,0,0,0,0,0,0,0,56879,0,0,0,0,0,0,0,0,0,0,0,0,0,0,0,0,0,0,0,0,0,0,0,0,0,0,0,0,0,0,0,0,0,0,0,0,0,56879,56879,0,0,0,0,0,0,0,0,229188,0,286067,152,1.28,SUNOCO INC,057152217
1999,07072FNTND746GO,FINITE INDUSTRIES INC SUBSIDIARY OF SCAPA  N A,746 GOTHAM PKWY,CARLSTADT,BERGEN,NJ,07072,40.833487,-74.064458,3069,,,,,,322222,,,,,,1399130385471,XYLENE (MIXED ISOMERS),001330207,YES,NON-PBT,NO,0,NO,R,Pounds,240,2140,0,0,0,0,0,0,0,0,0,0,2380,0,0,0,0,0,0,0,0,0,0,0,0,0,0,0,0,0,0,0,0,0,0,0,0,0,0,0,10555,0,10555,0,0,0,0,0,0,0,2380,2380,0,0,0,0,0,10555,0,0,79400,0,92335,0,.98,SCAPA GROUP INC,004071809
1999,07823BSFCRJAMES,BASF CORP,1 JAMES ST,BELVIDERE,WARREN,NJ,07823,40.832194,-75.086111,2851,,,,,,325510,,,,,,1399130448778,ETHYLBENZENE,000100414,YES,NON-PBT,NO,0,NO,R,Pounds,586,395,0,0,0,0,0,0,0,0,0,0,981,0,0,0,0,0,0,0,0,0,0,0,0,0,0,0,0,0,0,0,0,0,0,0,0,0,0,0,0,19649,19649,0,13513,0,0,0,0,13513,981,981,0,0,0,0,0,19649,4800,0,3684,13513,42627,0,.87,BASF CORP,071014385
1999,07823BSFCRJAMES,BASF CORP,1 JAMES ST,BELVIDERE,WARREN,NJ,07823,40.832194,-75.086111,2851,,,,,,325510,,,,,,1399130448828,"1,2,4-TRIMETHYLBENZENE",000095636,NO,NON-PBT,NO,0,NO,R,Pounds,426,287,0,0,0,0,0,0,0,0,0,0,713,0,0,0,0,0,0,0,0,0,0,0,0,0,0,0,0,0,0,0,0,0,0,0,0,0,0,0,0,6210,6210,0,6744,0,0,0,0,6744,713,713,0,0,0,0,0,6210,3081,0,2674,6744,19422,0,.87,BASF CORP,071014385
1999,08862RRTNR225EL,GERDAU AMERISTEEL PERTH AMBOY INC,225 ELM ST,PERTH AMBOY,MIDDLESEX,NJ,08862,40.503556,-74.282556,3312,,,,,,331111,,,,,,1399130478910,LEAD COMPOUNDS,N420,YES,PBT,YES,1,NO,R,Pounds,0,810,0,0,0,0,0,0,0,0,0,0,810,0,0,0,0,0,0,0,0,0,0,0,0,0,0,0,0,0,0,0,0,0,0,323385,0,0,0,323385,0,0,0,0,0,0,0,0,0,0,810,810,0,0,0,0,0,0,0,323385,0,0,324195,0,1.26,GERDAU GROUP,NA
1999,07110HFFMN340KI,HOFFMANN-LA ROCHE INC,340 KINGSLAND ST,NUTLEY,ESSEX,NJ,071101199,40.828444,-74.154194,2833,2834,,,,,325411,,,,,,1399130452865,N-HEXANE,000110543,YES,NON-PBT,NO,0,NO,R,Pounds,83,14545,0,0,0,0,0,0,0,0,0,0,14628,0,13,13,0,0,0,0,0,0,0,0,0,0,0,0,0,0,0,0,0,0,180629,0,2360,0,0,182989,0,0,0,0,13200,0,0,0,0,13200,14628,14628,0,0,0,0,0,0,0,182989,0,13213,210830,0,.97,ROCHE HOLDINGS INC,NA
1999,07110HFFMN340KI,HOFFMANN-LA ROCHE INC,340 KINGSLAND ST,NUTLEY,ESSEX,NJ,071101199,40.828444,-74.154194,2833,2834,,,,,325411,,,,,,1399130452903,BROMOMETHANE,000074839,YES,NON-PBT,NO,0,NO,R,Pounds,0,2019,0,0,0,0,0,0,0,0,0,0,2019,0,0,0,0,0,0,0,0,0,0,0,0,0,0,0,0,0,0,0,0,0,0,0,0,0,0,0,0,0,0,0,0,0,0,0,0,0,2019,2019,0,0,0,0,0,0,0,0,23828,0,25847,0,1.25,ROCHE HOLDINGS INC,NA
1999,07524KRMRC109FI,VOPAK USA INC.,109 FIFTH AVE.,PATERSON,PASSAIC,NJ,07524,40.9355,-74.157898,5169,,,,,,424690,,,,,,1399130456849,MIXTURE,MIXTURE,NO,NON-PBT,NO,0,NO,R,Pounds,0,437,0,0,0,0,0,0,0,0,0,0,437,0,0,0,0,0,0,0,0,0,0,0,0,0,0,0,0,0,0,0,0,0,0,0,0,0,0,0,0,0,0,0,1579,0,0,0,0,1579,437,437,0,0,0,0,0,0,0,0,0,1579,2016,0,0,VOPAK USA INC,911347935
1999,07083SCHRN1011M,SCHERING CORP,1011 MORRIS AVE,UNION,UNION,NJ,07083,40.685333,-74.231472,2834,,,,,,325412,,,,,,1399130432560,TRICHLOROFLUOROMETHANE,000075694,NO,NON-PBT,NO,0,NO,R,Pounds,250,250,0,0,0,0,0,0,0,0,0,0,500,0,0,0,0,0,0,0,0,0,0,0,0,0,0,0,0,0,0,0,0,0,0,0,0,0,0,0,0,30308,30308,0,0,0,0,0,0,0,500,208,0,0,0,0,0,30308,0,0,0,0,30516,0,1.45,SCHERING PLOUGH CORP,054554290
1999,08873MCRST150BE,MICRO STAMPING CORP,140 BELMONT DR,SOMERSET,SOMERSET,NJ,08873,40.540444,-74.538694,3469,,,,,,339112,,,,,,1399130479532,MANGANESE,007439965,YES,NON-PBT,YES,1,NO,R,Pounds,0,0,0,0,0,0,0,0,0,0,0,0,0,0,0,0,0,0,0,0,0,0,0,0,0,0,0,0,0,0,0,0,0,0,0,0,0,0,22655,22655,0,0,0,0,0,0,0,0,0,0,0,0,0,0,0,0,0,0,0,22655,0,0,22655,0,2.12,NA,NA
1999,08002MYCND616HO,MYCONE DENTAL,616 HOLLYWOOD AVE,CHERRY HILL,CAMDEN,NJ,08002,39.935667,-75.039722,2821,,,,,,325211,,,,,,1399130427192,METHANOL,000067561,YES,NON-PBT,NO,0,NO,R,Pounds,25,135,0,0,0,0,0,0,0,0,0,0,160,0,0,0,0,0,0,0,0,0,0,0,0,0,0,0,0,0,0,0,0,0,0,0,0,0,0,0,17108,0,17108,0,0,0,0,0,0,0,160,185,0,0,0,0,0,17108,0,0,0,17310,34603,0,.5,MYCONE DENTAL,014769301
1999,07114TNXFN390AD,TENAX FINISHING PRODUCTS CO,390 ADAMS ST,NEWARK,ESSEX,NJ,07114,40.71859,-74.164414,2851,,,,,,325510,,,,,,1399130373564,CERTAIN GLYCOL ETHERS,N230,YES,NON-PBT,NO,0,NO,R,Pounds,6,79,0,0,0,0,0,0,0,0,0,0,85,0,0,0,0,0,0,0,0,0,0,0,0,0,0,0,0,0,0,0,0,0,0,0,0,0,0,0,0,0,0,0,28,0,0,0,0,28,85,85,0,0,0,0,0,0,0,0,0,28,113,0,.7,NA,NA
1999,08344SHLDLWESTB,SHIELDALLOY METALLURGICAL CORP,W BLVD,NEWFIELD,GLOUCESTER,NJ,083440768,39.54306,-75.02221,3313,,,,,,331112,,,,,,1399130429184,HYDROGEN FLUORIDE,007664393,YES,NON-PBT,NO,0,NO,R,Pounds,0,250,0,0,0,0,0,0,0,0,0,0,250,0,0,0,0,0,0,0,0,0,0,0,0,0,0,0,0,0,0,0,0,0,0,0,0,0,0,0,0,0,0,0,0,0,0,0,0,0,250,202,0,0,0,0,0,0,0,0,338020,0,338222,0,.8,METALLURG INC,001374669
1999,08066MBLLCBILLI,PAULSBORO REFINING CO LLC,800 BILLINGSPORT RD,PAULSBORO,GLOUCESTER,NJ,080661036,39.838222,-75.249474,2911,,,,,,324110,,,,,,1399130527120,HYDROGEN FLUORIDE,007664393,YES,NON-PBT,NO,0,NO,R,Pounds,250,0,0,0,0,0,0,0,0,0,0,0,250,0,0,0,0,0,0,0,0,0,0,0,0,0,0,0,0,0,0,0,0,0,0,0,0,0,0,0,0,0,0,0,0,0,0,0,0,0,250,290,0,0,0,0,0,0,0,0,818630,0,818920,0,1.02,NA,NA
1999,08873MTRLS220CH,MATERIALS TECHNOLOGY INC.,220 CHURCHILL ST.,SOMERSET,SOMERSET,NJ,088750187,40.484788,-74.50375,3497,3471,,,,,331421,,,,,,1399130446255,COPPER,007440508,NO,NON-PBT,YES,1,NO,R,Pounds,0,0,0,0,0,0,0,0,0,0,0,0,0,0,0,0,0,0,0,0,0,0,0,0,0,0,0,0,0,0,0,0,0,0,0,0,0,0,0,0,0,0,0,0,0,0,0,0,0,0,0,0,0,0,0,0,0,0,4257,0,0,0,4257,0,78.9,NA,NA
1999,07036XXN  1400P,CONOCOPHILLIPS CO - BAYWAY REFINERY,1400 PARK AVE,LINDEN,UNION,NJ,07036,40.640135,-74.21888,2911,2911,,,,,324110,,,,,,1399130437027,METHYL TERT-BUTYL ETHER,001634044,YES,NON-PBT,NO,0,NO,R,Pounds,15000,120000,150,0,0,0,0,0,0,0,0,0,135150,0,0,0,0,0,0,0,0,0,0,0,0,0,0,0,0,0,0,0,0,0,0,0,0,0,0,0,0,0,0,0,0,0,0,0,0,0,135150,130000,0,0,0,0,0,0,410000,0,670000,0,1210000,0,.92,CONOCOPHILLIPS,118819478
1999,07407CSTMC30PAU,CUSTOM CHEMICALS CORP,30 PAUL KOHNER PL,ELMWOOD PARK,BERGEN,NJ,07407,40.901389,-74.110972,2851,,,,,,325510,,,,,,1399130407137,ANTIMONY COMPOUNDS,N010,YES,NON-PBT,YES,1,NO,R,Pounds,5,5,5,0,0,0,0,0,0,0,0,0,15,5,0,5,0,0,0,0,0,0,750,0,0,0,0,0,0,0,0,0,1000,1750,0,0,0,0,0,0,0,0,0,0,0,0,0,0,0,0,1770,1760,0,0,0,0,0,0,0,0,0,10,1770,0,5.93,PENN COLOR INC,054711163
1999,08066JHNSN2001A,JOHNSON MATTHEY,2001 NOLTE DR,WEST DEPTFORD,GLOUCESTER,NJ,08066,39.81925,-75.2045,3341,2834,,,,,331492,,,,,,1399130495233,NITRATE COMPOUNDS,N511,NO,NON-PBT,NO,0,NO,R,Pounds,0,0,0,0,0,0,0,0,0,0,0,0,0,0,113537,113537,0,0,0,0,0,0,0,0,0,0,0,0,0,0,0,0,0,0,0,0,0,0,0,0,0,0,0,0,0,0,0,0,0,0,0,0,0,0,0,0,0,0,0,0,0,113537,113537,0,1.02,JOHNSON MATTHEY INC,002326734
1999,07002CSTLLFOOTO,COASTAL OIL OF NEW YORK,FOOT OF E 5TH ST,BAYONNE,HUDSON,NJ,07002,40.651555,-74.118694,5171,,,,,,424710,,,,,,1399130461635,POLYCYCLIC AROMATIC COMPOUNDS,N590,YES,PBT,NO,0,YES,R,Pounds,44,12,0,0,0,0,0,0,0,0,0,0,56,0,0,0,0,0,0,0,0,0,0,0,0,0,0,0,0,0,0,0,0,0,0,0,0,0,0,0,0,0,0,0,0,0,0,0,0,0,56,56,0,0,0,0,0,0,0,0,0,0,56,0,1.57,NA,NA
1999,07932PRCSN306CO,THYSSENKRUPP VDM USA,306 COLUMBIA TURNPIKE,FLORHAM PARK,MORRIS,NJ,07932,40.798667,-74.402778,3399,,,,,,331491,,,,,,1399130592518,COBALT,007440484,YES,NON-PBT,YES,1,YES,R,Pounds,0,78,2,0,0,0,0,0,0,0,0,0,80,0,0,0,0,0,0,0,0,0,0,0,0,0,0,0,0,0,0,0,0,0,0,0,0,0,0,0,0,0,0,0,0,0,0,0,0,0,80,78,0,0,0,0,0,0,158273,0,0,0,158351,0,.88,THYSSENKRUPP,047486113
1999,07008SHLND350RO,ASHLAND DISTRIBUTION CO,350 ROOSEVELT AVE,CARTERET,MIDDLESEX,NJ,07008,40.578611,-74.215278,5169,,,,,,424690,,,,,,1399130497249,"1,2,4-TRIMETHYLBENZENE",000095636,NO,NON-PBT,NO,0,NO,R,Pounds,27,7,0,0,0,0,0,0,0,0,0,0,34,0,0,0,0,0,0,0,0,0,0,0,0,0,0,0,0,0,0,0,0,0,0,0,0,0,0,0,1900,0,1900,0,0,0,0,0,0,0,34,34,0,0,0,0,0,1900,0,0,0,0,1934,0,.91,ASHLAND INC,005003264
1999,07011LMRTC16RIC,LAMART CORP,16 RICHMOND ST,CLIFTON,PASSAIC,NJ,07011,40.889432,-74.160195,3083,,,,,,322222,,,,,,1399130512256,N-HEXANE,000110543,YES,NON-PBT,NO,0,NO,R,Pounds,0,1088,0,0,0,0,0,0,0,0,0,0,1088,0,0,0,0,0,0,0,0,0,0,0,0,0,0,0,0,0,0,0,0,0,0,0,0,0,0,0,0,2607,2607,0,0,0,0,0,0,0,1088,1088,0,0,0,0,0,2607,0,0,20680,0,24375,0,.88,NA,NA
1999,07104WSTRM126PA,W.A.S.TERMINALS CORP,126 PASSAIC ST,NEWARK,ESSEX,NJ,07104,40.757219,-74.165834,5171,,,,,,424710,,,,,,1399130558733,"ISOPROPYL ALCOHOL (MANUFACTURING,STRONG-ACID PROCESS ONLY,NO SUPPLIER)",000067630,NO,NON-PBT,NO,0,NO,R,Pounds,0,168,0,0,0,0,0,0,0,0,0,0,168,0,0,0,0,0,0,0,0,0,0,0,0,0,0,0,0,0,0,0,0,0,0,0,0,0,0,0,0,0,0,0,0,0,0,0,0,0,168,168,0,0,0,0,0,0,0,0,0,0,168,0,0,NA,NA
1999,07065MRCKC126EL,MERCH SHARP & DOHME CORP,126 E LINCOLN AVE,RAHWAY,UNION,NJ,070652000,40.609333,-74.258806,2833,,,,,,325412,,,,,,1399130541182,ACETONITRILE,000075058,YES,NON-PBT,NO,0,NO,R,Pounds,620,4460,0,0,0,0,0,0,0,0,0,0,5080,0,27170,27170,0,0,0,0,0,0,0,0,0,0,0,0,0,0,0,0,0,0,3280,0,0,0,0,3280,0,282770,282770,0,0,0,0,0,0,0,5080,5080,0,0,0,0,0,282770,0,3280,4,27170,318304,0,1.25,MERCK & CO INC,054554290
1999,08030PRDCT410JE,PRC-DESOTO INTERNATIONAL INC,410 JERSEY AVE,GLOUCESTER CITY,CAMDEN,NJ,08030,39.893217,-75.126384,2891,,,,,,325520,,,,,,1399130562770,POLYCHLORINATED ALKANES,N583,NO,NON-PBT,NO,0,NO,R,Pounds,0,0,0,0,0,0,0,0,0,0,0,0,0,0,0,0,0,0,0,0,0,0,0,0,0,0,0,0,0,0,0,0,0,0,0,0,0,0,0,0,5981,0,5981,0,0,0,0,0,0,0,0,0,0,0,0,0,0,5981,0,0,0,0,5981,0,1.43,PPG INDUSTRIES INC,001344803
1999,08057MRCNB105WG,AMERICAN BILTRITE INC,105 WHITTENDALE DR,MOORESTOWN,BURLINGTON,NJ,08057,39.975153,-74.974192,2672,,,,,,322222,,,,,,1399130598269,TOLUENE,000108883,YES,NON-PBT,NO,0,NO,R,Pounds,0,581,0,0,0,0,0,0,0,0,0,0,581,0,0,0,0,0,0,0,0,0,0,0,0,0,0,0,0,0,0,0,0,0,0,0,0,0,0,0,0,0,0,0,0,0,0,0,0,0,581,581,0,0,0,0,0,0,0,0,0,0,581,0,3.46,NA,NA
1999,07509FBRCL2412V,FABRICOLOR MFG. CORP.,24 1/2 VAN HOUTEN ST.,PATERSON,PASSAIC,NJ,07505,40.918196,-74.175259,2865,,,,,,325100,,,,,,1399130490319,CHROMIUM COMPOUNDS(EXCEPT CHROMITE ORE MINED IN THE TRANSVAAL REGION),N090,YES,NON-PBT,YES,1,NO,R,Pounds,1,1,0,0,0,0,0,0,0,0,0,0,2,273,0,273,0,0,0,0,0,0,0,0,0,0,0,0,0,0,0,0,0,0,0,0,0,0,0,0,0,0,0,0,0,0,0,0,0,0,275,276,0,0,0,0,0,0,116,0,0,0,392,0,1.22,FABRICOLOR INC,062044326
1999,08818MBLCHRT27A,MOBIL CHEMICAL CO SYNTHETICS DIV,2195 RT 27 AT VINEYARD RD,EDISON,MIDDLESEX,NJ,088183140,40.534167,-74.381806,2821,,,,,,325211,,,,,,1399130589233,ETHYLENE,000074851,NO,NON-PBT,NO,0,NO,R,Pounds,3400,3400,0,0,0,0,0,0,0,0,0,0,6800,0,0,0,0,0,0,0,0,0,0,0,0,0,0,0,0,0,0,0,0,0,0,0,0,0,0,0,0,0,0,0,0,0,0,0,0,0,6800,6800,0,0,0,0,0,0,0,0,0,0,6800,0,1.06,EXXON MOBIL CORP,001213214
1999,08071DCRTN430AN,ITW DECORATING RESOURCES,420 ANDBRO DR.,PITMAN,GLOUCESTER,NJ,080711251,39.741966,-75.123432,2754,,,,,,323111,,,,,,1399130555396,METHYL ETHYL KETONE,000078933,NO,NON-PBT,NO,0,NO,R,Pounds,0,1107,0,0,0,0,0,0,0,0,0,0,1107,0,0,0,0,0,0,0,0,0,0,0,0,0,0,0,0,0,0,0,0,0,0,0,0,0,0,0,0,0,0,0,1982,0,0,0,0,1982,1107,0,0,0,0,0,0,0,0,0,0,5766,5766,0,.78,ILLINOIS TOOL WORKS,148411531
1999,07095LCNBL11CRA,GENTEK BUILDING PRODUCTS,11 CRAGWOOD RD,AVENEL,MIDDLESEX,NJ,07001,40.595978,-74.254459,3479,3444,,,,,332812,,,,,,1399130565169,METHYL ISOBUTYL KETONE,000108101,YES,NON-PBT,NO,0,NO,R,Pounds,1184,1862,0,0,0,0,0,0,0,0,0,0,3046,0,0,0,0,0,0,0,0,0,0,0,0,0,0,0,0,0,0,0,0,0,0,0,0,0,0,0,1043,0,1043,0,0,6,0,0,0,6,3046,3046,0,0,0,0,0,1043,0,0,35373,6,39468,0,1.19,ASSOCIATED MATERIALS INC,107301319
1999,08818MBLCHRT27A,MOBIL CHEMICAL CO SYNTHETICS DIV,2195 RT 27 AT VINEYARD RD,EDISON,MIDDLESEX,NJ,088183140,40.534167,-74.381806,2821,,,,,,325211,,,,,,1399130589258,N-BUTYL ALCOHOL,000071363,NO,NON-PBT,NO,0,NO,R,Pounds,0,0,0,0,0,0,0,0,0,0,0,0,0,0,0,0,0,0,0,0,0,0,0,0,0,0,0,0,0,0,0,0,0,0,0,0,0,0,0,0,0,0,0,0,5,0,0,0,0,5,0,0,0,0,0,0,0,0,0,0,0,7,7,0,.5,EXXON MOBIL CORP,001213214
1999,08901NWBRN596JE,NEW BRUNSWICK PLATING INC,596 JERSEY AVE,NEW BRUNSWICK,MIDDLESEX,NJ,08901,40.477945,-74.470478,3471,,,,,,332813,,,,,,1399130553492,CYANIDE COMPOUNDS,N106,YES,NON-PBT,NO,0,NO,R,Pounds,1,1,0,0,0,0,0,0,0,0,0,0,2,0,1,1,0,0,0,0,0,0,0,0,0,0,0,0,0,0,0,0,0,0,0,0,0,0,0,0,0,0,0,0,0,0,0,0,0,0,2,1,0,0,0,0,0,0,0,0,526,0,527,0,1.05,NA,NA
1999,08901NWBRN596JE,NEW BRUNSWICK PLATING INC,596 JERSEY AVE,NEW BRUNSWICK,MIDDLESEX,NJ,08901,40.477945,-74.470478,3471,,,,,,332813,,,,,,1399130553530,COPPER COMPOUNDS,N100,NO,NON-PBT,YES,1,NO,R,Pounds,0,0,0,0,0,0,0,0,0,0,0,0,0,5,0,5,0,0,0,0,0,0,0,0,0,0,0,0,30,0,0,0,0,30,0,0,0,0,0,0,0,0,0,0,0,0,0,0,0,0,35,43,0,0,0,0,0,0,0,0,0,0,43,0,1.05,NA,NA
1999,08052CVCSP2980R,CVC SPECIALTY CHEMICALS INC,2980 RT 73 N,MAPLE SHADE,BURLINGTON,NJ,08052,39.95898,-74.98859,2869,,,,,,325211,,,,,,1399130534035,METHANOL,000067561,YES,NON-PBT,NO,0,NO,R,Pounds,0,5,0,0,0,0,0,0,0,0,0,0,5,0,0,0,5400,0,0,0,0,0,0,0,0,0,0,0,0,0,0,0,0,5400,0,0,0,0,0,0,0,0,0,0,0,0,0,0,0,0,5405,5400,0,0,0,0,0,0,0,0,0,0,5400,0,.45,EMERALD PERFORMANCE MATERIALS LLC,619385586
1999,08052CVCSP2980R,CVC SPECIALTY CHEMICALS INC,2980 RT 73 N,MAPLE SHADE,BURLINGTON,NJ,08052,39.95898,-74.98859,2869,,,,,,325211,,,,,,1399130534074,DIMETHYLAMINE,000124403,NO,NON-PBT,NO,0,NO,R,Pounds,0,0,0,0,0,0,0,0,0,0,0,0,0,0,750,750,0,0,0,0,0,0,0,0,0,0,0,0,0,0,0,0,0,0,0,0,0,0,0,0,0,0,0,0,0,0,0,0,0,0,0,668,0,0,0,0,0,0,0,0,0,0,668,0,1.42,EMERALD PERFORMANCE MATERIALS LLC,619385586
1999,07033SYNRY209NM,SYNRAY CORP,209 N MICHIGAN AVE,KENILWORTH,UNION,NJ,07033,40.68091,-74.288354,2821,,,,,,325211,,,,,,1399130585692,TOLUENE,000108883,YES,NON-PBT,NO,0,NO,R,Pounds,609,2435,0,0,0,0,0,0,0,0,0,0,3044,0,0,0,0,0,0,0,0,0,0,0,0,0,0,0,0,0,0,0,16280,16280,0,0,0,0,0,0,0,0,0,0,0,0,0,0,0,0,19324,3044,0,0,0,0,0,0,0,16280,0,0,19324,0,.67,NA,NA
1999,08902PRMCLUSROU,PERMACEL,US RT 1,NORTH BRUNSWICK,MIDDLESEX,NJ,08902,40.467922,-74.440209,2672,,,,,,322222,,,,,,1399130602372,ZINC COMPOUNDS,N982,NO,NON-PBT,YES,1,NO,R,Pounds,0,0,0,0,0,0,0,0,0,0,0,0,0,0,0,0,0,0,0,0,0,0,1013,0,0,0,0,0,0,0,0,0,0,1013,0,0,0,0,0,0,0,0,0,0,0,0,0,0,0,0,1013,0,0,0,0,0,0,987,0,0,0,26,1013,0,.88,NITTO AMERICAS,NA
1999,08876FSHRS755RT,FISHER SCIENTIFIC CO LLC,755 RT 202,BRIDGEWATER,SOMERSET,NJ,08807,40.571703,-74.664815,5169,,,,,,424690,,,,,,1399130606371,N-HEXANE,000110543,YES,NON-PBT,NO,0,NO,R,Pounds,0,60,0,0,0,0,0,0,0,0,0,0,60,0,0,0,0,0,0,0,0,0,0,0,0,0,0,0,0,0,0,0,0,0,0,0,0,0,0,0,19444,0,19444,0,75,0,0,0,0,75,60,60,0,0,0,0,0,19444,0,0,908,75,20487,0,1.16,FISHER SCIENTIFIC CO LLC,004321519
1999,08876FSHRS755RT,FISHER SCIENTIFIC CO LLC,755 RT 202,BRIDGEWATER,SOMERSET,NJ,08807,40.571703,-74.664815,5169,,,,,,424690,,,,,,1399130606419,ETHYLENE GLYCOL,000107211,YES,NON-PBT,NO,0,NO,R,Pounds,0,2,0,0,0,0,0,0,0,0,0,0,2,0,0,0,0,0,0,0,0,0,0,0,0,0,0,0,0,0,0,0,0,0,0,0,0,0,0,0,600,0,600,0,325,0,0,0,0,325,2,2,0,0,0,0,0,600,0,0,0,325,927,0,.73,FISHER SCIENTIFIC CO LLC,004321519
1999,08096GLFLL920KI,GULF OIL LP WOODBURY TERMINAL,920 KINGS HWY,THOROFARE,GLOUCESTER,NJ,08096,39.822778,-75.177778,5171,,,,,,424710,,,,,,1399130636931,NAPHTHALENE,000091203,YES,NON-PBT,NO,0,NO,R,Pounds,5765,3172,250,0,0,0,0,0,0,0,0,0,9187,0,0,0,0,0,0,0,0,0,0,0,0,0,0,0,0,0,0,0,0,0,0,0,0,0,0,0,0,0,0,0,0,0,0,0,0,0,9187,8950,0,0,0,0,0,0,0,0,0,0,8950,0,1.02,GULF OIL LP,147037154
1999,07105GTTYT86DOR,GETTY TERMINALS CORP,86 DOREMUS AVE,NEWARK,ESSEX,NJ,071054805,40.729028,-74.120333,5171,,,,,,424710,,,,,,1399130548567,N-HEXANE,000110543,YES,NON-PBT,NO,0,NO,R,Pounds,274,203,1,0,0,0,0,0,0,0,0,0,478,0,0,0,0,0,0,0,0,0,0,0,0,0,0,0,0,0,0,0,0,0,0,0,0,0,0,0,0,0,0,0,0,0,0,0,0,0,478,478,0,0,0,0,0,0,0,0,13028,0,13506,0,1.1,GETTY PETROLEUM MARKETING INC,945075844
1999,08066SVWLC4PARA,NUSTAR ASPHALT REFINING LLC,4 PARADISE RD,PAULSBORO,GLOUCESTER,NJ,08066,39.840932,-75.226205,2911,,,,,,324110,,,,,,1399130556145,BENZENE,000071432,YES,NON-PBT,NO,0,YES,R,Pounds,265,12,0,0,0,0,0,0,0,0,0,0,277,0,54,54,0,0,0,0,0,0,0,0,0,0,0,0,0,0,0,0,0,0,0,0,0,0,0,0,0,0,0,0,0,0,0,0,0,0,277,277,0,0,0,0,0,0,0,0,1078,54,1409,0,.82,NUSTAR ENERGY LP,848110701
1999,08854CLRTP145BA,CYBERTECH POLYMERS,145 BAEKELAND AVE,PISCATAWAY,MIDDLESEX,NJ,08854,40.560146,-74.509686,3087,,,,,,325991,,,,,,1399130595756,ANTIMONY,007440360,YES,NON-PBT,YES,1,NO,R,Pounds,0,0,0,0,0,0,0,0,0,0,0,0,0,0,0,0,0,0,0,0,0,0,0,0,0,0,0,0,0,0,0,0,0,0,0,0,0,0,0,0,0,0,0,0,0,0,0,0,0,0,0,0,0,0,0,0,0,0,0,0,0,0,0,0,1.11,TEKNI-PLEX,042023333
1999,08903DLCRM760JE,JOHNSON CONTROLS BATTERY GROUP INC.,760 JERSEY AVE,NEW BRUNSWICK,MIDDLESEX,NJ,08901,40.472584,-74.473828,3691,,,,,,335912,,,,,,1399130603210,"SULFURIC ACID (1994 AND AFTER ""ACID AEROSOLS"" ONLY)",007664939,NO,NON-PBT,NO,0,NO,R,Pounds,0,6864,0,0,0,0,0,0,0,0,0,0,6864,0,0,0,0,0,0,0,0,0,0,0,0,0,0,0,0,0,0,0,0,0,0,0,0,0,0,0,0,0,0,0,0,0,0,0,0,0,6864,6900,0,0,0,0,0,0,0,0,62000,0,68900,0,1.13,JOHNSON CONTROLS INC,NA
1999,08518DCFBR801WF,DC FABRICATORS INC,801 W FRONT ST,FLORENCE,BURLINGTON,NJ,08518,40.12444,-74.8166,3585,,,,,,333415,,,,,,1399130552526,CHROMIUM,007440473,YES,NON-PBT,YES,1,YES,R,Pounds,10,0,0,0,0,0,0,0,0,0,0,0,10,0,0,0,0,0,0,0,0,0,0,0,0,0,0,0,0,0,0,0,0,0,0,0,0,0,0,0,0,0,0,0,0,0,0,0,0,0,10,476,0,0,0,0,0,0,0,627,0,0,1103,0,0,NA,NA
1999,07072RNDLP701TW,RANDOLPH PRODUCTS CO,701 12TH ST,CARLSTADT,BERGEN,NJ,07072,40.83392,-74.08663,2851,,,,,,325510,,,,,,1399130582657,TOLUENE,000108883,YES,NON-PBT,NO,0,NO,R,Pounds,1713,250,0,0,0,0,0,0,0,0,0,0,1963,0,0,0,0,0,0,0,0,0,0,0,0,0,0,0,0,0,0,0,0,0,0,0,0,0,0,0,19110,0,19110,0,0,0,0,0,0,0,1963,1713,0,0,0,0,0,19100,2500,0,0,0,23313,0,1.07,C & C VENTURES LLC,002003846
1999,07032SWWST115JA,CLEAN EARTH OF NORTH JERSEY INC,105 JACOBUS AVE,SOUTH KEARNY,HUDSON,NJ,07032,40.738726,-74.112656,4953,,,,,,562211,,,,,,1399130577152,LEAD COMPOUNDS,N420,YES,PBT,YES,1,NO,R,Pounds,60,0,21,0,0,0,0,0,0,0,0,0,81,13,0,13,0,1250,0,0,0,0,428168,0,0,0,0,0,0,0,0,0,0,429418,0,0,0,0,0,0,0,0,0,0,0,0,0,0,0,0,429512,443000,0,0,0,0,0,0,0,14000,424100,4900,886000,0,0,CLEAN EARTH INC,858581903
1999,08872NWJRSNORTH,GERDAU AMERISTEEL SAYREVILLE INC,N CROSSMAN RD,SAYREVILLE,MIDDLESEX,NJ,088710249,40.481056,-74.320472,3312,,,,,,331111,,,,,,1399130597711,MANGANESE,007439965,YES,NON-PBT,YES,1,NO,R,Pounds,0,799,0,0,0,0,0,0,0,0,0,0,799,0,0,0,0,0,0,0,0,0,0,0,0,0,0,0,0,0,0,0,0,0,0,507184,0,0,0,507184,0,0,0,0,0,0,0,0,0,0,799,799,0,0,0,0,0,0,0,507184,0,0,507983,0,1.13,GERDAU GROUP,NA
1999,07001TRMTR36MIL,PRIDE SOLVENTS & CHEMICAL CO OF NJ,36 MILEED WAY,AVENEL,MIDDLESEX,NJ,07001,40.597643,-74.253882,5169,,,,,,339999,,,,,,1399131094928,TOLUENE,000108883,YES,NON-PBT,NO,0,NO,A,Pounds,0,0,0,0,0,0,0,0,0,0,0,0,0,0,0,0,0,0,0,0,0,0,0,0,0,0,0,0,0,0,0,0,0,0,0,0,0,0,0,0,0,0,0,0,0,0,0,0,0,0,0,0,0,0,0,0,0,0,0,0,0,0,0,0,,PRIDE SOLVENTS & CHEMICAL CO,NA
1999,08846MRSLN125FA,VEOLIA ES TECHNICAL SOLUTIONS LLC,125 FACTORY LN,MIDDLESEX,MIDDLESEX,NJ,08846,40.560538,-74.520639,7389,,,,,,325998,,,,,,1399130643657,XYLENE (MIXED ISOMERS),001330207,YES,NON-PBT,NO,0,NO,R,Pounds,80,162,0,0,0,0,0,0,0,0,0,0,242,0,1,1,0,0,0,0,0,0,0,0,0,0,0,0,0,0,0,0,0,0,0,0,0,0,0,0,3819911,0,3819911,0,188463,0,40851,0,0,229314,242,6657,0,0,0,0,0,4009854,1305829,0,0,2,5322342,25,0,VEOLIA ENVIRONMENTAL SERVICES,NA
1999,08846MRSLN125FA,VEOLIA ES TECHNICAL SOLUTIONS LLC,125 FACTORY LN,MIDDLESEX,MIDDLESEX,NJ,08846,40.560538,-74.520639,7389,,,,,,325000,,,,,,1399130643733,FORMALDEHYDE,000050000,YES,NON-PBT,NO,0,YES,R,Pounds,3,3,0,0,0,0,0,0,0,0,0,0,6,0,0,0,0,0,0,0,0,0,0,0,0,0,0,0,0,0,0,0,0,0,0,0,0,0,0,0,20209,0,20209,0,997,0,50862,0,0,51859,6,113,0,0,0,0,0,21219,369,0,0,0,21701,0,0,VEOLIA ENVIRONMENTAL SERVICES,NA
1999,08902RSQBBONESQ,E R SQUIBB & SONS LLC,ONE SQUIBB DR,NORTH BRUNSWICK,MIDDLESEX,NJ,08902,40.473889,-74.445278,2834,,,,,,325412,,,,,,1399130647353,DICHLOROMETHANE,000075092,YES,NON-PBT,NO,0,YES,R,Pounds,750,250,0,0,0,0,0,0,0,0,0,0,1000,0,250,250,0,0,0,0,0,0,0,0,0,0,0,0,0,0,0,0,0,0,0,0,0,0,0,0,41275,0,41275,0,500,0,0,0,0,500,1000,1050,0,0,0,0,0,40900,0,0,2050,400,44400,0,1,BRISTOL-MYERS SQUIBB CO,001288497
1999,07071SKCRP201PO,SIKA CORP,201 POLITO AVE,LYNDHURST,BERGEN,NJ,07071,40.804722,-74.109444,2891,,,,,,325520,,,,,,1399130616853,XYLENE (MIXED ISOMERS),001330207,YES,NON-PBT,NO,0,NO,R,Pounds,320,3402,0,0,0,0,0,0,0,0,0,0,3722,0,0,0,0,0,0,0,0,0,59136,0,0,0,0,0,0,0,0,0,0,59136,0,0,0,0,0,0,222485,0,222485,0,0,0,0,0,0,0,62858,62879,0,0,0,0,0,163328,0,0,0,0,226207,0,1.17,SIKA CORP,NA
1999,07083NTRNT2270M,INTERNATIONAL PAINT LLC,2270 MORRIS AVE,UNION,UNION,NJ,07083,40.698071,-74.284097,2851,,,,,,325510,,,,,,1399130616915,N-BUTYL ALCOHOL,000071363,NO,NON-PBT,NO,0,NO,R,Pounds,5,250,0,0,0,0,0,0,0,0,0,0,255,0,0,0,0,0,0,0,0,0,0,0,0,0,0,0,0,0,0,0,0,0,6300,0,0,0,0,6300,0,0,0,0,0,1100,0,0,0,1100,255,220,0,0,0,0,0,0,0,0,0,7400,7620,0,1.14,AKZO NOBEL NV,062999347
1999,07055BRTLP61WIL,BARTLO PACKAGING INC,61 WILLETT ST,PASSAIC,PASSAIC,NJ,07055,40.855248,-74.141504,2879,,,,,,325320,,,,,,1399131007332,THIOPHANATE-METHYL,023564058,NO,NON-PBT,NO,0,NO,A,Pounds,0,0,0,0,0,0,0,0,0,0,0,0,0,0,0,0,0,0,0,0,0,0,0,0,0,0,0,0,0,0,0,0,0,0,0,0,0,0,0,0,0,0,0,0,0,0,0,0,0,0,0,0,0,0,0,0,0,0,0,0,0,0,0,0,,NA,NA
1999,07055BRTLP61WIL,BARTLO PACKAGING INC,61 WILLETT ST,PASSAIC,PASSAIC,NJ,07055,40.855248,-74.141504,2879,,,,,,325320,,,,,,1399131007395,DIFLUBENZURON,035367385,NO,NON-PBT,NO,0,NO,A,Pounds,0,0,0,0,0,0,0,0,0,0,0,0,0,0,0,0,0,0,0,0,0,0,0,0,0,0,0,0,0,0,0,0,0,0,0,0,0,0,0,0,0,0,0,0,0,0,0,0,0,0,0,0,0,0,0,0,0,0,0,0,0,0,0,0,,NA,NA
1999,07055BRTLP61WIL,BARTLO PACKAGING INC,61 WILLETT ST,PASSAIC,PASSAIC,NJ,07055,40.855248,-74.141504,2879,,,,,,325320,,,,,,1399131007460,MANEB,012427382,NO,NON-PBT,YES,2,NO,A,Pounds,0,0,0,0,0,0,0,0,0,0,0,0,0,0,0,0,0,0,0,0,0,0,0,0,0,0,0,0,0,0,0,0,0,0,0,0,0,0,0,0,0,0,0,0,0,0,0,0,0,0,0,0,0,0,0,0,0,0,0,0,0,0,0,0,,NA,NA
1999,07823HFFMN206RO,DSM NUTRITIONAL PRODUCTS LLC,205 MACKS ISLAND DR,BELVIDERE,WARREN,NJ,078231113,40.843611,-75.066389,2833,2834,,,,,325411,,,,,,1399131075095,FORMIC ACID,000064186,NO,NON-PBT,NO,0,NO,A,Pounds,0,0,0,0,0,0,0,0,0,0,0,0,0,0,0,0,0,0,0,0,0,0,0,0,0,0,0,0,0,0,0,0,0,0,0,0,0,0,0,0,0,0,0,0,0,0,0,0,0,0,0,0,0,0,0,0,0,0,0,0,0,0,0,0,,KONINKLIJKE DSM NV,NA
1999,07083NTRNT2270M,INTERNATIONAL PAINT LLC,2270 MORRIS AVE,UNION,UNION,NJ,07083,40.698071,-74.284097,2851,,,,,,325510,,,,,,1399130617095,M-XYLENE,000108383,YES,NON-PBT,NO,0,NO,R,Pounds,5,5,0,0,0,0,0,0,0,0,0,0,10,0,0,0,0,0,0,0,0,0,0,0,0,0,0,0,0,0,0,0,0,0,250,0,0,0,0,250,0,0,0,0,0,250,0,0,0,250,10,15,0,0,0,0,0,0,0,0,0,530,545,0,0,AKZO NOBEL NV,062999347
1999,08817KZCHMMEADO,EQUISTAR CHEMICALS LP,340 MEADOW RD,EDISON,MIDDLESEX,NJ,08817,40.491347,-74.384256,2819,,,,,,325188,,,,,,1399130669878,CHLOROETHANE,000075003,YES,NON-PBT,NO,0,NO,R,Pounds,0,9449,0,0,0,0,0,0,0,0,0,0,9449,0,0,0,298,0,0,0,0,0,0,0,0,0,0,0,0,0,0,0,0,298,3077,0,32,0,0,3109,0,0,0,0,69019,0,0,0,0,69019,9747,9449,0,0,0,0,0,0,0,3109,0,69317,81875,0,1.14,LYONDELLBASELL INDUSTRIES,103746855
1999,07026PRMXP65RIV,PRIMEX PLASTICS CORP.,65 RIVER DR.,GARFIELD,BERGEN,NJ,070260276,40.863901,-74.104332,3081,,,,,,326113,,,,,,1399131081414,ZINC COMPOUNDS,N982,NO,NON-PBT,YES,1,NO,A,Pounds,0,0,0,0,0,0,0,0,0,0,0,0,0,0,0,0,0,0,0,0,0,0,0,0,0,0,0,0,0,0,0,0,0,0,0,0,0,0,0,0,0,0,0,0,0,0,0,0,0,0,0,0,0,0,0,0,0,0,0,0,0,0,0,0,,ICC INDUSTRIES INC,046177341
1999,08846MRSLN125FA,VEOLIA ES TECHNICAL SOLUTIONS LLC,125 FACTORY LN,MIDDLESEX,MIDDLESEX,NJ,08846,40.560538,-74.520639,7389,,,,,,325998,,,,,,1399130643861,N-BUTYL ALCOHOL,000071363,NO,NON-PBT,NO,0,NO,R,Pounds,1,1,0,0,0,0,0,0,0,0,0,0,2,0,0,0,0,0,0,0,0,0,0,0,0,0,0,0,0,0,0,0,0,0,0,0,0,0,0,0,109921,0,109921,0,5422,0,7384,0,0,12806,2,479,0,0,0,0,0,115366,22559,0,0,0,138404,0,0,VEOLIA ENVIRONMENTAL SERVICES,NA
1999,07064MRDHS750CL,HESS CORP - PORT READING REFINERY,750 CLIFF RD,PORT READING,MIDDLESEX,NJ,07064,40.557528,-74.242444,2911,,,,,,324110,,,,,,1399130694096,ETHYLBENZENE,000100414,YES,NON-PBT,NO,0,NO,R,Pounds,101,221,0,0,0,0,0,0,0,0,0,0,322,0,0,0,0,0,0,0,0,0,0,0,0,0,0,0,0,0,0,0,0,0,0,0,0,0,0,0,0,0,0,0,0,0,0,0,0,0,322,322,0,0,0,0,0,0,0,0,0,0,322,0,1,HESS CORP,006979785
1999,08861MRDHSSMITH,HESS CORP FIRST RESERVE TERMINAL,SMITH ST & CONVERY BLVD,PERTH AMBOY,MIDDLESEX,NJ,08861,40.511556,-74.293889,5171,,,,,,424710,,,,,,1399130694146,POLYCYCLIC AROMATIC COMPOUNDS,N590,YES,PBT,NO,0,YES,R,Pounds,0,14,0,0,0,0,0,0,0,0,0,0,14,0,0,0,0,0,0,0,0,0,0,0,0,0,0,0,0,0,0,0,0,0,0,0,0,0,0,0,0,0,0,0,0,0,0,0,0,0,14,14,0,0,0,0,0,0,0,0,0,0,14,0,0,HESS CORP,006979785
1999,08831BSFCR1065C,BASF CORP,1065 CRANBURY & S RIVER RD,JAMESBURG,MIDDLESEX,NJ,08831,40.3575,-74.472778,2821,,,,,,325211,,,,,,1399131000820,BENZOYL PEROXIDE,000094360,NO,NON-PBT,NO,0,NO,A,Pounds,0,0,0,0,0,0,0,0,0,0,0,0,0,0,0,0,0,0,0,0,0,0,0,0,0,0,0,0,0,0,0,0,0,0,0,0,0,0,0,0,0,0,0,0,0,0,0,0,0,0,0,0,0,0,0,0,0,0,0,0,0,0,0,0,,BASF CORP,071014385
1999,07105LLNCC30932,ALLIANCE CHEMICAL INC.,309-327 AVE. P,NEWARK,ESSEX,NJ,07105,40.724167,-74.131389,2865,,,,,,325100,,,,,,1399131016560,NITRIC ACID,007697372,NO,NON-PBT,NO,0,NO,A,Pounds,0,0,0,0,0,0,0,0,0,0,0,0,0,0,0,0,0,0,0,0,0,0,0,0,0,0,0,0,0,0,0,0,0,0,0,0,0,0,0,0,0,0,0,0,0,0,0,0,0,0,0,0,0,0,0,0,0,0,0,0,0,0,0,0,,PFISTER CHEMICAL INC,001293216
1999,07205CDNCR171CE,ECD INC,171 CENTRAL AVE,HILLSIDE,UNION,NJ,07205,40.695475,-74.223748,3315,,,,,,331222,,,,,,1399130686633,CHROMIUM,007440473,YES,NON-PBT,YES,1,YES,R,Pounds,0,0,0,0,0,0,0,0,0,0,0,0,0,18,0,18,0,0,0,0,0,0,1400,0,0,0,0,0,0,0,0,0,0,1400,0,0,0,0,3502,3502,0,0,0,0,0,0,0,0,0,0,1418,1418,0,0,0,0,0,0,0,3502,0,0,4920,0,.82,NA,NA
1999,08818WCHMC2170H,ELECTROLUX HOME PRODUCTS,2170 HIGHWAY 27,EDISON,MIDDLESEX,NJ,08818,40.529536,-74.381572,3585,,,,,,333415,,,,,,1399131026852,PROPYLENE,000115071,NO,NON-PBT,NO,0,NO,A,Pounds,0,0,0,0,0,0,0,0,0,0,0,0,0,0,0,0,0,0,0,0,0,0,0,0,0,0,0,0,0,0,0,0,0,0,0,0,0,0,0,0,0,0,0,0,0,0,0,0,0,0,0,0,0,0,0,0,0,0,0,0,0,0,0,0,,ELECTROLUX NORTH AMERICAN INC,NA
1999,08816MNCND5JOAN,MON-ECO INDUSTRIES INC,5 JOANNA CT,EAST BRUNSWICK,MIDDLESEX,NJ,08816,40.445995,-74.403691,2891,,,,,,325520,,,,,,1399131026989,TRICHLOROETHYLENE,000079016,YES,NON-PBT,NO,0,YES,A,Pounds,0,0,0,0,0,0,0,0,0,0,0,0,0,0,0,0,0,0,0,0,0,0,0,0,0,0,0,0,0,0,0,0,0,0,0,0,0,0,0,0,0,0,0,0,0,0,0,0,0,0,0,0,0,0,0,0,0,0,0,0,0,0,0,0,,NA,NA
1999,08648MTLLT6LITH,B-WAY PACKAGING INC,6 LITHO RD,TRENTON,MERCER,NJ,08648,40.271645,-74.707656,3479,,,,,,332812,,,,,,1399130623287,CERTAIN GLYCOL ETHERS,N230,YES,NON-PBT,NO,0,NO,R,Pounds,11041,27603,0,0,0,0,0,0,0,0,0,0,38644,0,0,0,0,0,0,0,0,0,0,0,0,0,0,0,0,0,0,0,0,0,0,0,0,0,0,0,0,63427,63427,0,0,0,0,0,0,0,38644,38644,0,0,0,0,0,63427,0,0,524453,0,626524,0,1.21,BWAY HOLDING CO,809993520
1999,08869RTHDGROUTE,ORTHO-CLINICAL DIAGNOSTICS,1001 US RT 202,RARITAN,SOMERSET,NJ,08869,40.572486,-74.649095,2835,,,,,,325413,,,,,,1399130630849,METHANOL,000067561,YES,NON-PBT,NO,0,NO,R,Pounds,130,3135,0,0,0,0,0,0,0,0,0,0,3265,0,250,250,0,0,0,0,0,0,0,0,0,0,0,0,0,0,0,0,0,0,107102,0,0,0,0,107102,0,0,0,0,0,0,0,0,0,0,3265,3280,0,0,0,0,0,0,0,107102,0,0,110382,0,1.05,JOHNSON & JOHNSON INC,001307081
1999,08066PLSBRUNIVE,PAULSBORO PACKAGING INC.,301 MANTUA AVE,PAULSBORO,GLOUCESTER,NJ,08066,39.843486,-75.232812,2899,,,,,,325998,,,,,,1399131008157,ZINC COMPOUNDS,N982,NO,NON-PBT,YES,1,NO,A,Pounds,0,0,0,0,0,0,0,0,0,0,0,0,0,0,0,0,0,0,0,0,0,0,0,0,0,0,0,0,0,0,0,0,0,0,0,0,0,0,0,0,0,0,0,0,0,0,0,0,0,0,0,0,0,0,0,0,0,0,0,0,0,0,0,0,,THE CLOROX CO,009138033
1999,08876FSHRS755RT,FISHER SCIENTIFIC CO LLC,755 RT 202,BRIDGEWATER,SOMERSET,NJ,08807,40.571703,-74.664815,5169,,,,,,424690,,,,,,1399130606320,CHLOROFORM,000067663,YES,NON-PBT,NO,0,YES,R,Pounds,1,32,0,0,0,0,0,0,0,0,0,0,33,0,123,123,0,0,0,0,0,0,0,0,0,0,0,0,0,0,0,0,0,0,0,0,0,0,0,0,3903,0,3903,0,169,0,97,0,0,266,33,33,0,0,0,0,0,3903,0,0,696,266,4898,0,1.14,FISHER SCIENTIFIC CO LLC,004321519
1999,07105LLNCC30932,ALLIANCE CHEMICAL INC.,309-327 AVE. P,NEWARK,ESSEX,NJ,07105,40.724167,-74.131389,2865,,,,,,325100,,,,,,1399131016572,N-METHYL-2-PYRROLIDONE,000872504,NO,NON-PBT,NO,0,NO,A,Pounds,0,0,0,0,0,0,0,0,0,0,0,0,0,0,0,0,0,0,0,0,0,0,0,0,0,0,0,0,0,0,0,0,0,0,0,0,0,0,0,0,0,0,0,0,0,0,0,0,0,0,0,0,0,0,0,0,0,0,0,0,0,0,0,0,,PFISTER CHEMICAL INC,001293216
1999,08067XYVNYRTE13,OXY VINYLS LP,RT 130 & PORCUPINE RD,PEDRICKTOWN,SALEM,NJ,08067,39.763611,-75.423611,2821,,,,,,325211,,,,,,1399130668104,AMMONIA,007664417,NO,NON-PBT,NO,0,NO,R,Pounds,604,188,0,0,0,0,0,0,0,0,0,0,792,0,0,0,0,0,0,0,0,0,0,0,0,0,0,0,0,0,0,0,0,0,0,0,0,0,0,0,0,0,0,0,0,0,0,0,0,0,792,792,0,0,0,0,0,0,0,0,0,30,822,0,2.89,OCCIDENTAL PETROLEUM CORP,061805003
1999,07544MNNDS76E24,MONA INDUSTRIES INC.,76 E 24TH ST,PATERSON,PASSAIC,NJ,07514,40.937764,-74.14483,2843,,,,,,325613,,,,,,1399130642729,CERTAIN GLYCOL ETHERS,N230,YES,NON-PBT,NO,0,NO,R,Pounds,5,5,0,0,0,0,0,0,0,0,0,0,10,0,5,5,0,0,0,0,0,0,0,0,0,0,0,0,0,0,0,0,0,0,0,0,0,0,0,0,0,0,0,0,0,0,0,0,0,0,10,6,0,0,0,0,0,0,0,0,0,0,6,0,1.16,ICI UNIQEMA INC,132440517
1999,08102FWWNTDELAW,FW WINTER INC & CO,DELAWARE AVE & ELM ST,CAMDEN,CAMDEN,NJ,08102,39.95227,-75.12648,3399,,,,,,331221,,,,,,1399130664687,MANGANESE COMPOUNDS,N450,YES,NON-PBT,YES,1,NO,R,Pounds,250,5,0,0,0,0,0,0,0,0,0,0,255,0,0,0,0,0,0,0,0,0,0,0,0,0,0,0,0,0,0,0,0,0,0,0,0,0,0,0,0,0,0,0,0,0,0,0,0,0,255,117,0,0,0,0,0,0,0,0,0,0,117,0,.46,NA,NA
1999,08066PLSBRUNIVE,PAULSBORO PACKAGING INC.,301 MANTUA AVE,PAULSBORO,GLOUCESTER,NJ,08066,39.843486,-75.232812,2899,,,,,,325998,,,,,,1399131008169,NAPHTHALENE,000091203,YES,NON-PBT,NO,0,NO,A,Pounds,0,0,0,0,0,0,0,0,0,0,0,0,0,0,0,0,0,0,0,0,0,0,0,0,0,0,0,0,0,0,0,0,0,0,0,0,0,0,0,0,0,0,0,0,0,0,0,0,0,0,0,0,0,0,0,0,0,0,0,0,0,0,0,0,,THE CLOROX CO,009138033
1999,07801HWMTCROYST,HOWMET CASTINGS & SERVICS INC,9 ROY ST,DOVER,MORRIS,NJ,078010371,40.881939,-74.532387,3369,,,,,,336412,,,,,,1399130693195,"4,4'-ISOPROPYLIDENEDIPHENOL",000080057,NO,NON-PBT,NO,0,NO,R,Pounds,0,15,0,0,0,0,0,0,0,0,0,0,15,0,38,38,0,0,0,0,0,0,0,0,0,0,0,0,0,75983,0,0,0,75983,0,0,0,0,0,0,0,0,0,0,0,0,0,0,0,0,75998,75550,0,0,0,0,0,0,0,0,745,74805,151100,0,1,ALCOA INC,001339472
1999,07002NRTNS148EA,MURALO CO INC NORTON & SON DIV,148 E FIFTH ST,BAYONNE,HUDSON,NJ,070020455,40.650443,-74.121871,2851,,,,,,325510,,,,,,1399131027447,BUTYL ACRYLATE,000141322,NO,NON-PBT,NO,0,NO,A,Pounds,0,0,0,0,0,0,0,0,0,0,0,0,0,0,0,0,0,0,0,0,0,0,0,0,0,0,0,0,0,0,0,0,0,0,0,0,0,0,0,0,0,0,0,0,0,0,0,0,0,0,0,0,0,0,0,0,0,0,0,0,0,0,0,0,,MURALO CO INC,001468255
1999,08818MTXCR970NE,METAL TEXTILES CORP,970 NEW DURHAM RD,EDISON,MIDDLESEX,NJ,08818,40.543119,-74.403383,3496,,,,,,332618,,,,,,1399130600644,MANGANESE,007439965,YES,NON-PBT,YES,1,NO,R,Pounds,0,0,0,0,0,0,0,0,0,0,0,0,0,0,0,0,0,0,0,0,0,0,0,0,0,0,0,0,0,0,0,0,0,0,0,0,0,0,1207,1207,0,0,0,0,0,0,0,0,0,0,0,0,0,0,0,0,0,0,0,1207,0,0,1207,0,.83,UNITED CAPITAL CORP,056864259
1999,07420RRWGRTHIRD,ARROW SHED LLC,1 THIRD AVE,HASKELL,PASSAIC,NJ,07420,41.02946,-74.29664,3448,,,,,,332813,,,,,,1399130668611,"1,2,4-TRIMETHYLBENZENE",000095636,NO,NON-PBT,NO,0,NO,R,Pounds,0,512,0,0,0,0,0,0,0,0,0,0,512,0,0,0,0,0,0,0,0,0,0,0,0,0,0,0,0,0,0,0,0,0,0,0,0,0,0,0,0,0,0,0,0,0,0,0,0,0,512,512,0,0,0,0,0,0,0,0,28451,0,28963,0,1.21,NA,NA
1999,07015NTRNT50PAG,RITE INDUSTRIES INC IDC DIV.,50 PAGE RD.,CLIFTON,PASSAIC,NJ,07012,40.850149,-74.15711,2869,,,,,,325192,,,,,,1399131025987,COPPER COMPOUNDS,N100,NO,NON-PBT,YES,1,NO,A,Pounds,0,0,0,0,0,0,0,0,0,0,0,0,0,0,0,0,0,0,0,0,0,0,0,0,0,0,0,0,0,0,0,0,0,0,0,0,0,0,0,0,0,0,0,0,0,0,0,0,0,0,0,0,0,0,0,0,0,0,0,0,0,0,0,0,,RITE INDUSTRIES INC,122816197
1999,07015NTRNT50PAG,RITE INDUSTRIES INC IDC DIV.,50 PAGE RD.,CLIFTON,PASSAIC,NJ,07012,40.850149,-74.15711,2869,,,,,,325192,,,,,,1399131026039,C.I. DISPERSE YELLOW 3,002832408,NO,NON-PBT,NO,0,NO,A,Pounds,0,0,0,0,0,0,0,0,0,0,0,0,0,0,0,0,0,0,0,0,0,0,0,0,0,0,0,0,0,0,0,0,0,0,0,0,0,0,0,0,0,0,0,0,0,0,0,0,0,0,0,0,0,0,0,0,0,0,0,0,0,0,0,0,,RITE INDUSTRIES INC,122816197
1999,07111BLMMN517LY,BLEEMA MANUFACTURING CORP,517 LYONS AVE,IRVINGTON,ESSEX,NJ,07111,40.716153,-74.225439,3643,,,,,,335931,,,,,,1399131006241,COPPER,007440508,NO,NON-PBT,YES,1,NO,A,Pounds,0,0,0,0,0,0,0,0,0,0,0,0,0,0,0,0,0,0,0,0,0,0,0,0,0,0,0,0,0,0,0,0,0,0,0,0,0,0,0,0,0,0,0,0,0,0,0,0,0,0,0,0,0,0,0,0,0,0,0,0,0,0,0,0,,NA,NA
1999,08086PNNWLCROWN,SOLVAY SOLEXIS INC,10 LEONARD LN,THOROFARE,GLOUCESTER,NJ,08086,39.84275,-75.209639,2821,2819,,,,,325211,,,,,,1399130682065,"2,2-DICHLORO-1,1,1-TRIFLUOROETHANE",000306832,NO,NON-PBT,NO,0,NO,R,Pounds,9080,9218,0,0,0,0,0,0,0,0,0,0,18298,0,3117,3117,0,0,0,0,0,0,0,0,0,0,0,0,0,0,0,0,0,0,0,0,0,0,0,0,300,0,300,0,0,0,0,0,0,0,18298,18298,0,0,0,0,0,0,0,0,6918,3417,28633,0,2.58,SOLVAY AMERICA INC,154288492
1999,07105CRDLT500DO,CARDOLITE CORP,500 DOREMUS AVE,NEWARK,ESSEX,NJ,07105,40.715833,-74.125833,2821,,,,,,325211,,,,,,1399131076628,DIETHYL SULFATE,000064675,YES,NON-PBT,NO,0,YES,A,Pounds,0,0,0,0,0,0,0,0,0,0,0,0,0,0,0,0,0,0,0,0,0,0,0,0,0,0,0,0,0,0,0,0,0,0,0,0,0,0,0,0,0,0,0,0,0,0,0,0,0,0,0,0,0,0,0,0,0,0,0,0,0,0,0,0,,NA,NA
1999,07105CRDLT500DO,CARDOLITE CORP,500 DOREMUS AVE,NEWARK,ESSEX,NJ,07105,40.715833,-74.125833,2821,,,,,,325211,,,,,,1399131076667,"1,2,4-TRIMETHYLBENZENE",000095636,NO,NON-PBT,NO,0,NO,A,Pounds,0,0,0,0,0,0,0,0,0,0,0,0,0,0,0,0,0,0,0,0,0,0,0,0,0,0,0,0,0,0,0,0,0,0,0,0,0,0,0,0,0,0,0,0,0,0,0,0,0,0,0,0,0,0,0,0,0,0,0,0,0,0,0,0,,NA,NA
1999,08016CCDNTRIVER,POLYONE CORP,1804 RIVER RD,BURLINGTON,BURLINGTON,NJ,08016,40.107186,-74.829714,3081,3087,,,,,326113,,,,,,1399131086175,ARSENIC COMPOUNDS,N020,YES,NON-PBT,YES,1,NO,A,Pounds,0,0,0,0,0,0,0,0,0,0,0,0,0,0,0,0,0,0,0,0,0,0,0,0,0,0,0,0,0,0,0,0,0,0,0,0,0,0,0,0,0,0,0,0,0,0,0,0,0,0,0,0,0,0,0,0,0,0,0,0,0,0,0,0,,POLYONE CORP,800967705
1999,08016CCDNTRIVER,POLYONE CORP,1804 RIVER RD,BURLINGTON,BURLINGTON,NJ,08016,40.107186,-74.829714,3081,3087,,,,,326113,,,,,,1399131086225,MANGANESE COMPOUNDS,N450,YES,NON-PBT,YES,1,NO,A,Pounds,0,0,0,0,0,0,0,0,0,0,0,0,0,0,0,0,0,0,0,0,0,0,0,0,0,0,0,0,0,0,0,0,0,0,0,0,0,0,0,0,0,0,0,0,0,0,0,0,0,0,0,0,0,0,0,0,0,0,0,0,0,0,0,0,,POLYONE CORP,800967705
1999,07960NSRLL80LIT,PHELPS DODGE HIGH PERFORMANCE CONDUCTORS OF NJ INC.,80 LITTLE FALLS RD.,FAIRFIELD,ESSEX,NJ,07004,40.888776,-74.271297,3351,3471,,,,,331421,,,,,,1399135078614,COPPER,007440508,NO,NON-PBT,YES,1,NO,R,Pounds,5,5,0,0,0,0,0,0,0,0,0,0,10,20,0,20,0,0,118,0,0,0,0,0,0,0,0,0,0,0,0,0,0,118,0,697,0,0,0,697,0,0,0,0,0,0,0,0,0,0,148,35,0,0,0,0,0,0,0,815,0,0,850,0,.76,PHELPS DODGE CORP,001213149
1999,07083FRMST941BA,FOREMOST MANUFACTURING CO INC,941 BALL AVE,UNION,UNION,NJ,07083,40.689617,-74.289002,3469,,,,,,332000,,,,,,1399135089009,SODIUM NITRITE,007632000,NO,NON-PBT,YES,2,NO,R,Pounds,0,0,0,0,0,0,0,0,0,0,0,0,0,0,93013,93013,0,0,0,0,0,0,0,0,0,0,0,0,0,0,0,0,0,0,0,0,0,0,0,0,0,0,0,0,0,0,0,0,0,0,0,93013,0,0,0,0,0,0,0,0,0,0,93013,0,.99,NA,NA
1999,07032CLMBT49CEN,COLUMBIA TERMINALS,49 CENTRAL AVE,KEARNY,HUDSON,NJ,07032,40.720034,-74.112644,5169,,,,,,424690,,,,,,1399136028141,"1,2,4-TRIMETHYLBENZENE",000095636,NO,NON-PBT,NO,0,NO,A,Pounds,0,0,0,0,0,0,0,0,0,0,0,0,0,0,0,0,0,0,0,0,0,0,0,0,0,0,0,0,0,0,0,0,0,0,0,0,0,0,0,0,0,0,0,0,0,0,0,0,0,0,0,0,0,0,0,0,0,0,0,0,0,0,0,0,,NA,NA
1999,07105SPNCR400DO,REICHHOLD INC,400 DOREMUS AVE,NEWARK,ESSEX,NJ,07105,40.71932,-74.124679,2821,,,,,,325211,,,,,,1399201829658,NAPHTHALENE,000091203,YES,NON-PBT,NO,0,NO,A,Pounds,0,0,0,0,0,0,0,0,0,0,0,0,0,0,0,0,0,0,0,0,0,0,0,0,0,0,0,0,0,0,0,0,0,0,0,0,0,0,0,0,0,0,0,0,0,0,0,0,0,0,0,0,0,0,0,0,0,0,0,0,0,0,0,0,,REICHHOLD INC,001220904
1999,08014CSTMB210HI,CUSTOM BUILDING PRODUCTS,2115 HIGH HILL RD,LOGAN TOWNSHIP,GLOUCESTER,NJ,08085,39.74869,-75.329528,2899,2891,,,,,325998,,,,,,1399131101747,CERTAIN GLYCOL ETHERS,N230,YES,NON-PBT,NO,0,NO,A,Pounds,0,0,0,0,0,0,0,0,0,0,0,0,0,0,0,0,0,0,0,0,0,0,0,0,0,0,0,0,0,0,0,0,0,0,0,0,0,0,0,0,0,0,0,0,0,0,0,0,0,0,0,0,0,0,0,0,0,0,0,0,0,0,0,0,,CUSTOM BUILDING PRODUCTS INC,041688284
1999,07607STPNC100WH,STEPAN CO MAYWOOD,100 W HUNTER AVE,MAYWOOD,BERGEN,NJ,07607,40.895944,-74.070472,2869,,,,,,325199,,,,,,1399131105999,DIETHANOLAMINE,000111422,YES,NON-PBT,NO,0,NO,A,Pounds,0,0,0,0,0,0,0,0,0,0,0,0,0,0,0,0,0,0,0,0,0,0,0,0,0,0,0,0,0,0,0,0,0,0,0,0,0,0,0,0,0,0,0,0,0,0,0,0,0,0,0,0,0,0,0,0,0,0,0,0,0,0,0,0,,STEPAN CO,005130182
1999,08846THBTHLINCO,COVALENCE ADHESIVES,87 LINCOLN BLVD,MIDDLESEX,MIDDLESEX,NJ,08846,40.562251,-74.521854,2672,,,,,,322222,,,,,,1399135114724,METHYL ETHYL KETONE,000078933,NO,NON-PBT,NO,0,NO,R,Pounds,384,4786,0,0,0,0,0,0,0,0,0,0,5170,0,0,0,0,0,0,0,0,0,0,0,0,0,0,0,0,0,0,0,0,0,25360,0,0,0,0,25360,0,0,0,0,0,0,0,0,0,0,5170,5170,0,0,0,0,0,0,0,25360,90939,0,121469,0,.9,BERRY PLASTICS CORP,623327731
1999,07003HRTZM192BL,HARTZ MOUNTAIN CORP,192 BLOOMFIELD AVE,BLOOMFIELD,ESSEX,NJ,07003,40.781006,-74.190546,2048,2899,,,,,311000,,,,,,1399135179152,PERMETHRIN,052645531,NO,NON-PBT,NO,0,NO,R,Pounds,0,0,0,0,0,0,0,0,0,0,0,0,0,0,0,0,0,0,0,0,0,0,0,0,0,0,0,0,0,0,0,0,0,0,0,0,0,0,0,0,0,0,0,0,1668,0,0,0,0,1668,0,100,0,0,0,0,0,0,0,0,0,1668,1768,0,,NA,NA
1999,07901CBGGY556MO,NOVARTIS PHARMACEUTICALS CORP.,556 MORRIS AVE.,SUMMIT,UNION,NJ,079011398,40.727902,-74.375401,2834,2833,,,,,325412,,,,,,1399135239895,DICHLOROMETHANE,000075092,YES,NON-PBT,NO,0,YES,R,Pounds,0,7735,0,0,0,0,0,0,0,0,0,0,7735,0,331,331,0,0,0,0,0,0,0,0,0,0,0,0,0,0,0,0,0,0,224540,0,0,0,0,224540,0,0,0,0,0,0,0,0,0,0,7735,7735,0,0,0,0,0,0,0,224540,0,331,232606,0,1.21,NOVARTIS CORP,001221845
1999,07036LFLBR5NSTI,TOTAL LUBRICANTS USA INC,5 N STILES ST,LINDEN,UNION,NJ,07036,40.625681,-74.255767,2992,,,,,,324191,,,,,,1399136018583,ZINC COMPOUNDS,N982,NO,NON-PBT,YES,1,NO,A,Pounds,0,0,0,0,0,0,0,0,0,0,0,0,0,0,0,0,0,0,0,0,0,0,0,0,0,0,0,0,0,0,0,0,0,0,0,0,0,0,0,0,0,0,0,0,0,0,0,0,0,0,0,0,0,0,0,0,0,0,0,0,0,0,0,0,,TOTAL HOLDINGS USA INC,037810702
1999,08077NTNLCBROAD,NATIONAL CASEIN OF NEW JERSEY,401 MARTHAS LN,RIVERTON,BURLINGTON,NJ,08077,40.013717,-75.00922,2891,,,,,,325520,,,,,,1399136006739,N-METHYLOLACRYLAMIDE,000924425,NO,NON-PBT,NO,0,NO,A,Pounds,0,0,0,0,0,0,0,0,0,0,0,0,0,0,0,0,0,0,0,0,0,0,0,0,0,0,0,0,0,0,0,0,0,0,0,0,0,0,0,0,0,0,0,0,0,0,0,0,0,0,0,0,0,0,0,0,0,0,0,0,0,0,0,0,,NATIONAL CASEIN CO,NA
1999,07032CLMBT49CEN,COLUMBIA TERMINALS,49 CENTRAL AVE,KEARNY,HUDSON,NJ,07032,40.720034,-74.112644,5169,,,,,,424690,,,,,,1399135109801,METHYL ETHYL KETONE,000078933,NO,NON-PBT,NO,0,NO,R,Pounds,3,54,0,0,0,0,0,0,0,0,0,0,57,0,0,0,0,0,0,0,0,0,0,0,0,0,0,0,0,0,0,0,0,0,0,0,0,0,0,0,0,0,0,0,0,0,0,39303,0,39303,57,57,0,0,0,0,0,0,0,0,0,0,57,39303,1,NA,NA
1999,08865JTBKR600NO,MALLINCKRODT BAKER INC,600 N BROAD ST,PHILLIPSBURG,WARREN,NJ,08865,40.703,-75.198056,2819,2869,,,,,325188,,,,,,1399135112415,ACETONITRILE,000075058,YES,NON-PBT,NO,0,NO,R,Pounds,2127,194,0,0,0,0,0,0,0,0,0,0,2321,0,0,0,0,0,0,0,0,0,0,0,0,0,0,0,0,0,0,0,0,0,0,0,0,0,0,0,43362,0,43362,0,0,0,0,0,0,0,2321,2321,0,0,0,0,0,43362,0,0,0,0,45683,0,1.44,COVIDIEN,006265722
1999,07001TRMTR36MIL,PRIDE SOLVENTS & CHEMICAL CO OF NJ,36 MILEED WAY,AVENEL,MIDDLESEX,NJ,07001,40.597643,-74.253882,5169,,,,,,339000,,,,,,1399131094839,ETHYLENE GLYCOL,000107211,YES,NON-PBT,NO,0,NO,A,Pounds,0,0,0,0,0,0,0,0,0,0,0,0,0,0,0,0,0,0,0,0,0,0,0,0,0,0,0,0,0,0,0,0,0,0,0,0,0,0,0,0,0,0,0,0,0,0,0,0,0,0,0,0,0,0,0,0,0,0,0,0,0,0,0,0,,PRIDE SOLVENTS & CHEMICAL CO,NA
1999,07470CLFTNBURGE,CLIFTON ADHESIVE INC,48 BURGESS PL,WAYNE,PASSAIC,NJ,07470,40.905944,-74.259944,2891,,,,,,325520,,,,,,1399135041818,TOLUENE,000108883,YES,NON-PBT,NO,0,NO,R,Pounds,3148,0,0,0,0,0,0,0,0,0,0,0,3148,0,0,0,0,0,0,0,0,0,0,0,0,0,0,0,0,0,0,0,0,0,0,0,0,0,6178,6178,0,0,0,0,0,0,0,0,0,0,3148,3148,0,0,0,0,0,6178,123829,0,0,0,133155,0,.94,CLIFTON ADHESIVE INC,002140499
1999,07506FSKLL10THO,FISK ALLOY WIRE INC,10 THOMAS RD,HAWTHORNE,PASSAIC,NJ,07506,40.942128,-74.162683,3351,,,,,,331421,,,,,,1399135154363,AMMONIA,007664417,NO,NON-PBT,NO,0,NO,R,Pounds,5,0,0,0,0,0,0,0,0,0,0,0,5,0,0,0,0,0,0,0,0,0,0,0,0,0,0,0,0,0,0,0,0,0,0,0,0,0,0,0,0,0,0,0,0,0,0,0,0,0,5,1,0,0,0,0,0,0,0,0,0,0,1,0,.01,NA,NA
1999,07105TMTDL185FO,AUTOMATIC ELECTRO PLATING CORP,185 FOUNDRY ST,NEWARK,ESSEX,NJ,07105,40.727334,-74.131996,3471,,,,,,332813,,,,,,1399135166270,ZINC COMPOUNDS,N982,NO,NON-PBT,YES,1,NO,R,Pounds,0,0,0,0,0,0,0,0,0,0,0,0,0,0,0,0,0,250,0,0,0,0,0,0,0,0,0,0,0,0,0,0,0,250,0,0,0,0,0,0,0,0,0,0,0,0,0,0,0,0,250,44,0,0,0,0,0,0,2310,0,0,0,2354,0,1,NA,NA
1999,07059NDGCS141MT,ANADIGICS INC,141 MOUNT BETHEL RD,WARREN,SOMERSET,NJ,07059,40.633937,-74.504463,3674,,,,,,334413,,,,,,1399135237218,CHLOROFORM,000067663,YES,NON-PBT,NO,0,YES,R,Pounds,0,716,0,0,0,0,0,0,0,0,0,0,716,0,0,0,0,0,0,0,0,0,0,0,0,0,0,0,0,0,0,0,0,0,14943,0,0,0,0,14943,0,0,0,0,0,0,0,0,0,0,716,716,0,0,0,0,0,0,0,14943,0,0,15659,0,.95,NA,NA
1999,07109HRMNN600CO,ROYAL ADHESIVES & SEALANTS,600 CORTLANDT ST,BELLEVILLE,ESSEX,NJ,07109,40.799098,-74.145301,2891,,,,,,325520,,,,,,1399136019128,DIISOCYANATES,N120,YES,NON-PBT,NO,0,NO,A,Pounds,0,0,0,0,0,0,0,0,0,0,0,0,0,0,0,0,0,0,0,0,0,0,0,0,0,0,0,0,0,0,0,0,0,0,0,0,0,0,0,0,0,0,0,0,0,0,0,0,0,0,0,0,0,0,0,0,0,0,0,0,0,0,0,0,,ROYAL ADHESIVES & SEALANTS LLC,084644710
1999,07008NDLCLFOOTO,INDOL COLOR CO,48 LEFFERT STREET,CARTERET,MIDDLESEX,NJ,070083114,40.585245,-74.21568,2865,,,,,,325100,,,,,,1399136016375,SODIUM NITRITE,007632000,NO,NON-PBT,YES,2,NO,A,Pounds,0,0,0,0,0,0,0,0,0,0,0,0,0,0,0,0,0,0,0,0,0,0,0,0,0,0,0,0,0,0,0,0,0,0,0,0,0,0,0,0,0,0,0,0,0,0,0,0,0,0,0,0,0,0,0,0,0,0,0,0,0,0,0,0,,MAGRUDER COLOR CO INC,011510542
1999,07114CHMFL92896,CHEM FLUER/FIRMENICH INC,150 FIRMENICH WAY,NEWARK,ESSEX,NJ,07114,40.699527,-74.13072,2869,,,,,,325199,,,,,,1399136026162,DIMETHYL SULFATE,000077781,YES,NON-PBT,NO,0,YES,A,Pounds,0,0,0,0,0,0,0,0,0,0,0,0,0,0,0,0,0,0,0,0,0,0,0,0,0,0,0,0,0,0,0,0,0,0,0,0,0,0,0,0,0,0,0,0,0,0,0,0,0,0,0,0,0,0,0,0,0,0,0,0,0,0,0,0,,NA,NA
1999,07080KRNFM1253N,PERRY TECHNOLOGY CO INC,1253 NEW MARKET AVE,SOUTH PLAINFIELD,MIDDLESEX,NJ,07080,40.58032,-74.428193,3086,,,,,,326100,,,,,,1399131082099,DIISOCYANATES,N120,YES,NON-PBT,NO,0,NO,A,Pounds,0,0,0,0,0,0,0,0,0,0,0,0,0,0,0,0,0,0,0,0,0,0,0,0,0,0,0,0,0,0,0,0,0,0,0,0,0,0,0,0,0,0,0,0,0,0,0,0,0,0,0,0,0,0,0,0,0,0,0,0,0,0,0,0,,PERRY CHEMICAL & MANUFACTURING CO INC,005107537
1999,07114RCCRP470FR,OMG FIDELITY INC.,470 FRELINGHUYSEN AVE.,NEWARK,ESSEX,NJ,07114,40.704682,-74.194079,2899,2819,,,,,325998,,,,,,1399131090134,COPPER COMPOUNDS,N100,NO,NON-PBT,YES,1,NO,A,Pounds,0,0,0,0,0,0,0,0,0,0,0,0,0,0,0,0,0,0,0,0,0,0,0,0,0,0,0,0,0,0,0,0,0,0,0,0,0,0,0,0,0,0,0,0,0,0,0,0,0,0,0,0,0,0,0,0,0,0,0,0,0,0,0,0,,OM GROUP INC,556869238
1999,08065CLLHNBROAD,CALLAHAN CHEMICAL CO,BROAD ST & FILMORE AVE,PALMYRA,BURLINGTON,NJ,08065,39.99791,-75.031763,5169,,,,,,424690,,,,,,1399135007944,ETHYLENE GLYCOL,000107211,YES,NON-PBT,NO,0,NO,R,Pounds,1,2,0,0,0,0,0,0,0,0,0,0,3,0,0,0,0,0,0,0,0,0,0,0,0,0,0,0,0,0,0,0,0,0,0,0,0,0,0,0,0,0,0,0,0,0,0,0,0,0,3,3,0,0,0,0,0,0,0,0,0,0,3,0,1.32,NA,NA
1999,07114BPXPLBLDG3,BP PRODUCTS NORTH AMERICA INC,BLDG 350 COASTAL ST,NEWARK,ESSEX,NJ,07114,40.697278,-74.136889,5171,,,,,,424710,,,,,,1399131067314,TOLUENE,000108883,YES,NON-PBT,NO,0,NO,A,Pounds,0,0,0,0,0,0,0,0,0,0,0,0,0,0,0,0,0,0,0,0,0,0,0,0,0,0,0,0,0,0,0,0,0,0,0,0,0,0,0,0,0,0,0,0,0,0,0,0,0,0,0,0,0,0,0,0,0,0,0,0,0,0,0,0,,BP PRODUCTS NORTH AMERICA INC,NA
1999,08011SYBRNBIRMI,LANXESS SYBRON CHEMICALS INC.,200 BIRMINGHAM RD,BIRMINGHAM,BURLINGTON,NJ,08011,39.979014,-74.71667,2821,2869,,,,,325211,,,,,,1399131075739,CHLOROMETHANE,000074873,YES,NON-PBT,NO,0,NO,A,Pounds,0,0,0,0,0,0,0,0,0,0,0,0,0,0,0,0,0,0,0,0,0,0,0,0,0,0,0,0,0,0,0,0,0,0,0,0,0,0,0,0,0,0,0,0,0,0,0,0,0,0,0,0,0,0,0,0,0,0,0,0,0,0,0,0,,LANXESS CORP,145858770
1999,08840RCHMN131FO,RICHMOND INDUSTRIES INC.,131 LIBERTY ST.,METUCHEN,MIDDLESEX,NJ,08840,40.549439,-74.376414,3366,,,,,,331525,,,,,,1399135102349,LEAD,007439921,YES,PBT,YES,1,YES,R,Pounds,250,250,0,0,0,0,0,0,0,0,0,0,500,0,0,0,0,0,0,0,0,0,0,0,0,0,0,0,0,0,0,0,0,0,0,0,1540,0,0,1540,0,0,0,0,0,0,0,0,0,0,500,28,0,0,0,0,0,0,0,1382,0,0,1410,0,0,NA,NA
1999,07105SSXND351DO,GENERAL CHEMICAL LLC NEWARK PLANT,330 DOREMUS AVE,NEWARK,ESSEX,NJ,07105,40.722361,-74.124639,2819,,,,,,325188,,,,,,1399135193151,NITRIC ACID,007697372,NO,NON-PBT,NO,0,NO,R,Pounds,0,1,0,0,0,0,0,0,0,0,0,0,1,0,0,0,0,0,0,0,0,0,0,0,0,0,0,0,0,0,0,0,0,0,0,0,0,0,0,0,0,0,0,0,0,0,0,0,0,0,1,1,0,0,0,0,0,0,0,0,0,0,1,0,3,GENERAL CHEMICAL LLC,072064418
1999,08110LMNMS9000R,ALUMINUM SHAPES LLC,9000 RIVER RD,DELAIR,CAMDEN,NJ,081103296,39.986944,-75.044917,3354,3341,,,,,331316,,,,,,1399135211353,CERTAIN GLYCOL ETHERS,N230,YES,NON-PBT,NO,0,NO,R,Pounds,1682,750,0,0,0,0,0,0,0,0,0,0,2432,0,0,0,0,0,0,0,0,0,0,0,0,0,0,0,0,0,0,0,0,0,0,0,0,0,0,0,0,0,0,0,0,0,0,0,0,0,2432,2193,0,0,0,0,0,0,0,0,33635,0,35828,0,1.22,SHAPES/ARCH HOLDINGS LLC,958372708
1999,07203RNBND304CO,IRONBOUND HEAT TREATING CO,304 COX ST,ROSELLE,UNION,NJ,07203,40.653892,-74.280739,3398,,,,,,332811,,,,,,1399136004948,AMMONIA,007664417,NO,NON-PBT,NO,0,NO,A,Pounds,0,0,0,0,0,0,0,0,0,0,0,0,0,0,0,0,0,0,0,0,0,0,0,0,0,0,0,0,0,0,0,0,0,0,0,0,0,0,0,0,0,0,0,0,0,0,0,0,0,0,0,0,0,0,0,0,0,0,0,0,0,0,0,0,,METAL IMPROVEMENT CO LLC,NA
1999,07114CHMFL92896,CHEM FLUER/FIRMENICH INC,150 FIRMENICH WAY,NEWARK,ESSEX,NJ,07114,40.699527,-74.13072,2869,,,,,,325199,,,,,,1399136026198,METHYL ETHYL KETONE,000078933,NO,NON-PBT,NO,0,NO,A,Pounds,0,0,0,0,0,0,0,0,0,0,0,0,0,0,0,0,0,0,0,0,0,0,0,0,0,0,0,0,0,0,0,0,0,0,0,0,0,0,0,0,0,0,0,0,0,0,0,0,0,0,0,0,0,0,0,0,0,0,0,0,0,0,0,0,,NA,NA
1999,07004RFLYW125NE,RF WIRE TECHNOLOGIES LLC,125 NEW DUTCH LN,FAIRFIELD,ESSEX,NJ,07004,40.882442,-74.281615,3351,,,,,,331421,,,,,,1399136037064,AMMONIA,007664417,NO,NON-PBT,NO,0,NO,A,Pounds,0,0,0,0,0,0,0,0,0,0,0,0,0,0,0,0,0,0,0,0,0,0,0,0,0,0,0,0,0,0,0,0,0,0,0,0,0,0,0,0,0,0,0,0,0,0,0,0,0,0,0,0,0,0,0,0,0,0,0,0,0,0,0,0,,NA,NA
1999,08619MRCNS240PR,AMERICAN STANDARD INC.,240 PRINCETON AVE.,TRENTON,MERCER,NJ,08619,40.255109,-74.710793,3261,,,,,,327111,,,,,,1399136042468,DIISOCYANATES,N120,YES,NON-PBT,NO,0,NO,A,Pounds,0,0,0,0,0,0,0,0,0,0,0,0,0,0,0,0,0,0,0,0,0,0,0,0,0,0,0,0,0,0,0,0,0,0,0,0,0,0,0,0,0,0,0,0,0,0,0,0,0,0,0,0,0,0,0,0,0,0,0,0,0,0,0,0,,AMERICAN STANDARD COS INC,191444587
1999,07047WRGRC21338,WR GRACE & CO - CONN GRACE CONSTRUCTION PRODUCTS,2133 85TH ST,NORTH BERGEN,HUDSON,NJ,07047,40.811223,-74.016843,2899,,,,,,325998,,,,,,1399131071627,FORMIC ACID,000064186,NO,NON-PBT,NO,0,NO,A,Pounds,0,0,0,0,0,0,0,0,0,0,0,0,0,0,0,0,0,0,0,0,0,0,0,0,0,0,0,0,0,0,0,0,0,0,0,0,0,0,0,0,0,0,0,0,0,0,0,0,0,0,0,0,0,0,0,0,0,0,0,0,0,0,0,0,,W R GRACE & CO,001409150
1999,07110TLNTC10KIN,CROMPTON COLORS INC,10 KINGSLAND ST,NUTLEY,ESSEX,NJ,07110,40.82683,-74.14284,2865,,,,,,325132,,,,,,1399131060535,DIETHYL SULFATE,000064675,YES,NON-PBT,NO,0,YES,A,Pounds,0,0,0,0,0,0,0,0,0,0,0,0,0,0,0,0,0,0,0,0,0,0,0,0,0,0,0,0,0,0,0,0,0,0,0,0,0,0,0,0,0,0,0,0,0,0,0,0,0,0,0,0,0,0,0,0,0,0,0,0,0,0,0,0,,CROMPTON CORP,052813136
1999,07405BTLRP250HA,BUTLER PRINTING & LAMINATING INC,250 HAMBURG TURNPIKE,BUTLER,MORRIS,NJ,07405,41.00941,-74.3529,2754,,,,,,323111,,,,,,1399135024089,METHYL ETHYL KETONE,000078933,NO,NON-PBT,NO,0,NO,R,Pounds,0,18640,0,0,0,0,0,0,0,0,0,0,18640,0,0,0,0,0,0,0,0,0,0,0,0,0,0,0,0,0,0,0,0,0,0,0,0,0,0,0,0,19082,19082,0,0,0,0,0,0,0,18640,0,0,0,0,0,0,0,0,19082,0,0,19082,0,1.09,NA,NA
1999,08817SHRWD180TA,INTERNATIONAL PAPER SHOREWOOD PACKAGING CORP.,180 TALMADGE RD.,EDISON,MIDDLESEX,NJ,08817,40.536294,-74.396488,2700,,,,,,323110,,,,,,1399135006664,"1,2,4-TRIMETHYLBENZENE",000095636,NO,NON-PBT,NO,0,NO,R,Pounds,4974,0,0,0,0,0,0,0,0,0,0,0,4974,0,0,0,0,0,0,0,0,0,0,0,0,0,0,0,0,0,0,0,0,0,0,0,0,0,0,0,7532,0,7532,0,0,0,0,0,0,0,4974,4974,0,0,0,0,0,7532,0,0,0,0,12506,0,1.06,INTERNATIONAL PAPER CO,001316561
1999,07114GJCHM37037,DOREMUS TERMINAL LLC,128 DOREMUS AVE,NEWARK,ESSEX,NJ,07105,40.728908,-74.121826,5169,,,,,,424690,,,,,,1399135014405,DIBUTYL PHTHALATE,000084742,YES,NON-PBT,NO,0,NO,R,Pounds,2,7,0,0,0,0,0,0,0,0,0,0,9,0,0,0,0,0,0,0,0,0,0,0,0,0,0,0,0,0,0,0,0,0,0,0,0,0,0,0,0,0,0,0,0,0,0,0,0,0,9,9,0,0,0,0,0,0,0,0,0,0,9,0,.46,NA,NA
1999,07114GJCHM37037,DOREMUS TERMINAL LLC,128 DOREMUS AVE,NEWARK,ESSEX,NJ,07105,40.728908,-74.121826,5169,,,,,,424690,,,,,,1399135014518,ACETONITRILE,000075058,YES,NON-PBT,NO,0,NO,R,Pounds,3,78,0,0,0,0,0,0,0,0,0,0,81,0,0,0,0,0,0,0,0,0,0,0,0,0,0,0,0,0,0,0,0,0,0,0,0,0,0,0,0,0,0,0,0,0,0,0,0,0,81,81,0,0,0,0,0,0,0,0,0,0,81,0,,NA,NA
1999,07114GJCHM37037,DOREMUS TERMINAL LLC,128 DOREMUS AVE,NEWARK,ESSEX,NJ,07105,40.728908,-74.121826,5169,,,,,,424690,,,,,,1399135014607,ETHYL ACRYLATE,000140885,YES,NON-PBT,NO,0,YES,R,Pounds,7,207,0,0,0,0,0,0,0,0,0,0,214,0,0,0,0,0,0,0,0,0,0,0,0,0,0,0,0,0,0,0,0,0,0,0,0,0,0,0,0,0,0,0,0,0,0,0,0,0,214,214,0,0,0,0,0,0,0,0,0,0,214,0,.3,NA,NA
1999,07045NSRLL1CHAP,PHELPS DODGE HIGH PERFORMANCE CONDUCTORS OF NJ INC.,1 CHAPIN RD.,MONTVILLE,MORRIS,NJ,07045,40.85762,-74.34035,3351,,,,,,331421,,,,,,1399135078362,COPPER,007440508,NO,NON-PBT,YES,1,NO,R,Pounds,0,0,0,0,0,0,0,0,0,0,0,0,0,0,0,0,0,0,2,0,0,0,0,0,0,0,0,0,0,0,0,0,0,2,0,0,0,0,0,0,0,0,0,0,0,0,0,0,0,0,2,24,0,0,0,0,0,0,0,0,0,0,24,0,19.1,PHELPS DODGE CORP,001213149
1999,07004FRFLD55PAS,FAIRFIELD TEXTILES CORP,55 PASSAIC AVE,FAIRFIELD,ESSEX,NJ,07004,40.868521,-74.281061,2257,,,,,,315191,,,,,,1399135127595,TETRACHLOROETHYLENE,000127184,YES,NON-PBT,NO,0,YES,R,Pounds,250,750,0,0,0,0,0,0,0,0,0,0,1000,0,0,0,0,0,0,0,0,0,0,0,0,0,0,0,0,0,0,0,0,0,250,0,0,0,0,250,0,0,0,0,0,0,0,0,0,0,1000,498,0,0,0,0,0,0,4800,0,0,20,5318,0,.25,NA,NA
1999,07513TLNTC546E4,ATLANTIC BATTERY CORP,1065 MARKET ST,PATERSON,PASSAIC,NJ,07513,40.903742,-74.136309,3691,,,,,,335911,,,,,,1399135238463,LEAD,007439921,YES,PBT,YES,1,YES,R,Pounds,5,5,0,0,0,0,0,0,0,0,0,0,10,0,0,0,0,0,0,0,0,0,0,0,0,0,0,0,0,0,0,0,0,0,0,403666,0,0,0,403666,0,0,0,0,0,0,0,0,0,0,10,57,0,0,0,0,0,0,0,403666,0,0,403723,0,136,NA,NA
1999,07073DBSCHUNION,DIAMOND CHEMICAL CO INC,UNION AVE & DUBOIS ST,EAST RUTHERFORD,BERGEN,NJ,07073,40.82527,-74.0944,2842,,,,,,325611,,,,,,1399136039548,CERTAIN GLYCOL ETHERS,N230,YES,NON-PBT,NO,0,NO,A,Pounds,0,0,0,0,0,0,0,0,0,0,0,0,0,0,0,0,0,0,0,0,0,0,0,0,0,0,0,0,0,0,0,0,0,0,0,0,0,0,0,0,0,0,0,0,0,0,0,0,0,0,0,0,0,0,0,0,0,0,0,0,0,0,0,0,,NA,NA
1999,07020CTGNP596RI,OCTAGON PROCESS INC,596 RIVER RD,EDGEWATER,BERGEN,NJ,07020,40.816774,-73.980942,2899,,,,,,325998,,,,,,1399136055023,DICHLOROMETHANE,000075092,YES,NON-PBT,NO,0,YES,A,Pounds,0,0,0,0,0,0,0,0,0,0,0,0,0,0,0,0,0,0,0,0,0,0,0,0,0,0,0,0,0,0,0,0,0,0,0,0,0,0,0,0,0,0,0,0,0,0,0,0,0,0,0,0,0,0,0,0,0,0,0,0,0,0,0,0,,NA,NA
1999,07543HTRNC79221,HETERENE CHEMICAL CO. INC.,792 21ST AVE.,PATERSON,PASSAIC,NJ,075130247,40.904374,-74.138492,2869,,,,,,325000,,,,,,1399136042494,PROPYLENE OXIDE,000075569,YES,NON-PBT,NO,0,YES,A,Pounds,0,0,0,0,0,0,0,0,0,0,0,0,0,0,0,0,0,0,0,0,0,0,0,0,0,0,0,0,0,0,0,0,0,0,0,0,0,0,0,0,0,0,0,0,0,0,0,0,0,0,0,0,0,0,0,0,0,0,0,0,0,0,0,0,,HETERENE INC,042899492
1999,08873PMSCN109NE,POLYONE CORP.,789 NEW BRUNSWICK RD.,SOMERSET,SOMERSET,NJ,08873,40.528379,-74.537396,3087,,,,,,325991,,,,,,1399136052495,ZINC COMPOUNDS,N982,NO,NON-PBT,YES,1,NO,A,Pounds,0,0,0,0,0,0,0,0,0,0,0,0,0,0,0,0,0,0,0,0,0,0,0,0,0,0,0,0,0,0,0,0,0,0,0,0,0,0,0,0,0,0,0,0,0,0,0,0,0,0,0,0,0,0,0,0,0,0,0,0,0,0,0,0,,POLYONE CORP,001943802
1999,07001THPRC100ES,PROCTER & GAMBLE CO,100 ESSEX AVE E,AVENEL,MIDDLESEX,NJ,07001,40.57693,-74.261977,2844,,,,,,325620,,,,,,1399131091062,CERTAIN GLYCOL ETHERS,N230,YES,NON-PBT,NO,0,NO,A,Pounds,0,0,0,0,0,0,0,0,0,0,0,0,0,0,0,0,0,0,0,0,0,0,0,0,0,0,0,0,0,0,0,0,0,0,0,0,0,0,0,0,0,0,0,0,0,0,0,0,0,0,0,0,0,0,0,0,0,0,0,0,0,0,0,0,,PROCTER & GAMBLE CO,001316827
1999,08330PSTMR36POS,POST MARINE CO,100 POST RD,MAYS LANDING,ATLANTIC,NJ,08330,39.437222,-74.717777,3732,,,,,,336612,,,,,,1399135036123,STYRENE,000100425,YES,NON-PBT,NO,0,YES,R,Pounds,3182,12726,0,0,0,0,0,0,0,0,0,0,15908,0,0,0,0,0,0,0,0,0,0,0,0,0,0,0,0,0,0,0,0,0,0,0,0,0,0,0,0,0,0,0,250,0,0,0,0,250,15908,15908,0,0,0,0,0,0,0,0,0,445,16353,0,,NA,NA
1999,07071SKCRP201PO,SIKA CORP,201 POLITO AVE,LYNDHURST,BERGEN,NJ,07071,40.804722,-74.109444,2891,,,,,,325520,,,,,,1399131100063,LITHIUM CARBONATE,000554132,NO,NON-PBT,YES,2,NO,A,Pounds,0,0,0,0,0,0,0,0,0,0,0,0,0,0,0,0,0,0,0,0,0,0,0,0,0,0,0,0,0,0,0,0,0,0,0,0,0,0,0,0,0,0,0,0,0,0,0,0,0,0,0,0,0,0,0,0,0,0,0,0,0,0,0,0,,SIKA CORP,NA
1999,07080WRNRJ107WA,SENSIENT COLORS INC. (FORMERLY WARNER JENKINSON ),107 WADE AVE.,SOUTH PLAINFIELD,MIDDLESEX,NJ,070801131,40.5655,-74.431556,2865,,,,,,311930,,,,,,1399136009887,CHROMIUM COMPOUNDS(EXCEPT CHROMITE ORE MINED IN THE TRANSVAAL REGION),N090,YES,NON-PBT,YES,1,NO,A,Pounds,0,0,0,0,0,0,0,0,0,0,0,0,0,0,0,0,0,0,0,0,0,0,0,0,0,0,0,0,0,0,0,0,0,0,0,0,0,0,0,0,0,0,0,0,0,0,0,0,0,0,0,0,0,0,0,0,0,0,0,0,0,0,0,0,,SENSIENT TECHS CORP,006088884
1999,08818FRDMT939US,FORD MOTOR CO EDISON ASSEMBLY PLANT,939 US HWY 1,EDISON,MIDDLESEX,NJ,08818,40.516777,-74.371651,3711,,,,,,336112,,,,,,1399131063531,N-HEXANE,000110543,YES,NON-PBT,NO,0,NO,A,Pounds,0,0,0,0,0,0,0,0,0,0,0,0,0,0,0,0,0,0,0,0,0,0,0,0,0,0,0,0,0,0,0,0,0,0,0,0,0,0,0,0,0,0,0,0,0,0,0,0,0,0,0,0,0,0,0,0,0,0,0,0,0,0,0,0,,FORD MOTOR CO,001344746
1999,07114GJCHM37037,DOREMUS TERMINAL LLC,128 DOREMUS AVE,NEWARK,ESSEX,NJ,07105,40.728908,-74.121826,5169,,,,,,424690,,,,,,1399135014759,METHYL ETHYL KETONE,000078933,NO,NON-PBT,NO,0,NO,R,Pounds,90,643,0,0,0,0,0,0,0,0,0,0,733,0,0,0,0,0,0,0,0,0,0,0,0,0,0,0,0,0,0,0,0,0,0,0,0,0,0,0,0,0,0,0,0,0,0,0,0,0,733,733,0,0,0,0,0,0,0,0,0,0,733,0,1.12,NA,NA
1999,07114GJCHM37037,DOREMUS TERMINAL LLC,128 DOREMUS AVE,NEWARK,ESSEX,NJ,07105,40.728908,-74.121826,5169,,,,,,424690,,,,,,1399135014809,NITRIC ACID,007697372,NO,NON-PBT,NO,0,NO,R,Pounds,0,0,0,0,0,0,0,0,0,0,0,0,0,0,0,0,0,0,0,0,0,0,0,0,0,0,0,0,0,0,0,0,0,0,0,0,0,0,0,0,0,0,0,0,0,0,0,0,0,0,0,0,0,0,0,0,0,0,0,0,0,0,0,0,,NA,NA
1999,07114GJCHM37037,DOREMUS TERMINAL LLC,128 DOREMUS AVE,NEWARK,ESSEX,NJ,07105,40.728908,-74.121826,5169,,,,,,424690,,,,,,1399135014850,TETRACHLOROETHYLENE,000127184,YES,NON-PBT,NO,0,YES,R,Pounds,4,52,0,0,0,0,0,0,0,0,0,0,56,0,0,0,0,0,0,0,0,0,0,0,0,0,0,0,0,0,0,0,0,0,0,0,0,0,0,0,0,0,0,0,0,0,0,0,0,0,56,56,0,0,0,0,0,0,0,0,0,0,56,0,.58,NA,NA
1999,07001PRDSL211RA,PRIDE SOLVENTS & CHEMICAL CO OF NEW JERSEY,211 RANDOLPH AVE,AVENEL,MIDDLESEX,NJ,07001,40.59741,-74.257523,5169,,,,,,339000,,,,,,1399135136808,DIETHANOLAMINE,000111422,YES,NON-PBT,NO,0,NO,R,Pounds,0,1,0,0,0,0,0,0,0,0,0,0,1,0,0,0,0,0,0,0,0,0,0,0,0,0,0,0,0,0,0,0,0,0,0,0,0,0,0,0,0,0,0,0,140,0,0,0,0,140,1,1,0,0,0,0,0,0,0,0,0,140,141,0,1.06,PRIDE SOLVENTS & CHEMICAL CO,NA
1999,07513PWRBT543EA,POWER BATTERY CO,1065 MARKET ST,PATERSON,PASSAIC,NJ,07513,40.902277,-74.136989,3691,,,,,,335911,,,,,,1399135238665,LEAD,007439921,YES,PBT,YES,1,YES,R,Pounds,5,5,0,0,0,0,0,0,0,0,0,0,10,5,0,5,0,0,0,0,0,0,0,0,0,0,0,0,0,0,0,0,0,0,0,91345,0,0,0,91345,0,0,0,0,0,0,0,0,0,0,15,18,0,0,0,0,0,0,0,191345,0,0,191363,0,80,NA,NA
1999,07882BSFCRPERSH,BASF CORP,2 PLEASANT VIEW AVE,WASHINGTON,WARREN,NJ,07882,40.754803,-74.9731,2843,2869,,,,,325613,,,,,,1399135192072,N-BUTYL ALCOHOL,000071363,NO,NON-PBT,NO,0,NO,R,Pounds,2018,0,0,0,0,0,0,0,0,0,0,0,2018,0,5,5,0,0,0,0,0,0,250,0,0,0,0,0,0,0,0,0,0,250,0,0,0,0,0,0,0,0,0,0,0,0,0,0,0,0,2268,2300,0,0,0,0,0,0,0,0,0,50,2350,0,.94,BASF CORP,071014385
1999,08619CSTMP11EAS,CUSTOM PROCESSING CORP,11 EAST 6TH ST,TRENTON,MERCER,NJ,08619,40.244796,-74.725909,2099,,,,,,325412,,,,,,1399136034105,ZINC COMPOUNDS,N982,NO,NON-PBT,YES,1,NO,A,Pounds,0,0,0,0,0,0,0,0,0,0,0,0,0,0,0,0,0,0,0,0,0,0,0,0,0,0,0,0,0,0,0,0,0,0,0,0,0,0,0,0,0,0,0,0,0,0,0,0,0,0,0,0,0,0,0,0,0,0,0,0,0,0,0,0,,NA,NA
1999,07105LNCHM268DO,ELAN CHEMICAL CO INC,268 DOREMUS AVE,NEWARK,ESSEX,NJ,07105,40.723333,-74.123333,2869,,,,,,325199,,,,,,1399131092088,METHYL ACRYLATE,000096333,NO,NON-PBT,NO,0,NO,A,Pounds,0,0,0,0,0,0,0,0,0,0,0,0,0,0,0,0,0,0,0,0,0,0,0,0,0,0,0,0,0,0,0,0,0,0,0,0,0,0,0,0,0,0,0,0,0,0,0,0,0,0,0,0,0,0,0,0,0,0,0,0,0,0,0,0,,NA,NA
1999,08030PRDCT410JE,PRC-DESOTO INTERNATIONAL INC,410 JERSEY AVE,GLOUCESTER CITY,CAMDEN,NJ,08030,39.893217,-75.126384,2891,,,,,,325520,,,,,,1399131092948,DIISOCYANATES,N120,YES,NON-PBT,NO,0,NO,A,Pounds,0,0,0,0,0,0,0,0,0,0,0,0,0,0,0,0,0,0,0,0,0,0,0,0,0,0,0,0,0,0,0,0,0,0,0,0,0,0,0,0,0,0,0,0,0,0,0,0,0,0,0,0,0,0,0,0,0,0,0,0,0,0,0,0,,PPG INDUSTRIES INC,001344803
1999,07420RRWGRTHIRD,ARROW SHED LLC,1 THIRD AVE,HASKELL,PASSAIC,NJ,07420,41.02946,-74.29664,3448,,,,,,332813,,,,,,1399131104592,CHROMIUM COMPOUNDS(EXCEPT CHROMITE ORE MINED IN THE TRANSVAAL REGION),N090,YES,NON-PBT,YES,1,NO,A,Pounds,0,0,0,0,0,0,0,0,0,0,0,0,0,0,0,0,0,0,0,0,0,0,0,0,0,0,0,0,0,0,0,0,0,0,0,0,0,0,0,0,0,0,0,0,0,0,0,0,0,0,0,0,0,0,0,0,0,0,0,0,0,0,0,0,,NA,NA
1999,07073CLNLP180EA,COATES SCREEN INC.,180 E. UNION AVE.,EAST RUTHERFORD,BERGEN,NJ,07073,40.820808,-74.086748,2893,,,,,,325910,,,,,,1399135000988,XYLENE (MIXED ISOMERS),001330207,YES,NON-PBT,NO,0,NO,R,Pounds,190,190,0,0,0,0,0,0,0,0,0,0,380,0,0,0,0,0,0,0,0,0,0,0,0,0,0,0,0,0,0,0,0,0,0,0,0,0,0,0,0,3231,3231,0,0,0,0,0,0,0,380,380,0,0,0,0,0,3231,0,0,0,0,3611,0,0,SUN CHEMICAL CORP,144638558
1999,07512SNDVK21CAM,SANDVIK PROCESS SYSTEMS INC.,21 CAMPUS RD.,TOTOWA,PASSAIC,NJ,07512,40.912664,-74.229657,3535,,,,,,333922,,,,,,1399135072306,CHROMIUM,007440473,YES,NON-PBT,YES,1,YES,R,Pounds,0,0,0,0,0,0,0,0,0,0,0,0,0,0,0,0,0,0,0,0,0,0,0,0,0,0,0,0,0,0,0,0,0,0,0,3064,0,0,0,3064,0,0,0,0,0,0,0,0,0,0,0,0,0,0,0,0,0,0,0,3064,0,0,3064,0,.7,NA,NA
1999,08069MCSPC76SVI,AKZO NOBEL COATINGS INC. (MAC SPECIALTY COATINGS),76 S. VIRGINIA AVE.,PENNS GROVE,SALEM,NJ,080691737,39.722295,-75.466813,2851,,,,,,325510,,,,,,1399135167308,XYLENE (MIXED ISOMERS),001330207,YES,NON-PBT,NO,0,NO,R,Pounds,250,250,0,0,0,0,0,0,0,0,0,0,500,0,0,0,0,0,0,0,0,0,0,0,0,0,0,0,0,0,0,0,0,0,0,0,0,0,0,0,23585,0,23585,0,0,0,0,0,0,0,500,291,0,0,0,0,0,23585,0,0,0,0,23876,0,1.32,AKZO NOBEL COATINGS INC,062999347
1999,07063NTNLS1735W,NATIONAL STARCH & CHEMICAL CO.,1700 W. FRONT ST.,PLAINFIELD,UNION,NJ,07063,40.596012,-74.456524,2891,,,,,,325520,,,,,,1399136000128,VINYL ACETATE,000108054,YES,NON-PBT,NO,0,YES,A,Pounds,0,0,0,0,0,0,0,0,0,0,0,0,0,0,0,0,0,0,0,0,0,0,0,0,0,0,0,0,0,0,0,0,0,0,0,0,0,0,0,0,0,0,0,0,0,0,0,0,0,0,0,0,0,0,0,0,0,0,0,0,0,0,0,0,,NATIONAL STARCH & CHEMICAL CO,001519230
1999,08103STTMT941SO,STATE METAL INDUSTRIES INC,941 S SECOND ST,CAMDEN,CAMDEN,NJ,08103,39.933611,-75.128333,3341,,,,,,331314,,,,,,1399131084030,COPPER,007440508,NO,NON-PBT,YES,1,NO,A,Pounds,0,0,0,0,0,0,0,0,0,0,0,0,0,0,0,0,0,0,0,0,0,0,0,0,0,0,0,0,0,0,0,0,0,0,0,0,0,0,0,0,0,0,0,0,0,0,0,0,0,0,0,0,0,0,0,0,0,0,0,0,0,0,0,0,,NA,NA
1999,07008SHLND350RO,ASHLAND DISTRIBUTION CO,350 ROOSEVELT AVE,CARTERET,MIDDLESEX,NJ,07008,40.578611,-74.215278,5169,,,,,,424690,,,,,,1399131084081,NAPHTHALENE,000091203,YES,NON-PBT,NO,0,NO,A,Pounds,0,0,0,0,0,0,0,0,0,0,0,0,0,0,0,0,0,0,0,0,0,0,0,0,0,0,0,0,0,0,0,0,0,0,0,0,0,0,0,0,0,0,0,0,0,0,0,0,0,0,0,0,0,0,0,0,0,0,0,0,0,0,0,0,,ASHLAND INC,005003264
1999,07626HKNCR1TENA,HOKE INC.,1 TENAKILL PARK,CRESSKILL,BERGEN,NJ,07626,40.939967,-73.963008,3491,,,,,,332911,,,,,,1399135024723,NICKEL,007440020,YES,NON-PBT,YES,1,YES,R,Pounds,0,0,0,0,0,0,0,0,0,0,0,0,0,3,0,3,0,0,0,0,0,0,73,0,0,0,0,0,0,0,0,0,0,73,0,0,14477,0,0,14477,0,0,0,0,0,0,0,0,0,0,76,74,0,0,0,0,0,0,0,14479,0,0,14553,0,.69,WATTS INDS,152163093
1999,07105TRYCHONEAV,TROY CHEMICAL CORP,ONE AVE L,NEWARK,ESSEX,NJ,07105,40.717048,-74.145105,2851,,,,,,325510,,,,,,1399135040590,CUMENE,000098828,YES,NON-PBT,NO,0,NO,R,Pounds,5,5,0,0,0,0,0,0,0,0,0,0,10,0,250,250,0,0,0,0,0,0,0,0,0,0,0,0,0,0,0,630,0,630,0,0,0,0,0,0,0,0,0,0,0,0,0,0,0,0,640,20,0,0,0,0,0,0,0,0,0,933,953,0,1.09,TROY CORP,NA
1999,07801GLSST114IR,GLOSS TEX INDUSTRIES,114 IRON MOUNTAIN RD.,MINE HILL,MORRIS,NJ,07803,40.886253,-74.601748,2851,,,,,,325510,,,,,,1399135080265,TOLUENE,000108883,YES,NON-PBT,NO,0,NO,R,Pounds,15,303,0,0,0,0,0,0,0,0,0,0,318,0,0,0,0,0,0,0,0,0,0,0,0,0,0,0,0,0,0,0,0,0,0,0,0,0,0,0,1074,0,1074,0,0,0,0,0,0,0,318,318,0,0,0,0,0,1074,0,0,0,0,1392,0,.94,KIRKER ENTERPRISES INC,NA
1999,08876FSHRS755RT,FISHER SCIENTIFIC CO LLC,755 RT 202,BRIDGEWATER,SOMERSET,NJ,08807,40.571703,-74.664815,5169,,,,,,424690,,,,,,1399131076364,"N,N-DIMETHYLFORMAMIDE",000068122,YES,NON-PBT,NO,0,YES,A,Pounds,0,0,0,0,0,0,0,0,0,0,0,0,0,0,0,0,0,0,0,0,0,0,0,0,0,0,0,0,0,0,0,0,0,0,0,0,0,0,0,0,0,0,0,0,0,0,0,0,0,0,0,0,0,0,0,0,0,0,0,0,0,0,0,0,,FISHER SCIENTIFIC CO LLC,004321519
1999,08818CNLXC226TA,SHERWIN-WILLIAMS CO. (DBA CONLUX COATINGS),226 TALMADGE RD.,EDISON,MIDDLESEX,NJ,088180847,40.538222,-74.398333,2851,,,,,,325510,,,,,,1399131061107,NICKEL COMPOUNDS,N495,YES,NON-PBT,YES,1,NO,A,Pounds,0,0,0,0,0,0,0,0,0,0,0,0,0,0,0,0,0,0,0,0,0,0,0,0,0,0,0,0,0,0,0,0,0,0,0,0,0,0,0,0,0,0,0,0,0,0,0,0,0,0,0,0,0,0,0,0,0,0,0,0,0,0,0,0,,SHERWIN-WILLIAMS CO,004206397
1999,07001VNWTR160ES,VAN WATERS & ROGERS INC.,160 ESSEX AVE.,AVENEL,MIDDLESEX,NJ,070012020,40.57493,-74.261465,5169,,,,,,424690,,,,,,1399131065219,FORMIC ACID,000064186,NO,NON-PBT,NO,0,NO,A,Pounds,0,0,0,0,0,0,0,0,0,0,0,0,0,0,0,0,0,0,0,0,0,0,0,0,0,0,0,0,0,0,0,0,0,0,0,0,0,0,0,0,0,0,0,0,0,0,0,0,0,0,0,0,0,0,0,0,0,0,0,0,0,0,0,0,,VAN WATERS & ROGERS INC,102971785
1999,07080HMMLC10HAR,HUMMEL CROTON INC,10 HARMICH RD,SOUTH PLAINFIELD,MIDDLESEX,NJ,07080,40.568858,-74.400789,2819,,,,,,325188,,,,,,1399135084198,CHROMIUM COMPOUNDS(EXCEPT CHROMITE ORE MINED IN THE TRANSVAAL REGION),N090,YES,NON-PBT,YES,1,NO,R,Pounds,5,0,0,0,0,0,0,0,0,0,0,0,5,0,0,0,0,0,0,0,0,0,0,0,0,0,0,0,0,0,0,0,0,0,0,0,0,0,0,0,0,0,0,0,0,0,0,0,0,0,5,1,0,0,0,0,0,0,0,0,0,0,1,0,.87,NA,NA
1999,07105FRMNT117BL,FAIRMOUNT CHEMICAL CO. INC.,117 BLANCHARD ST.,NEWARK,ESSEX,NJ,071054726,40.738742,-74.129493,2869,,,,,,325000,,,,,,1399135103253,METHANOL,000067561,YES,NON-PBT,NO,0,NO,R,Pounds,700,350,0,0,0,0,0,0,0,0,0,0,1050,0,472272,472272,0,0,0,0,0,0,0,0,0,0,0,0,0,0,0,0,0,0,0,0,0,0,0,0,0,0,0,0,0,0,0,0,0,0,1050,1050,0,0,0,0,0,0,0,0,0,472272,473322,0,,NA,NA
1999,07057HSCHM5264V,H S CHEMICAL CO. INC.,52-64 VAN DYKE ST,WALLINGTON,BERGEN,NJ,07057,40.845355,-74.101953,2865,,,,,,325132,,,,,,1399135111274,ANILINE,000062533,YES,NON-PBT,NO,0,NO,R,Pounds,75,3,0,0,0,0,0,0,0,0,0,0,78,0,2642,2642,0,0,0,0,0,0,0,0,0,0,0,0,0,0,0,0,0,0,0,0,0,0,0,0,0,0,0,0,0,0,0,0,0,0,78,3904,0,0,0,0,0,0,0,0,0,3371,7275,0,.89,NA,NA
1999,08352NTLRF661KE,NATIONAL REFRIGERANTS INC,661 KENYON AVE,ROSENHAYN,CUMBERLAND,NJ,08352,39.481713,-75.122464,5169,,,,,,424690,,,,,,1399135168728,MONOCHLOROPENTAFLUOROETHANE,000076153,NO,NON-PBT,NO,0,NO,R,Pounds,3403,7726,0,0,0,0,0,0,0,0,0,0,11129,0,0,0,0,0,0,0,0,0,0,0,0,0,0,0,0,0,0,0,0,0,0,0,0,0,0,0,0,0,0,0,0,0,0,0,0,0,11129,11129,0,0,0,0,0,0,0,0,0,0,11129,0,1.29,NA,NA
1999,08352NTLRF661KE,NATIONAL REFRIGERANTS INC,661 KENYON AVE,ROSENHAYN,CUMBERLAND,NJ,08352,39.481713,-75.122464,5169,,,,,,424690,,,,,,1399135168805,DICHLORODIFLUOROMETHANE,000075718,NO,NON-PBT,NO,0,NO,R,Pounds,3494,15072,0,0,0,0,0,0,0,0,0,0,18566,0,0,0,0,0,0,0,0,0,0,0,0,0,0,0,0,0,0,0,0,0,0,0,0,0,0,0,0,0,0,0,0,0,0,0,0,0,18566,18566,0,0,0,0,0,0,0,0,0,0,18566,0,1.37,NA,NA
1999,08901FRRND99JER,FERRO INDUSTRIES INC.,99 JERSEY AVE,NEW BRUNSWICK,MIDDLESEX,NJ,08901,40.488611,-74.457778,3089,,,,,,325211,,,,,,1399135113658,DI(2-ETHYLHEXYL) PHTHALATE,000117817,YES,NON-PBT,NO,0,YES,R,Pounds,325,2926,0,0,0,0,0,0,0,0,0,0,3251,0,0,0,0,0,0,0,0,0,0,0,0,0,0,0,0,0,0,0,0,0,0,0,0,0,0,0,0,0,0,0,0,0,0,0,0,0,3251,3251,0,0,0,0,0,0,0,0,0,0,3251,0,1.2,NA,NA
1999,07901CBGGY556MO,NOVARTIS PHARMACEUTICALS CORP.,556 MORRIS AVE.,SUMMIT,UNION,NJ,079011398,40.727902,-74.375401,2834,2833,,,,,325412,,,,,,1399135137242,NAPHTHALENE,000091203,YES,NON-PBT,NO,0,NO,R,Pounds,0,1,0,0,0,0,0,0,0,0,0,0,1,0,0,0,0,0,0,0,0,0,0,0,0,0,0,0,0,0,0,0,0,0,0,0,0,0,0,0,0,0,0,0,0,0,0,0,0,0,1,1,0,0,0,0,0,0,0,0,0,0,1,0,11.9,NOVARTIS CORP,001221845
1999,08103CMDTT1501P,CAMDETT CORP,1501 PINE ST,CAMDEN,CAMDEN,NJ,08103,39.78005,-74.99569,2819,2873,,,,,325188,,,,,,1399135233361,AMMONIA,007664417,NO,NON-PBT,NO,0,NO,R,Pounds,937,165398,0,0,0,0,0,0,0,0,0,0,166335,0,0,0,0,0,0,0,0,0,0,0,0,0,0,0,0,0,0,0,0,0,0,0,0,0,0,0,0,0,0,0,0,0,0,0,0,0,166335,166335,0,0,0,0,0,0,0,0,936321,0,1102656,0,1.08,NA,NA
