REPORTING YEAR	TITLE OF CERTIFYING OFFICIAL	NAME OF CERTIFYING OFFICIAL	TRIFID	FACILITY NAME	FACILITY STREET	FACILITY CITY	FACILITY COUNTY	FACILITY STATE	FACILITY ZIP CODE	MAILING NAME	MAILING STREET	MAILING CITY	MAILING STATE	MAILING PROVINCE	MAILING ZIP CODE	ENTIRE FACILITY IND	PARTIAL FACILITY IND	FEDERAL FACILITY IND	GOCO FACILITY IND	PUBLIC CONTACT NAME	PUBLIC CONTACT PHONE	PRIMARY SIC CODE	SIC CODE 2	SIC CODE 3	SIC CODE 4	SIC CODE 5	SIC CODE 6	NAICS ORIGIN	PRIMARY NAICS CODE	NAICS CODE 2	NAICS CODE 3	NAICS CODE 4	NAICS CODE 5	NAICS CODE 6	LATITUDE	LONGITUDE	DB NR A	DB NR B	RCRA NR A	RCRA NR B	NPDES NR A	NPDES NR B	UIC NR A	UIC NR B	PARENT COMPANY NAME	PARENT COMPANY DB NR	ASSIGNED FED. FACILITY FLAG	PUBLIC CONTACT EMAIL	20-NOV-13	
2012	ENVIRONMENTAL, HEALTH AND SAFETY MANAGER	GARY CUSHING	42025LCBNDSYMSO	3A COMPOSITES USA INC	280 W 5TH ST	BENTON	MARSHALL	KY	42025	3A COMPOSITES USA INC	280 W 5TH ST	BENTON	KY		42025	YES	NO	NO	NO	GARY A. CUSHING	2705274278	3081	3083						326130						36.83375	-88.358778	056819287								3A COMPOSITES USA INC		NO	GARY.CUSHING@3ACOMPOSITES.COM	
2012	PLANT MANAGER	COLLEEN EMERY	41031MCMPNNEWLA	3M CO - CYNTHIANA	1308 NEW LAIR RD	CYNTHIANA	HARRISON	KY	41031	3M CO - CYNTHIANA	1308 NEW LAIR RD	CYNTHIANA	KY		41031	YES	NO	NO	NO	COLLEEN EMERY	8592345671	2672							322222	322233	326112				38.374346	-84.29449	050660836								3M CO	006173082	NO	CMEMERY1@MMM.COM	
2012	MANAGER - TECHNICAL SERVICES	MICHAEL SIEROCKI	41042SMTHC8160H	A O SMITH CORP PROTECTIVE COATINGS DIV	8160 HOLTON DR	FLORENCE	KENTON	KY	41042	A O SMITH CORP PROTECTIVE COATINGS DIV	8160 HOLTON DR	FLORENCE	KY		41042	YES	NO	NO	NO	GLENN PFENDT	8597273500	2899							325510						38.975	-84.61	116229865								A O SMITH CORP	006085815	NO	GPFENDT@HOTWATER.COM	
2012	ENVIRONMENTAL, HEALTH AND SAFETY MANAGER	SCOTT WELSH	40201GLDNF2500S	AARHUSKARLSHAMN AAK	2520 S 7TH ST	LOUISVILLE	JEFFERSON	KY	40216	AARHUSKARLSHAMN AAK	2520 S 7TH ST	LOUISVILLE	KY		40216	YES	NO	NO	NO	SCOTT WELSH	2013412565	2079							311225						38.214514	-85.783019	064884786										NO	SCOTT.WELSH@AAK.COM	
2012	PRESIDENT	RONNIE ELKINS	40741CCNTM2CKIE	ACCENT MARBLE INC	200 COOKIE ST	LONDON	LAUREL	KY	40741	ACCENT MARBLE INC	200 COOKIE ST	LONDON	KY		40741	YES	NO	NO	NO	DERMOT KERIN	3193936336								326191						37.11374	-84.07362	146213228								ACCENT MARBLE CO INC		NO	DERMOT.KERIN@TETRATECH.COM	
2012	DIRECTOR OF OPERATIONS	AUSTIN HAMMOND	42420CCRDC2315A	ACCURIDE CORP	2315 ADAMS LN	HENDERSON	HENDERSON	KY	42420	ACCURIDE CORP	2315 ADAMS LN	HENDERSON	KY		42420	YES	NO	NO	NO	WILLIAM DANE FULLER	2708276808	3714							336399						37.814167	-87.551944	001213149								ACCURIDE CORP	001213149	NO	DFULLER@ACCURIDECORP.COM	
2012	FINANCIAL ASSTN:	CURT TACKETT	41653CTNPT10BAL	ACTION PETROLEUM CO LTD	10 BALDWIN ST	PRESTONSBURG	FLOYD	KY	41653	ACTION PETROLEUM CO LTD	PO BOX 609	PRESTONSBURG	KY		41653	YES	NO	NO	NO	TIM MCDONALD	6068862368	5171							424720						37.671944	-82.783056	024162075										NO	TIMMCDONALD@SETEL.COM	
2012	MANAGER	LOUIS  TURNER	42420SPRSW1921M	ADM ALLIANCE NUTRITION INC	1921 MADISON ST	HENDERSON	HENDERSON	KY	42420	ADM ALLIANCE NUTRITION INC	PO BOX 1350	HENDERSON	KY		42420	YES	NO	NO	NO	LOUIS TURNER	2708272043	2048							115210						37.80452	-87.574738	849684428								ARCHER DANIELS MIDLAND CO	001307586	NO	LOUIS.TURNER@ADM.COM	
2012	PLANT MANAGER	SCOTT GUENTHER	42701PTCHN1AUTO	AGC NA	1 AUTO GLASS DR	ELIZABETHTOWN	HARDIN	KY	42701	AGC NA	1 AUTO GLASS DR	ELIZABETHTOWN	KY		42701	YES	NO	NO	NO	MARK SPAULDING	2707658267	3231							327215						37.6675	-85.900472	195036272								AGC FLAT GLASS N.A.		NO	MARK.SPAULDING@US.AGC.COM	
2012	PLANT MANAGER	DENNIS MOLLE'	42431FLTRTHIGHW	AHLSTROM FILTRATION LLC	215 NEBO RD	MADISONVILLE	HOPKINS	KY	42431	AHLSTROM FILTRATION LLC	215 NEBO RD	MADISONVILLE	KY		42431	YES	NO	NO	NO	SHAD CLAYTON	2708241566	2621							322121						37.343056	-87.524444	121786040								AHLSTROM		NO	SHAD.CLAYTON@AHLSTROM.COM	
2012	EXECUTIVE VICE PRESIDENT OF OPERATIONS	CHUCK LATTA	40324LSVLL596TR	AICHI FORGE USA INC	596 TRIPORT RD	GEORGETOWN	SCOTT	KY	40324	AICHI FORGE USA INC	596 TRIPORT RD	GEORGETOWN	KY		40324	YES	NO	NO	NO	JEFF PORTWOOD	5025705365	3462							332111						38.289167	-84.553333	131524738								AICHI CORP LLC		NO	JEFF_PORTWOOD@AICHIFORGE.COM	
2012	PLANT MANAGER	MITCH TILLMAN	42029RPRDCHIGHW	AIR PRODUCTS & CHEMICALS INC	412 N MAIN ST	CALVERT CITY	MARSHALL	KY	420290097	AIR PRODUCTS & CHEMICALS INC	PO BOX 97	CALVERT CITY	KY		420290097	YES	NO	NO	NO	ANGELA TUCKER-PEELER	2703953707	2869							325199						37.044796	-88.349313	055831838								AIR PRODUCTS & CHEMICALS INC		NO	TUCKERAJ@AIRPRODUCTS.COM	
2012	ENVIRONMENTAL HEALTH AND SAFETY SPECIALIST	MARK FARLEY	40744SNTMT4870E	AISIN AUTOMOTIVE CASTING LLC	4870 E HWY 552	LONDON	LAUREL	KY	40744	AISIN AUTOMOTIVE CASTING LLC	4870 E HWY 552	LONDON	KY		40744	YES	NO	NO	NO	MARK FARLEY	6068786523	3363	3714						331521						37.019444	-84.12	008892929								AISIN HOLDINGS OF AMERICA	121400142	NO	MFARLEY@AISINAUTO.COM	
2012	ENVIRONMENTAL AFFAIRS MANAGER	CHARLES GIBSON	41105RMCSHUSROU	AK STEEL CORP	170 ARMCO RD	ASHLAND	BOYD	KY	41101	AK STEEL CORP	170 ARMCO RD	ASHLAND	KY		41101	YES	NO	NO	NO	BARRY RACEY	5134252749	3312							331111						38.495556	-82.665556	606072130								AK STEEL CORP	606072130	NO	BARRY_RACEY@AKSTEEL.COM	
2012	SENIOR ENVIRONMENTAL ENGINEER	DAVID PEDIGO	42701MBRKC300RI	AKEBONO - ELIZABETHTOWN PLANT	300 RING RD	ELIZABETHTOWN	HARDIN	KY	42701	AKEBONO - ELIZABETHTOWN PLANT	300 RING RD	ELIZABETHTOWN	KY		42701	YES	NO	NO	NO	BRANDON KESSINGER	2702345580	3714							336340						37.683611	-85.9175	174899146		KYD981753197		KY0089672				AKEBONO BRAKE INDUSTRY CO LTD	029350613	NO		
2012	FACILITIES MANAGER	ERIC SWAFFORD	42141MKBRK1765C	AKEBONO BRAKE  CORP - GLASGOW	1765 CLEVELAND AVE	GLASGOW	BARREN	KY	42141	AKEBONO BRAKE  CORP - GLASGOW	1765 CLEVELAND AVE	GLASGOW	KY		42141	YES	NO	NO	NO	ERIC SWAFFORD	2706781765	3714							336340						36.988375	-85.938026	883762718								AKEBONO BRAKE INDUSTRY CO LTD		NO		
2012	PLANT MANAGER	JASON YOUNG	42420LCNNGKENTU	ALCAN PRIMARY PRODUCTS CORP SEBREE WORKS	9404 STATE RT 2096	ROBARDS	HENDERSON	KY	42452	ALCAN PRIMARY PRODUCTS CORP SEBREE WORKS	9404 STATE RT 2096	ROBARDS	KY		42452	YES	NO	NO	NO	JASON YOUNG	2705217300	3334							331312						37.6569	-87.5006	001504935								ALCAN CORP	001504935	NO	JYOUNG@CENTURYKY.COM	
2012	PLANT MANAGER	TY BROWN	42261MCRCY609GA	ALERIS RECYCLING INC	805 GARDNER LN	MORGANTOWN	BUTLER	KY	42261	ALERIS RECYCLING INC	805 GARDNER LN	MORGANTOWN	KY		42261	YES	NO	NO	NO	TY BROWN	2705260511	3341							331314						37.202778	-86.721944	602844995								ALERIS RECYCLING INC.		NO	TY.BROWN@ALERIS.COM	
2012	DIRECTOR OF OPERATIONS	MICHAEL CARTER	42351CMMNWKYHWY	ALERIS ROLLED PRODUCTS INC	1372 KY HWY 1957	LEWISPORT	HANCOCK	KY	42351	ALERIS ROLLED PRODUCTS INC	1372 KY HWY 1957	LEWISPORT	KY		42351	YES	NO	NO	NO	MICHAEL CARTER	2702955021	3341	3355	3479					331314	332812	331315				37.936665	-86.858852	800727286								ALERIS ROLLED PRODUCTS INC.		NO	MICHAEL.CARTER@ALERIS.COM	
2012	VICE PRESIDENT TUBING OPERATIONS	DAVID BRAUTIGAN	42240PTCLL5PLAN	ALLIANCE TUBULAR HOLDINGS LLC	500 FRANK YOST LN	HOPKINSVILLE	CHRISTIAN	KY	42240	ALLIANCE TUBULAR HOLDINGS LLC	500 FRANK YOST LN	HOPKINSVILLE	KY		42240	YES	NO	NO	NO	HENRY JARBOE	4122992641	3317							331210						36.802778	-87.384722	969454974								PTC ALLIANCE HOLDINGS CORP	964516137	NO	HENRY.JARBOE@PTCALLIANCE.COM	
2012	MANAGER OF MANUFACTURING	KARL GLAFENHEIN	40444LLSNB163IN	ALLISON ABRASIVES INC	141 INDUSTRY RD	LANCASTER	GARRARD	KY	40444	ALLISON ABRASIVES INC	PO BOX 192	LANCASTER	KY		40444	YES	NO	NO	NO	JAMES MINTEER	8597927038	3291							327910						37.601111	-84.579444											NO	ALLISONPRES@AOL.COM	
2012	OPERATIONS MANAGER	KEVIN E. WELSH	40391LLTCH65RLL	ALLTECH INC	605 ROLLING HILLS LN	WINCHESTER	CLARK	KY	40391	ALLTECH INC	605 ROLLING HILLS LN	WINCHESTER	KY		40391	YES	NO	NO	NO	KEVIN E. WELSH	8597445272								311119						38.01059	-84.179708	037853744										NO	KWELSH@ALLTECH.COM	
2012	GENERAL MANAGER	MICHAEL BAKER	4101WLSTMP15JAM	ALSTOM POWER INC	1500 JAMIKE AVE	ERLANGER	BOONE	KY	41018	ALSTOM POWER INC	1500 JAMIKE AVE	ERLANGER	KY		41018	YES	NO	NO	NO	MR. MICHAEL BAKER	8594880999								333319						39.044167	-84.6325	125377692								ALSTOM INC	125377692	NO	MICHAEL.R.BAKER@POWER.ALSTOM.COM	
2012	CORPORATE SECRETARY	RUTH PAYNE	40208MRCNB2300S	AMERICAN BLUEGRASS MARBLE CO INC	1510 ALGONQUIN PKWY	LOUISVILLE	JEFFERSON	KY	40210	AMERICAN BLUEGRASS MARBLE CO INC	1510 ALGONQUIN PKWY	LOUISVILLE	KY		40210	YES	NO	NO	NO	DENNY PAYNE	5026344417	3088							326199						38.214978	-85.763877	077864478										NO	DENNY@AMERICANBLUEGRASSMARBLE.COM	
2012	DIRECTOR - AIR QUALITY SERVICES	JOHN HENDRICKS	41230BGSNDUS236	AMERICAN ELECTRIC POWER BIG SANDY PLANT	US 23 6 MILES N	LOUISA	LAWRENCE	KY	41230	AMERICAN ELECTRIC POWER BIG SANDY PLANT	1 RIVERSIDE PLAZA	COLUMBUS	OH		43215	YES	NO	NO	NO	RONN ROBINSON	5026967003	4911							221112						38.171401	-82.617758	004862439								AMERICAN ELECTRIC POWER	006979868	NO	RGROBINSON@AEP.COM	
2012	PLANT MANAGER	KIM BLACKMAN	40004MRCNG800AM	AMERICAN GREETINGS	800 AMERICAN DR	BARDSTOWN	NELSON	KY	40004	AMERICAN GREETINGS	800 AMERICAN DR	BARDSTOWN	KY		40004	YES	NO	NO	NO	CHRIS SURFACE	5023481000	2771							322299						37.836667	-85.419444	004180022								AMERICAN GREETINGS CORP	004180022	NO	CHRIS.SURFACE@AMGREETINGS.COM	
2012	PLANT MANAGER	GARY MCPEAK	4210WMRCNH445JD	AMERICAN HOWA KENTUCKY INC	445 JODY RICHARDS DR	BOWLING GREEN	WARREN	KY	42101	AMERICAN HOWA KENTUCKY INC	445 JODY RICHARDS DR	BOWLING GREEN	KY		42101	YES	NO	NO	NO	RYAN HAGGERTY	2705634400								336360						37.037222	-86.328056	011827279										NO	R-HAGGERTY@AHK-HOWA.COM	
2012	COO	BRADLEY KARAS	40216MRCNS4500C	AMERICAN SYNTHETIC RUBBER CO	4500 CAMPGROUND RD	LOUISVILLE	JEFFERSON	KY	40216	AMERICAN SYNTHETIC RUBBER CO	PO BOX 32960	LOUISVILLE	KY		40232	YES	NO	NO	NO	BEN BROWN	5024498306	2822							325212						38.209317	-85.847511	006382857								MICHELIN NA INC.	044691848	NO	BEN.BROWN@US.MICHELIN.COM	
2012	VP PRODUCTION /  PLANT MANAGER	STEVE BUCHANAN	42240MFNCH6805J	AMFINE CHEMICAL CORP	6805 JOHN RIVERS RD	HOPKINSVILLE	CHRISTIAN	KY	42240	AMFINE CHEMICAL CORP	6805 JOHN RIVERS RD	HOPKINSVILLE	KY		42240	YES	NO	NO	NO	JULIE DAVIS	2704759870	2869							325199						36.790449	-87.378331	847934924										NO	JDAVIS@AMFINEKY.COM	
2012	PLANT MANAGER	RODNEY CARVER	42452KBLLYMCDON	AMG ALUMINUM NA LLC	3293 MCDONALD RD	ROBARDS	HENDERSON	KY	424529755	AMG ALUMINUM NA LLC	3293 MCDONALD RD	ROBARDS	KY		42452-9755	YES	NO	NO	NO	RODNEY CARVER	2705216681	3365	3339						331524						37.652822	-87.53334	175804590								AMG ALUMINUM N.A. LLC	175804590	NO	RCARVER@AMG-AL.COM	
2012	PLANT MANAGER	DAVID SPALT	40108LNCRPHIGHW	ARCH CHEMICALS INC	2450 OLIN RD	BRANDENBURG	MEADE	KY	40108	ARCH CHEMICALS INC	2450 OLIN RD	BRANDENBURG	KY		40108	YES	NO	NO	NO	DAVE SPALT	2704226939	2869							325199						38.004944	-86.1225	006396246								LONZA	001643170	NO	DSPALT@MONUMENTCHEMICAL.COM	
2012	VICE PRESIDENT, OPERATIONS	JOHN WITTENAUER	41042RSTCH7350E	ARISTECH ACRYLICS LLC	7350  EMPIRE DR	FLORENCE	BOONE	KY	41042	ARISTECH ACRYLICS LLC	7350  EMPIRE DR	FLORENCE	KY		41042	YES	NO	NO	NO	JARED KIRK	8595384813	3081							326113						38.975833	-84.622222	002154545								SK CAPITAL PARTNERS	808064724	NO	JKIRK@ARISTECHACRYLICS.COM	
2012	SR. HES MANAGER	KIM KNOTTS	42029PNNWLALTON	ARKEMA INC	4444 INDUSTRIAL PKWY	CALVERT CITY	MARSHALL	KY	42029	ARKEMA INC	PO BOX 187	CALVERT CITY	KY		42029	YES	NO	NO	NO	JEFF HALL	2703956364	2819	2821	2869					325188	325199	325211				37.06	-88.371389	002290773								ARKEMA DELAWARE INC	622121697	NO	JEFF.HALL@ARKEMA.COM	
2012	PLANT MANAGER	DARWIN LEE	40216LFTCH4350C	ARKEMA INC LOUISVILLE PLANT	4350 CAMPGROUND RD	LOUISVILLE	JEFFERSON	KY	40216	ARKEMA INC LOUISVILLE PLANT	4350 CAMPGROUND RD	LOUISVILLE	KY		40216	YES	NO	NO	NO	DARWIN LEE	5024496118	2821							326199						38.209412	-85.84417	622121697								ARKEMA DELAWARE INC	622121697	NO	DARWIN.LEE@ARKEMA.COM	
2012	EHS MANAGER	SAM BAKER	42501HRTCF630IN	ARMSTRONG HARDWOOD FLOORING CO	630 INDUSTRY RD LAKE CUMBERLAND INDUSTRIAL PAR	SOMERSET	PULASKI	KY	42501	ARMSTRONG HARDWOOD FLOORING CO	630 INDUSTRY RD LAKE CUMBERLAND INDUSTRIAL PAR	SOMERSET	KY		42501	YES	NO	NO	NO	ED SMART	6066766730	2435							321918						37.053889	-84.578889	139557607								ARMSTRONG WORLD INDUSTRIES INC	001307792	NO	EWSMART@ARMSTRONG.COM	
2012	PLANT MANAGER	GREG SMITH	40011LCFJK461IN	ARVIN SANGO INC	461 CITATION LN	CAMPBELLSBURG	HENRY	KY	40011	ARVIN SANGO INC	461 CITATION LN	CAMPBELLSBURG	KY		40011	YES	NO	NO	NO	MELISSA WILLIAMS	8122737354	3714							336399						38.51499	-85.22916	184697241								ARVIN SANGO INC	184697241	NO	MELISSA.WILLIAMS@ARVINSANGO.COM	
2012	PRESIDENT	SHAWN HOOVER	42066HVRCN554JI	ATLAS EQUIPMENT SERVICES INC	554 JIMTOWN RD	MAYFIELD	GRAVES	KY	42066	ATLAS EQUIPMENT SERVICES INC	PO BOX 554	MAYFIELD	KY		42066	YES	NO	NO	NO	SHAWN HOOVER	2702519111	3535							333922						36.767666	-88.649443											NO		
2012	PLANT MANAGER	TIMOTHY BACH	40361MLLNCHIGHW	AVANTOR PERFORMANCE MATERIALS	7001 MARTIN LUTHER KING BLVD	PARIS	BOURBON	KY	40361	AVANTOR PERFORMANCE MATERIALS	PO BOX 800	PARIS	KY		40362	YES	NO	NO	NO	CHRIS OSGOOD	8599879423	2819	2869						325199						38.228958	-84.249413	084758069								NEW MOUNTAIN CAPITAL	263905417	NO	CHRISTOPHER.OSGOOD@AVANTORMATERIALS.COM	
2012	OPERATION MANAGER	GREGORY MALYSZEK	40214NTDDF163RO	BAE SYSTEMS	163 ROCHESTER DR	LOUISVILLE	JEFFERSON	KY	402142683	BAE SYSTEMS	163 ROCHESTER DR	LOUISVILLE	KY		40214-2683	YES	NO	NO	NO	CORINNE GREENBERG	5023646474	3489							332995						38.17062	-85.76025	006481543		KYR000007112						BAE SYSTEMS INC	006481543	NO	CORINNE.GREENBERG@BAESYSTEMS.COM	
2012	AVP PLANT OPERATIONS	PAUL REINBOLT	40065BNDMN2720P	BANDO USA INC	2720 PIONEER DR	BOWLING GREEN	WARREN	KY	42101	BANDO USA INC	2720 PIONEER DR	BOWLING GREEN	KY		42101	YES	NO	NO	NO	PAUL REINBOLT	2708424110	3052							326220						36.95605	-86.486265	187168885										NO	PAULR@BANDOUSA.COM	
2012	SITE DIRECTOR	SCOTT ELLIOTT	40212NGLHR3400B	BASF CORP	3400 BANK ST	LOUISVILLE	JEFFERSON	KY	40212	BASF CORP	3400 BANK ST	LOUISVILLE	KY		40212	YES	NO	NO	NO	JASON PFEIFFER	5027757269	2865	2851						325132	325510					38.27227	-85.80322	108347352								BASF CORP	071014385	NO	JASON.PFEIFFER@BASF.COM	
2012	BECORP PRESIDENT	RICK MCWHIRT	40065BKRRT100IS	BEKAERT CORP	2000 ISAAC SHELBY DR	SHELBYVILLE	SHELBY	KY	40065	BEKAERT CORP	2000 ISAAC SHELBY DR	SHELBYVILLE	KY		40065	YES	NO	NO	NO	RICK MCWHIRT	4796317661	3315	3398	3471					331222						38.203889	-85.276111	051525129								BEKAERT NV	051525129	NO	RICK.MCWHIRT@BEKAERT.COM	
2012	PLANT MANAGER	TRENT SCHMIDGALL	42633BLDNWWESTH	BELDEN WIRE & CABLE	1200 W COLUMBIA AVE	MONTICELLO	WAYNE	KY	42633	BELDEN WIRE & CABLE	1200 W COLUMBIA AVE	MONTICELLO	KY		42633	YES	NO	NO	NO	TRENT SCHMIDGALL	6063403500	3644	3643						335932						36.840571	-84.863346	809430325								BELDEN INC	009178666	NO	TRENT.SCHMIDGALL@BELDEN.COM	
2012	PLANT MANAGER	ERIC SPARKS	40065LSSSF6700M	BEMIS PACKAGING LLC	6700 MIDLAND INDUSTRIAL DR	SHELBYVILLE	SHELBY	KY	40065	BEMIS PACKAGING LLC	6700 MIDLAND INDUSTRIAL DR	SHELBYVILLE	KY		40065	YES	NO	NO	NO	ERIC SPARKS	5026472396	2671	2754						323111	323112	322221				38.223108	-85.250424	061870101								BEMIS CO INC	006477061	NO	ERIC.SPARKS@BEMIS.COM	
2012	CHIEF OPERATING OFFICER	KENNETH DOWNS	40214BNKWR5540N	BENEKE WIRE CO	5540 NATIONAL TURNPIKE	LOUISVILLE	JEFFERSON	KY	40214	BENEKE WIRE CO	5540 NATIONAL TURNPIKE	LOUISVILLE	KY		40214	YES	NO	NO	NO	KENNETH DOWNS	5023676434	3355							331319	332811					38.151389	-85.764167	042942622										NO	KDOWNS@BENEKEWIRE.COM	
2012	MANAGER ENVIRONMENTAL SERVICES	BRADLEY COYLE	42348CLMN04982R	BIG RIVERS ELECTRIC CORP COLEMAN STATION	4982 RIVER RD	HAWESVILLE	HANCOCK	KY	42348	BIG RIVERS ELECTRIC CORP COLEMAN STATION	PO  BOX. 24 201 3RD ST	HENDERSON	KY		424190024	YES	NO	NO	NO	MARTY LITTREL	2708446153	4911							221112						37.9628	-86.7917	004860730		KYD000622928		KY0001937				BIG RIVERS ELECTRIC CORP	004860730	NO	MARTY.LITTREL@BIGRIVERS.COM	
2012	MANAGER ENVIRONMENTAL SERVICES	BRADLEY COYLE	42452RDGRN9000H	BIG RIVERS ELECTRIC CORP REID/GREEN/HMP&L STATION II	9000 HWY 2096	ROBARDS	HENDERSON	KY	42452	BIG RIVERS ELECTRIC CORP REID/GREEN/HMP&L STATION II	PO BOX 24 201 3RD ST	HENDERSON	KY		424190024	YES	NO	NO	NO	MARTY LITTREL	2708446153	4911							221112						37.6467	-87.5006	004860730		KYD991276775		KY0001929				BIG RIVERS ELECTRIC CORP	004860730	NO	MARTY.LITTREL@BIGRIVERS.COM	
2012	MANAGER ENVIRONMENTAL SERVICES	BRADLEY COYLE	42350WLSNSHWY85	BIG RIVERS ELECTRIC CORP WILSON STATION	5663 STATE RT 85	CENTERTOWN	OHIO	KY	42328	BIG RIVERS ELECTRIC CORP WILSON STATION	PO BOX 24 201 3RD ST	HENDERSON	KY		424190024	YES	NO	NO	NO	MARTY LITTREL	2708446153	4911							221112						37.4497	-87.0803	004860730		KYD012576786		KY0054836				BIG RIVERS ELECTRIC CORP	004860730	NO	MARTY.LITTREL@BIGRIVERS.COM	
2012	PLANT MANAGER	CHAD OWENS	40258PTXFD834CA	BIORIGIN/ PTX FOOD CORP	8340 CANE RUN RD	LOUISVILLE	JEFFERSON	KY	40258	BIORIGIN/ PTX FOOD CORP	8340 CANE RUN RD	LOUISVILLE	KY		40258	YES	NO	NO	NO	CHAD OWENS	5027190108	2087							311999						38.13506	-85.89858									BIORIGIN		NO	CHAD.OWENS@BIORIGIN.NET	
2012		AMY JO CONDO	40065BLZPR111IS	BLAZE PRODUCTS	1101 ISAAC SHELBY DR	SHELBYVILLE	SHELBY	KY	40065	BLAZE PRODUCTS	PO BOX 1409	SHELBYVILLE	KY		40066	YES	NO	NO	NO	LINDA WHITTON, DIR. OF MATERIALS MGMT.	5026330650								325998						38.202803	-85.271958	932816143										NO	LINDA@BLAZEPRODUCTS.COM	
2012	QC MANAGER	CHRIS BALLARD	42141DRYMN1117C	BLUEGRASS DAIRY & FOOD INC	1117 CLEVELAND AVE	GLASGOW	BARREN	KY	42141	BLUEGRASS DAIRY & FOOD INC	1117 CLEVELAND AVE	GLASGOW	KY		42141	YES	NO	NO	NO	BILLY JOE WILLIAMS	2706512146	2023							311514						36.988889	-85.934167	927027813								BLUEGRASS DAIRY & FOOD LLC		NO		
2012	SAFETY MANAGER	LARRY HAYS	40741FLVRCJCTI7	BORDEN DAIRY	221 W HWY 80	LONDON	LAUREL	KY	40741	BORDEN DAIRY	221 W HWY 80	LONDON	KY		40741	YES	NO	NO	NO	LARRY HAYS	6068776254	2026							311511						37.141111	-84.106944	068329689								NATIONAL DAIRY HOLDINGS	107391083	NO	LARRY.HAYS@FLAVORICH.COM	
2012	PLANT MANAGER	AARON JOHNSON	4243WCMLKC234NR	BORDEN DAIRY OF MADISONVILLE	234 N SCOTT ST	MADISONVILLE	HOPKINS	KY	42431	BORDEN DAIRY OF MADISONVILLE	234 N SCOTT ST	MADISONVILLE	KY		42431	YES	NO	NO	NO	AARON JOHNSON	2708217221								311511						37.332103	-87.494664	007993009								LA LA USA	007993009	NO	AJOHNSON@BORDENDAIRY.COM	
2012	GENERAL MANAGER	ROBERT  TEIXEIRA	42103BWLNG111CS	BOWLING GREEN METALFORMING	111 COSMA DR	BOWLING GREEN	WARREN	KY	42101	BOWLING GREEN METALFORMING	111 COSMA DR	BOWLING GREEN	KY		42101	YES	NO	NO	NO	FRANK W. ERVIN III	2487294097	3714							336399	336370					37.03197	-86.31861	156852720								MARADA INDUSTRIES INC.		NO	FRANK.ERVIN@MAGNA.COM	
2012	PLANT MANAGER	JANET SMITH	40484DNBRK101IN	BRAKE PARTS INC	101 INDUSTRIAL PARK DR	STANFORD	LINCOLN	KY	40484	BRAKE PARTS INC	101 INDUSTRIAL PARK DR	STANFORD	KY		40484	YES	NO	NO	NO	JANET M. SMITH	6063654200	3714							336340						37.53	-84.6525	606230449								BRAKE PARTS INC.		NO	JAN.SMITH@AFFINIAGROUP.COM	
2012	DIRECTOR OF OPERATIONS	TERRY MELTON	42445BRMNR1475U	BREMNER INC BFG PRINCETON	1475 US HWY 62 W	PRINCETON	CALDWELL	KY	42445	BREMNER INC BFG PRINCETON	1475 US HWY 62 W	PRINCETON	KY		42445	YES	NO	NO	NO	TERRY MELTON	2703655505	2052							311821						37.106972	-87.918	826409369								RALCORP HOLDINGS INC	826409369	NO	TRMELTON@RALCORP.COM	
2012	CORPORATE SAFETY TECHNICIAN	GILES LEIGH	42420PBSCH1405H	BRENNTAG MID-SOUTH INC	1405 HWY 136 W	HENDERSON	HENDERSON	KY	42420	BRENNTAG MID-SOUTH INC	1405 HWY 136 W	HENDERSON	KY		42420	YES	NO	NO	NO	DAVID LEIGH	2708301303	5169							424690						37.80385	-87.652748	041167107								BRENNTAG N.A. INC		NO	DLEIGH@BRENNTAG.COM	
2012	CORPORATE SAFETY TECHNICIAN	GILES LEIGH	40216LRCHC3900T	BRENNTAG MID-SOUTH INC	3900 TUCKER AVE	LOUISVILLE	JEFFERSON	KY	40216	BRENNTAG MID-SOUTH INC	3900 TUCKER AVE	LOUISVILLE	KY		40216	YES	NO	NO	NO	DAVID LEIGH	2708301303	5169							424690						38.208889	-85.812222	041167107								BRENNTAG N.A. INC	041167107	NO	DLEIGH@BRENNTAG.COM	
2012	PLANT MANAGER	RODNEY BOHANNON	42071BRGGS110MA	BRIGGS & STRATTON CORP	110 MAIN ST	MURRAY	CALLOWAY	KY	42071	BRIGGS & STRATTON CORP	110 MAIN ST	MURRAY	KY		42071	YES	NO	NO	NO	RODNEY BOHANNON	2707591680	3519							333618						36.611139	-88.298889	147800817								BRIGGS & STRATTON CORP	152384483	NO	BOHANNON.RODNEY@BASCO.COM	
2012	DIRECTOR ENVIRONMENTAL HEALTH AND SAFETY	WILSON FRAZIER	40219CLDWL4000T	CALDWELL TANKS INC	4000 TOWER RD	LOUISVILLE	JEFFERSON	KY	402191901	CALDWELL TANKS INC	PO BOX 35770	LOUISVILLE	KY		402325770	YES	NO	NO	NO	WILSON F FRAZIER	5029643361	3443							332313						38.15141	-85.68934	006375141								CALDWELL TANKS INC		NO	WFRAZIER@CALDWELLTANKS.COM	
2012	PLANT MANAGER	BRIAN LAUERMAN	41129CLGNCUSROU	CALGON CARBON CORP	15024 US 23	CATLETTSBURG	BOYD	KY	41129	CALGON CARBON CORP	PO BOX 664	CATLETTSBURG	KY		411290664	YES	NO	NO	NO	BRIAN LAUERMAN	6067392326	2819							325998						38.33721	-82.58925	004319810								CALGON CARBON CORP	004319810	NO	BLAUERMAN@CALGONCARBON-US.COM	
2012	SENIOR VICE PRESIDENT	ERIC DEERWESTER	41042CMCCH8150H	CAMCO CHEMICAL CO INC	8150 HOLTON DR	FLORENCE	KENTON	KY	41042	CAMCO CHEMICAL CO INC	8150 HOLTON DR	FLORENCE	KY		41042	YES	NO	NO	NO	RICHARD ROLFES III	8597273200	2841	2842	2992					325611	561910					38.974536	-84.611026	004238366										NO	ROLFESR@CAMCO-CHEM.COM	
2012	PLANT MANAGER	DANIEL WHARTON	40201RCCRB4400B	CARBIDE INDUSTRIES LLC	4400 BELLS LN	LOUISVILLE	JEFFERSON	KY	402112143	CARBIDE INDUSTRIES LLC	4400 BELLS LN	LOUISVILLE	KY		40211-2143	YES	NO	NO	NO	DAN WHARTON	5027754132	2869	2813						325199						38.22251	-85.84046	123612264								CARBIDE INDUSTRIES LLC		NO	DWHARTON@CARBIDELLC.COM	
2012	PLANT MANAGER	SHERI GUTHRIE	42029THCRB3204I	CARBIDE INDUSTRIES LLC CALVERT CITY	3204 INDUSTRIAL PKWY	CALVERT CITY	MARSHALL	KY	42029	CARBIDE INDUSTRIES LLC CALVERT CITY	PO BOX 67	CALVERT CITY	KY		42029	YES	NO	NO	NO	SHERI GUTHRIE	2703954143	2999	2813	2869	3274				325120						37.0575	-88.336667	123612264								CARBIDE INDUSTRIES LLC		NO	SGUTHRIE@CARBIDELLC.COM	
2012	VP OF MANUFACTURING	FRANK FLETCHER	40219CRDNL4005O	CARDINAL ALUMINUM CO PLAN T 3	4005 OAKLAWN DR	LOUISVILLE	JEFFERSON	KY	40219	CARDINAL ALUMINUM CO PLAN T 3	4005 OAKLAWN DR	LOUISVILLE	KY		40219	YES	NO	NO	NO	FRANK FLETCHER	5029699302	3354							331316						38.148333	-85.686389	006372130								CARDINAL ALUMINUM CO		NO	FFLETCHER@1800EXTRUDE.COM	
2012	VP OF MANUFACTURING	FRANK FLETCHER	40219CRDNL6910P	CARDINAL ALUMINUM CO PLANT 1	6910 PRESTON HWY	LOUISVILLE	JEFFERSON	KY	402190987	CARDINAL ALUMINUM CO PLANT 1	PO BOX 19987	LOUISVILLE	KY		40219	YES	NO	NO	NO	FRANK FLETCHER	5029699302	3354							331316						38.152778	-85.694444	006372131								CARDINAL ALUMINUM CO		NO	FFLETCHER@1800EXTRUDE.COM	
2012	AREA OPERATIONS MANAGER	ROBERT PRYSTALOSKI	41006DRVLMRTE1B	CARMEUSE LIME & STONE BLACK RIVER FACILITY	9043 HWY 154	BUTLER	PENDLETON	KY	41006	CARMEUSE LIME & STONE BLACK RIVER FACILITY	9043 HWY 154	BUTLER	KY		41006	YES	NO	NO	NO	DAVID SWISHER	4129952023	3274							327410						38.835556	-84.249722	139642086								CARMEUSE LIIME & STONE INC	021073510	NO	DAVID.SWISHER@CARMEUSENA.COM	
2012	AREA OPERATIONS MANAGER	ROBERT PRYSTALOSKI	41056DRVLMROUTE	CARMEUSE LIME & STONE MAYSVILLE FACILITY	9222 SPRINGDALE RD	MAYSVILLE	MASON	KY	41056	CARMEUSE LIME & STONE MAYSVILLE FACILITY	9222 SPRINGDALE RD	MAYSVILLE	KY		41056	YES	NO	NO	NO	DAVID SWISHER	4129952023	3274							327410						38.610278	-83.670833	068946854								CARMEUSE LIME INC.	021073510	NO	DAVID.SWISHER@CARMEUSENA.COM	
2012	DIVISION MANAGER	JOHN GUTHRIE	42276RCRPNFORRE	CARPENTER CO	200 FORREST PARK DR	RUSSELLVILLE	LOGAN	KY	42276	CARPENTER CO	PO BOX 190	RUSSELLVILLE	KY		422760190	YES	NO	NO	NO	L. WADE BAKER	2707269513	3086	2297						326150	313230					36.855556	-86.903889	049937832								CARPENTER CO	003109444	NO	WADE.BAKER@CARPENTER.COM	
2012	GENERAL MANAGER	STEVE HAVEL	40391NTRNT1100E	CATALENT PHARMA SOLUTIONS	1100 ENTERPRISE DR	WINCHESTER	CLARK	KY	40391	CATALENT PHARMA SOLUTIONS	1100 ENTERPRISE DR	WINCHESTER	KY		40391	YES	NO	NO	NO	GREG EASTERLING	8597458165	2834							325412						38.018789	-84.17861	829672745										NO	GREGORY.EASTERLING@CATALENT.COM	
2012	FACILITY MANAGER	KEVIN HAYES	40422CTPLL200CO	CATERPILLAR TRACK COMPONENTS	200 CORPORATE DR	DANVILLE	BOYLE	KY	40422	CATERPILLAR TRACK COMPONENTS	200 CORPORATE DR	DANVILLE	KY		40422	YES	NO	NO	NO	KEVIN HAYES	8599362201	3531							333120						37.623889	-84.820278	173988014								CATERPILLAR INC	005070479	NO	HAYES_KEVIN_D@CAT.COM	
2012	GENERAL MANAGER, CATLETTSBURG REFINING LLC	RICHARD HERNANDEZ	41114CTLTTPOBOX	CATLETTSBURG REFINING LLC	11631 US RT 23	CATLETTSBURG	BOYD	KY	41129	CATLETTSBURG REFINING LLC	PO BOX 1492	CATLETTSBURG	KY		41129	YES	NO	NO	NO	MICHAEL S. ALLEY	6069216504	2911							324110	424710					38.375	-82.604167	004132630								MARATHON PETROLEUM CORP	968393996	NO	MSALLEY@MARATHONPETROLEUM.COM	
2012	PLANT MANAGER	GARY JOINER	42029SKWLLHIGHW	CC METALS & ALLOYS LLC	1542 N MAIN ST	CALVERT CITY	MARSHALL	KY	42029	CC METALS & ALLOYS LLC	1542 N MAIN ST	CALVERT CITY	KY		42029	YES	NO	NO	NO	GARY JOINER	2703952155	3313							331112						37.056111	-88.348056	096311527										NO	GJOINER@CCMETALS.COM	
2012	GENERAL MANAGER	DAVID PARR	40069CLLPK288BL	CELL PAK LLC	288 BLOOMFIELD RD	SPRINGFIELD	WASHINGTON	KY	40069	CELL PAK LLC	288 BLOOMFIELD RD	SPRINGFIELD	KY		40069	YES	NO	NO	NO	DAVID PARR	2562142716								321219						37.695762	-85.234134	075793518								MASCO CORP	005320924	NO	DPARR@SERVICE-PARTNERS.COM	
2012		RICARDO QUIROGA	40272KSMSC15301	CEMEX KOSMOS CEMENT CO	15301 DIXIE HWY	LOUISVILLE	JEFFERSON	KY	40272	CEMEX KOSMOS CEMENT CO	15301 DIXIE HWY	LOUISVILLE	KY		40272	YES	NO	NO	NO	LILLIAN DEPRIMO	8655415506	3241							327310						38.034696	-85.90601									CEMEX INC	189840945	NO	LILLIANF.DEPRIMO@CEMEX.COM	
2012	PURCHASING MGR.	ROBERT MARCUM	40509CNTRL2580P	CENTRAL KENTUCKY PROCESSING INC	2580 PALUMBO DR	LEXINGTON	FAYETTE	KY	40509	CENTRAL KENTUCKY PROCESSING INC	2580 PALUMBO DR	LEXINGTON	KY		40509	YES	NO	NO	NO	ROBERT MARCUM	8592662247	3471							332813						38.015	-84.441944	113205660										NO	BMARCUM@CKPINC.COM	
2012	SR VICE PRESIDENT	MICHAEL LEWIS	40361CNTRL125WH	CENTRAL MOTOR WHEEL OF AMERICA (DBA CMWA)	125 WHEAT DR	PARIS	BOURBON	KY	40361	CENTRAL MOTOR WHEEL OF AMERICA (DBA CMWA)	125 WHEAT DR	PARIS	KY		40361	YES	NO	NO	NO	BRUCE ALLISON	8599870500	3714							336330						38.223333	-84.273333	175598267										NO	BALLISON@CMWA.COM	
2012		GARY BRUNNETTE	4060WCNTRX199US	CENTRIA	1099 US HWY 421 S	FRANKFORT	FRANKLIN	KY	40601	CENTRIA	1099 US HWY 421 S	FRANKFORT	KY		40601	NO	NO	NO	NO	FRANK YOUNG	5026959792	3444	3442						332322	332321					38.185847	-84.794551	004334843								CENTRIA	004334843	NO	FYOUNG@CENTRIA.COM	
2012	ENVIRONMENTAL MANAGER	SEAN LANE	42348CNTRY1627S	CENTURY ALUMINUM OF KENTUCKY	1627 STATE RT 3543	HAWESVILLE	HANCOCK	KY	423480500	CENTURY ALUMINUM OF KENTUCKY	PO BOX 500	HAWESVILLE	KY		423480500	YES	NO	NO	NO	MICHAEL DILDINE	8316429364	3334							331312						37.94499	-86.78777	054273909								CENTURY ALUMINUM CO INC	942268202	NO	MIKE.DILDINE@CENTURYALUMINUM.COM	
2012	SR. PROCESS ENG/FACILITY MGR	SCOTT ROBERTS	40510SMCNS1801O	CERADYNE CO SEMICON ASSOCIATES	695 LACO DR	LEXINGTON	FAYETTE	KY	405101012	CERADYNE CO SEMICON ASSOCIATES	695 LACO DR	LEXINGTON	KY		40510-1012	YES	NO	NO	NO	TONY EWING	8595141290	3679							334411						38.06341	-84.576609	050791177								CERADYNE INC	050791177	NO	TEWING@CERADYNE.COM	
2012		DANIEL J. SLOSEK	4100WCRTNT64HWY	CERTAINTEED GYPSUM & CEILING MFG	6040 HWY 42 E	CARROLLTON	CARROLL	KY	41008	CERTAINTEED GYPSUM & CEILING MFG	PO BOX 560	CARROLLTON	KY		41008	YES	NO	NO	NO	DANIEL SLOSEK	5023479986								327420						38.71793	-85.092051									CERTAINTEED GYPUM INC.	805057994	NO	DANIEL.SLOSEK@SAINT-GOBAIN.COM	
2012	OPERATIONS MANAGER	PATRICK MCCLOUD	40211LSVLL4401B	CHEVRON LOUISVILLE TERMINAL/LUBRICANTS BLEND PLANT	4401 BELLS LN	LOUISVILLE	JEFFERSON	KY	40211	CHEVRON LOUISVILLE TERMINAL/LUBRICANTS BLEND PLANT	4401 BELLS LN	LOUISVILLE	KY		40211	NO	YES	NO	NO	MICHELE CARRACO	5024155975	5171	2992						324191						38.22811	-85.83346	064881154								CHEVRON CORP	001382555	NO	MRCD@CHEVRON.COM	
2012	PLANT MANAGER	THOMAS HARDESTER	41097CHVRN400HE	CHEVRON PHILLIPS CHEMICAL CO PERFORMANCE PIPE DIV	400 HELTON ST	WILLIAMSTOWN	GRANT	KY	41097	CHEVRON PHILLIPS CHEMICAL CO PERFORMANCE PIPE DIV	400 HELTON ST	WILLIAMSTOWN	KY		41097	YES	NO	NO	NO	DAVID PARSONS	8598245065	3084							326122						38.647222	-84.564444									CHEVRON PHILLIPS CHEMICAL CO LLC	152975685	NO		
2012	DIRECTOR, EHS	DAVE THORNTON	4103WCHRMS1327N	CHROMASCAPE INC	1327 NEW LAIR RD	CYNTHIANA	HARRISON	KY	41031	CHROMASCAPE INC	1327 NEW LAIR RD	CYNTHIANA	KY		41031	YES	NO	NO	NO	DAVE THORNTON	8592348468								325510						38.37301	-84.29329	016769080								CHROMASCAPE INC	016769080	NO	DAVET@CHROMASCAPE.COM	
2012	GLOBAL HSE DIRECTOR	PAUL ROBINSON	40210THVLS1630W	COLOR CORP OF AMERICA	1630 W HILL ST	LOUISVILLE	JEFFERSON	KY	40210	COLOR CORP OF AMERICA	1630 W HILL ST	LOUISVILLE	KY		40210	YES	NO	NO	NO	SARA ETHIER	6128517681	2851							325510						38.22765	-85.78301	006388441								THE VALSPAR CORP	050736453	NO	SETHIER@VALSPAR.COM	
2012	GENERAL MANAGER	GARNET HENDERSON	42241CMMNW4895P	COMMONWEALTH AGRI-ENERGY LLC	4895 PEMBROKE RD	HOPKINSVILLE	CHRISTIAN	KY	42240	COMMONWEALTH AGRI-ENERGY LLC	PO BOX 766	HOPKINSVILLE	KY		42241	YES	NO	NO	NO	MICK HENDERSON	2704754415	2869	5153						325193						36.80674	-87.41431	051258569								HOPKINSVILLE ELEVATOR CO	049938913	NO	MHENDERSON@KYETHANOL.COM	
2012	PLANT MANAGER	JOE KUHN	40391CNTCH700TE	CONTECH ENGINEERED SOLUTIONS LLC	700 TECH DR	WINCHESTER	CLARK	KY	40391	CONTECH ENGINEERED SOLUTIONS LLC	700 TECH DR	WINCHESTER	KY		40391	YES	NO	NO	NO	JOE KUHN	8597443339	3441							332312	332313					38.010833	-84.185	311177165										NO	JKUHN@CONTECHES.COM	
2012	ENVIRO. COMPL. MGR	FLOYD J. HOFFER	42501THSMR501RE	CONTINENTAL REFINING CO LLC	501 REFINERY RD	SOMERSET	PULASKI	KY	42501	CONTINENTAL REFINING CO LLC	300 REFINERY RD	SOMERSET	KY		42501	YES	NO	NO	NO	KRISTOPHER GIBSON	6066796301	2911							324110						37.0716	-84.6092	078404663										NO	KGIBSON@CONTINENTALREFININGCO.COM	
2012	PLANT MANAGER	TROY LOVELL	42519CPRPW1247S	COOPER POWER STATION	7130 HWY 1247	BURNSIDE	PULASKI	KY	42519	COOPER POWER STATION	7130 HWY 1247	BURNSIDE	KY		42519	YES	NO	NO	NO	KEVIN OSBORNE	8597444812	4911							221112						36.997778	-84.593889	050017755								EAST KENTUCKY POWER COOPERATIVE INC	007779416	NO	KEVIN.OSBORNE@EKPC.COOP	
2012	PLANT MANAGER	JERRY PRESTON	40353CPRTR250OA	COOPER STANDARD AUTOMOTIVE	250 OAK GROVE DR	MOUNT STERLING	MONTGOMERY	KY	403530392	COOPER STANDARD AUTOMOTIVE	250 OAK GROVE DR	MOUNT STERLING	KY		40353-0392	YES	NO	NO	NO	JERRY PRESTON	8594979600	3052							326220						38.1	-83.898888	839173416								COOPER-STANDARD AUTOMOTIVE INC	004183273	NO	JLPRESTON@COOPERSTANDARD.COM	
2012	REGIONAL VICE PRESIDENT OF OPERATIONS	JOHN BAKER	42134THKNDUS31W	COVALENCE ADHESIVES	2320 BOWLING GREEN RD	FRANKLIN	SIMPSON	KY	42134	COVALENCE ADHESIVES	2320 BOWLING GREEN RD	FRANKLIN	KY		42134	YES	NO	NO	NO	REX EATON	2705862392	3069	3089						326299	325520					36.798209	-86.561253	062979158								BERRY PLASTICS CORP		NO	REXEATON@BERRYPLASTICS.COM	
2012	PLANT MANAGER	JOHN FULARZ	41042PHLPS8015D	CRANE COMPOSITES INC	8015 DIXON DR	FLORENCE	BOONE	KY	41042	CRANE COMPOSITES INC	8015 DIXON DR	FLORENCE	KY		41042	YES	NO	NO	NO	PAUL G. GADDIE	8592836122	3083							326199						38.973333	-84.623333	133230636								CRANE CO	001280726	NO	PGADDIE@CRANECOMPOSITES.COM	
2012	PROCESS ENGINEERING LEADER	ROBERT OAKLEY	40511SMCNC1729J	CREATION TECHNOLOGIES-LEXINGTON	1729 JAGGIE FOX WAY	LEXINGTON	FAYETTE	KY	40511	CREATION TECHNOLOGIES-LEXINGTON	1729 JAGGIE FOX WAY	LEXINGTON	KY		40511	YES	NO	NO	NO	BOB OAKLEY	8592533066	3679							334418						38.0875	-84.513889	874838782								CREATION TECHNOLOGIES	248570236	NO	BOB.OAKLEY@CREATIONTECH.COM	
2012	ENVIRONMENTAL HEALTH AND SAFETY MANAGER	DONALD BOWLING	40701CTCST1CTAB	CTA ACOUSTICS INC	100 CTA BLVD	CORBIN	KNOX	KY	40701	CTA ACOUSTICS INC	PO BOX 448	CORBIN	KY		40702	YES	NO	NO	NO	RUSS ASHER	6065288050	3296							327993						36.909444	-84.047222	789519808								HERCULES FIBER II LLC	789519808	NO	RASHER@CTAACOUSTICS.COM	
2012	GENERAL MANAGER	JAMES MATTINGLY	40033CRTSM665ME	CURTIS-MARUYASU AMERICA INC	665 METTS DR	LEBANON	MARION	KY	40033	CURTIS-MARUYASU AMERICA INC	665 METTS DR	LEBANON	KY		40033	YES	NO	NO	NO	JAY BATT	2706922109	3714	3479						336312						37.555	-85.261389	131603599								CURTIS MARUYASU AMERICA	131603599	NO	JBATT@CURTISMARUYASU.COM	
2012	SITE MANAGER	PAUL PETITT	42029CYMTC2468I	CYMETECH CORP	2468 INDUSTRIAL PKWY	CALVERT CITY	MARSHALL	KY	42029	CYMETECH CORP	PO BOX 859	CALVERT CITY	KY		42029	YES	NO	NO	NO	PAUL LANGEMEIER	7139665747	2869							325199						37.048889	-88.331111	828126685	003608234									NO	LANGEMEIER@CYMETECH.COM	
2012	VICE PRESIDENT	MICHAEL GROSS	42320DCLSF72LDL	DAICEL SAFETY SYSTEMS	720 LIBERTY CHURCH RD	BEAVER DAM	OHIO	KY	42320	DAICEL SAFETY SYSTEMS	720 LIBERTY CHURCH RD	BEAVER DAM	KY		42320	YES	NO	NO	NO	BRENT MULLINS	2707302307								336399						37.37	-86.810278	108357059								DAOCEL (USA) INC		NO	B_MULLINS@DSSA.DAICEL.COM	
2012	SR. EHS ENGINEER	STEVE WILLIS	42351MRCNLMELAN	DAL-TILE CORP LEWISPORT PLANT	675 MELANIE LN	LEWISPORT	HANCOCK	KY	42351	DAL-TILE CORP LEWISPORT PLANT	675 MELANIE LN	LEWISPORT	KY		42351	YES	NO	NO	NO	J. WAYNE ZOGLMANN	2702953411	3253							327121						37.930278	-86.904722	002347003								MOHAWK INDUSTRIES INC	612757070	NO	WAYNE_ZOGLMANN@MOHAWKIND.COM	
2012	PLANT MANAGER	KENNETH CARROLL	40391DLPWR1925F	DALE POWER STATION	1925 FORD RD	WINCHESTER	CLARK	KY	40391	DALE POWER STATION	1925 FORD RD	WINCHESTER	KY		40391	YES	NO	NO	NO	KEVIN OSBORNE	8597444812	4911							221112						37.880493	-84.262143	046618377								EAST KENTUCKY POWER COOPERATIVE INC		NO	KEVIN.OSBORNE@EKPC.COOP	
2012	REGIONAL ENVIRONMENTAL MANAGER	BOB COLE	42420TNCRP1491E	DANA COMMERCIAL VEHICLE MANUFACTURING LLC	1491 DANA DR	HENDERSON	HENDERSON	KY	42420	DANA COMMERCIAL VEHICLE MANUFACTURING LLC	1491 DANA DR	HENDERSON	KY		42420	YES	NO	NO	NO	RICK WALLACE	2706596209	3714							336350						37.803261	-87.645149	079081381		KYD058838814						DANA HOLDING CORP	809254688	NO	RICK.WALLACE@DANA.COM	
2012	REGIONAL ENVIRONMENTAL MANAGER	COLLEEN SEWELL	42141TNCRPROUTE	DANA COMMERCIAL VEHICLE PRODUCTS LLC	1320 W MAIN ST	GLASGOW	BARREN	KY	42141	DANA COMMERCIAL VEHICLE PRODUCTS LLC	1320 W MAIN ST	GLASGOW	KY		42141	YES	NO	NO	NO	BRUCE STEADMAN	2706596319	3714							336350						37.006003	-85.933024	062976519								DANA HOLDING CORP	809248029	NO	BRUCE.STEADMAN@DANA.COM	
2012	SR MGR, GLOBAL ENV FACILITY MGMT	GREG MORRIS	4103WDNLGH1BUSI	DANA LIGHT AXLE MANUFACTURING LLC	10000 BUSINESS BLVD	DRY RIDGE	GRANT	KY	41035	DANA LIGHT AXLE MANUFACTURING LLC	10000 BUSINESS BLVD	DRY RIDGE	KY		41035	YES	NO	NO	NO	JEFF TRAVIS	8598242585								336350						38.68	-84.586111	799869359								DANA HOLDING CORP	809255123	NO	JEFF.TRAVIS@DANA.COM	
2012	SR MGR, GLOBAL ENV FACILITY MGMT	GREG MORRIS	40422DNCRP121NS	DANA SEALING MANUFACTURING LLC	121 N STEWARTS LN	DANVILLE	BOYLE	KY	40422	DANA SEALING MANUFACTURING LLC	500 TECHWOOD DR	DANVILLE	KY		40422	YES	NO	NO	NO	DAN KING	8592382560	3714							339991						37.633333	-84.793611	188962112								DANA HOLDING CORP	809255123	NO	DAN.KING@DANA.COM	
2012	SITE MANAGER	ROGER CALLOWAY	42303WRGRC5525U	DARAMIC LLC	5525 US HWY 60 E	OWENSBORO	DAVIESS	KY	42303	DARAMIC LLC	5525 US HWY 60 E	OWENSBORO	KY		42303	YES	NO	NO	NO	LARRY SPICKARD	7045878419	3081							326113						37.808342	-87.047593	877584375								POLYPORE INTERNATIONAL INC		NO		
2012	MANUFACTURING MANAGER	CARL WARD	42301DRTPL2400H	DART POLYMERS INC	2400 HARBOR RD	OWENSBORO	DAVIESS	KY	42301	DART POLYMERS INC	2400 HARBOR RD	OWENSBORO	KY		42301	YES	NO	NO	NO	CARL WARD	2709263434	2821							325211						37.795833	-87.146389	038911632								DART CONTAINER CORP	006522890	NO	CARL.WARD@DARTCONTAINER.COM	
2012	SAFETY MANAGER	KEVIN CARSTENS	40218DNFDS4420B	DEAN DAIRY HOLDINGS LLC	4420 BISHOP LN	LOUISVILLE	JEFFERSON	KY	40218	DEAN DAIRY HOLDINGS LLC	4420 BISHOP LN	LOUISVILLE	KY		40218	YES	NO	NO	NO	DANNY JASPER	5024519111	2026	5143						311511						38.195833	-85.687778	006393680								DEAN HOLDING CO		NO	DANNY_JASPER@DEANFOODS.COM	
2012	PLANT MANAGER/DIRECTOR	JOEY HARRIS	40422CLRKM1450M	DENYO MANUFACTURING CORP	1450 MINOR RD	DANVILLE	BOYLE	KY	40422	DENYO MANUFACTURING CORP	1450 MINOR RD	DANVILLE	KY		40422	YES	NO	NO	NO	JOEY HARRIS	8599364463	3537							335312						37.633687	-84.801338	928837160		KYD985081645								NO	JOEY@DENYO.US	
2012	ESH MANAGER	TIMOTHY GOFF	41018CMFBN1600D	DIVERSIFIED STRUCTURAL COMPOSITES	1512 INTERSTATE DR	ERLANGER	BOONE	KY	41018	DIVERSIFIED STRUCTURAL COMPOSITES	1512 INTERSTATE DR	ERLANGER	KY		41018	YES	NO	NO	NO	DIVERSIFIED STRUCTURAL COMPOSITES	8592827300	3089							326199						39.054109	-84.621595											NO	TGOFF63@DSC-US.COM	
2012	ENVIRONMENTAL ENGINEER	ADAM KRIEG	42348WLLMTPOBOX	DOMTAR PAPER CO LLC HAWESVILLE MILL	58 WESCOR RD	HAWESVILLE	HANCOCK	KY	42348	DOMTAR PAPER CO LLC HAWESVILLE MILL	PO BOX 130	HAWESVILLE	KY		42348	YES	NO	NO	NO	DEBBIE TROUTT	2709276961	2611	2621						322110						37.894847	-86.685793	789245110								DOMTAR CORP	789245110	NO	DEBBIE.TROUTT@DOMTAR.COM	
2012	PLANT MANAGER	TONY JAMES	40356DNLDS200ET	DONALDSON CO INC	200 ETTER DR	NICHOLASVILLE	JESSAMINE	KY	40356	DONALDSON CO INC	200 ETTER DR	NICHOLASVILLE	KY		40356	YES	NO	NO	NO	CLIFFORD S. HARRIS	8598870242	3569	3531	3599					333999						37.888056	-84.583611	006477301		KYD095386462						DONALDSON CO INC	006477301	NO	CLIFFORD.HARRIS@DONALDSON.COM	
2012	DOW CORNING CARROLLTON SITE MANAGER	LAURENCE TARVESTAD	41008DWCRNUSHIG	DOW CORNING CORP	4770 US HWY 42	CARROLLTON	CARROLL	KY	41008	DOW CORNING CORP	4770 US HWY 42	CARROLLTON	KY		41008	YES	NO	NO	NO	LAURENCE TARVESTAD	5027322010	2869							325199						38.7074	-85.1048	005353487								DOW CORNING CORP	005353487	NO	LARRY.TARVESTAD@DOWCORNING.COM	
2012	SITE MANAGER	PAT DEAN	42701DWCRN760HO	DOW CORNING CORP	760 HODGENVILLE RD	ELIZABETHTOWN	HARDIN	KY	42701	DOW CORNING CORP	760 HODGENVILLE RD	ELIZABETHTOWN	KY		42701	YES	NO	NO	NO	COREY BRYANT	2707068238	2891	2822						325520	325212					37.666667	-85.8375	005353487								DOW CORNING CORP	005353487	NO	C.D.BRYANT@DOWCORNING.COM	
2012	PLANT MANAGER	WILLIAM FISHER	40216DPNTL4200C	DUPONT LOUISVILLE PLANT	4200 CAMP GROUND RD	LOUISVILLE	JEFFERSON	KY	40216	DUPONT LOUISVILLE PLANT	4200 CAMP GROUND RD	LOUISVILLE	KY		40216	YES	NO	NO	NO	WILLIAM R. FISHER. JR.	5027753233	2819	2869						325120	325188					38.212654	-85.840113	003924198								E I DU PONT DE NEMOURS & CO	001315704	NO		
2012	PLANT MANAGER - WURTLAND	CURTIS TRITAPOE	41144DPNTWHC664	DUPONT WURTLAND PLANT	HC 66-400 HARRIS RD	WURTLAND	GREENUP	KY	41144	DUPONT WURTLAND PLANT	HC 66-400 HARRIS RD	WURTLAND	KY		41144	YES	NO	NO	NO	H. CURTIS TRITAPOE	6068331212	2819							325188						38.555556	-82.789167	005005160								E I DU PONT DE NEMOURS & CO	001315704	NO	H-CURTIS.TRITAPOE@DUPONT.COM	
2012	PLANT MANAGER	JIM JARVIS	42344THNSGSTATE	DYNO NOBEL INC	STATE RT 175	GRAHAM	MUHLENBERG	KY	42344	DYNO NOBEL INC	PO BOX 130	GRAHAM	KY		42344	YES	NO	NO	NO	JIM JARVIS	2703384200	2892							325920						37.239167	-87.295									DYNO NOBEL INC	009091257	NO	JIM.JARVIS@AM.DYNONOBEL.COM	
2012	PREISDENT	JAMES INGRAM	42101GLNDS610HO	EAGLE INDUSTRIES LLC	625 RAVEN ST	BOWLING GREEN	WARREN	KY	42101	EAGLE INDUSTRIES LLC	625 RAVEN ST	BOWLING GREEN	KY		42101	YES	NO	NO	NO	AMADO RIVAS	2708433363	2511							337122						37.005278	-86.446389	798854261										NO		
2012	HUMAN RESOURCES MANAGER	LYNMARIE NORTON	41042GLMNF71IND	EAGLE MANUFACTURING LLC	7100 INDUSTRIAL RD	FLORENCE	BOONE	KY	41042	EAGLE MANUFACTURING LLC	7100 INDUSTRIAL RD	FLORENCE	KY		41042	YES	NO	NO	NO	LYN NORTON	8592825907	3714							336312						38.978373	-84.612077	797044385								LINAMAR CORP		NO	LYN.NORTON@LINAMAR.COM	
2012	ENVIRONMENTAL DIRECTOR	PATRICK MCCABE	41091CGGSTRT338	EAST BEND GENERATING STATION	6293 BEAVER RD ST RT 338	RABBIT HASH	BOONE	KY	41091	EAST BEND GENERATING STATION	ENVIRONMENTAL EM740 139 E FOURTH ST	CINCINNATI	OH		452024003	YES	NO	NO	NO	RALPH WOOD	5134674833	4911							221112						38.904444	-84.848333	005031401								DUKE ENERGY CORP	006996052	NO	JR.WOOD@DUKE-ENERGY.COM	
2012	VP MANUFACTURING / QUALITY	JOHN MALMGREEN	42420STRNL5800R	EASTERN ALLOYS OF KENTUCKY	5800 RIVERPORT RD	HENDERSON	HENDERSON	KY	42420	EASTERN ALLOYS OF KENTUCKY	HENRY HENNING DR	MAYBROOK	NY		12543	YES	NO	NO	NO	JOHN MALMGREEN	8454272151	3339	3341						331492						37.810433	-87.657716	096065953								EASTERN ALLOYS INC	001803030	NO	JMALMGREEN@EAZALL.COM	
2012	ENVIRONMENTAL & SAFETY MANAGER	MARGARET HICKEY	42240BNTNTHWY68	EBONITE INTERNATIONAL INC	1813 W 7TH ST	HOPKINSVILLE	CHRISTIAN	KY	42240	EBONITE INTERNATIONAL INC	1813 W 7TH ST	HOPKINSVILLE	KY		42240	YES	NO	NO	NO	MARGARET H. HICKEY	2708811257	3949							339920						36.878889	-87.51	012623369		KYD074060039		KRY000124				EBONITE HOLDINGS INC		NO	MHICKEY@EBONITE.COM	
2012	OPERATIONS MANAGER	MARCUS TURNER	40211RYNLD4101C	ECKART EFFECT PIGMENTS	4101 CAMP GROUND RD	LOUISVILLE	JEFFERSON	KY	40211	ECKART EFFECT PIGMENTS	4101 CAMP GROUND RD	LOUISVILLE	KY		40211	YES	NO	NO	NO	STACY OVERBY	5027754258	3399							331314						38.21463	-85.83856	793404864								ALTANA		NO	STACY.OVERBY@ALTANA.COM	
2012	PRESIDENT	DON NORTON	4243WLCTRC23BAL	ELECTRO CYCLE INC	230 BALDWIN DR	MADISONVILLE	HOPKINS	KY	42431	ELECTRO CYCLE INC	230 BALDWIN DR	MADISONVILLE	KY		42431	YES	NO	NO	NO	DON NORTON	2708259229								331314						37.396606	-87.425315	603449943								METAL EXCHANGE CORP		NO	DNORTON@METALEXCHANGECORP.COM	
2012	PLANT MANAGER	DANIEL BROWN	42276MRSNL150EM	EMERSON ELECTRIC CO	150 EMERSON BY-PASS RD	RUSSELLVILLE	LOGAN	KY	42276	EMERSON ELECTRIC CO	150 EMERSON BY-PASS RD	RUSSELLVILLE	KY		42276	YES	NO	NO	NO	DAN BROWN	2707262456	3621							335312						36.8375	-86.921389	006269633								EMERSON ELECTRIC CO	006269633	NO	DANIEL.BROWN@EMERSON.COM	
2012	PLANT MANAGER	RANDY NORWOOD	41056BRWNNMAINS	EMERSON POWER TRANSMISSION CORP GEARCO	1248 E SECOND ST	MAYSVILLE	MASON	KY	41056	EMERSON POWER TRANSMISSION CORP GEARCO	PO BOX 687	MAYSVILLE	KY		41056	YES	NO	NO	NO	RANDY NORWOOD	6065642010	3566							333612						38.643056	-83.740278	058900606								EMERSON ELECTRIC CO	006269633	NO	RANDY.NORWOOD@EMERSON.COM	
2012	MANUFACTURING DIRECTOR	RANDY BYRUM	42240PPFSTROUTE	EMHART TEKNOLOGIES	1915 PEMBROKE RD	HOPKINSVILLE	CHRISTIAN	KY	42240	EMHART TEKNOLOGIES	1915 PEMBROKE RD	HOPKINSVILLE	KY		42240	YES	NO	NO	NO	HAROLD WILSON	2708863951	3452							332722						36.840323	-87.457229	039129481								STANLEY BLACK & DECKER	001152461	NO	HAROLD.WILSON@BDK.COM	
2012	PLANT MANAGER	DENNIS BRUMBAUGH	40475XDCRP876RI	ENERSYS DELAWARE INC	761 EASTERN BY PASS	RICHMOND	MADISON	KY	40475	ENERSYS DELAWARE INC	761 EASTERN BY PASS	RICHMOND	KY		40475	YES	NO	NO	NO	DENNIS BRUMBAUGH	8596247355	3691							335911						37.737539	-84.276914	052412533								ENERSYS	052412533	NO	DENNIS.BRUMBAUGH@ENERSYS.COM	
2012	GLOBAL HSE DIRECTOR	PAUL ROBINSON	42101LLLYN347CE	ENGINEERED POLYMER SOLUTIONS INC D/B/A VALSPAR COATINGS	347 CENTRAL AVE	BOWLING GREEN	WARREN	KY	42101	ENGINEERED POLYMER SOLUTIONS INC D/B/A VALSPAR COATINGS	347 CENTRAL AVE	BOWLING GREEN	KY		42101	YES	NO	NO	NO	SARA ETHIER	6128517681	2851							325510						36.925278	-86.505833	965750219								THE VALSPAR CORP	050736453	NO	SETHIER@VALSPAR.COM	
2012	MANAGER, SAFETY & REGULATORY COMPLIANCE	KENNETH JONES	42344NSGNBSTATE	ENSIGN-BICKFORD AEROSPACE & DEFENSE CO	STATE RT 175 PO BOX 219	GRAHAM	MUHLENBERG	KY	42344	ENSIGN-BICKFORD AEROSPACE & DEFENSE CO	STATE RT 175 PO BOX 219	GRAHAM	KY		42344	YES	NO	NO	NO	KENNETH C. JONES	8608431309	3483							332993						37.239167	-87.295									ENSIGN-BICKFORD INDUSTRIES INC	058509654	NO	KCJONES@EBA-D.COM	
2012	DIRECTOR, GLOBAL QUALITY	BRANDI MUTH	4021WNVRCL3899P	ENVIROCOOLER -	3899 PRODUCE RD	LOUISVILLE	JEFFERSON	KY	402183088	ENVIROCOOLER -	3899 PRODUCE RD	LOUISVILLE	KY		40218-3088	YES	NO	NO	NO	VINCENT AMARO	7148915035								326150						38.181035	-85.688653									LIFOAM INDUSTRIES LLC	003084209	NO	VAMARO@LIFOAM.COM	
2012	GENERAL MANAGER	ROBERT WILLIAMS	42134CGLSK3150N	EQUITY GROUP - KENTUCKY DIV LLC FEED MILL	3150 NASHVILLE RD	FRANKLIN	SIMPSON	KY	42134	EQUITY GROUP - KENTUCKY DIV LLC FEED MILL	3150 NASHVILLE RD	FRANKLIN	KY		42134	YES	NO	NO	NO	ROBERT WILLIAMS	6063874559	2048							311119						36.67477	-86.559113	020795881								KEYSTONE FOODS LLC		NO	ROBERT.WILLIAMS@KEYSTONEFOODS.COM	
2012	GENERAL MANAGER	ROBERT WILLIAMS	42602CGLKYHWY90	EQUITY GROUP KENTUCKY DIV LLC PROCESSING PLANT	2294 KY HWY 90 W	ALBANY	CLINTON	KY	42602	EQUITY GROUP KENTUCKY DIV LLC PROCESSING PLANT	2294 KY HWY 90 W	ALBANY	KY		42602	YES	NO	NO	NO	ROBERT WILLIAMS	6063874559	2015							112320						36.760028	-85.178611	020795881								KEYSTONE FOODS LLC		NO	ROBERT.WILLIAMS@KEYSTONEFOODS.COM	
2012	SITE MANAGER	TERRY PENCE	41017SCCRP3792L	ESCO CORP	3792 LAKE PARK DR	COVINGTON	KENTON	KY	41017	ESCO CORP	3792 LAKE PARK DR	COVINGTON	KY		41017	YES	NO	NO	NO	SALLY A WADDELL	8593445869	3531							333120						39.015833	-84.528056	009028259								ESCO CORP	627925654	NO	SALLY.WADDELL@ESCOCORP.COM	
2012	PRESIDENT	VINCE ESCUE	42762SCWDP164MI	ESCUE WOOD PRESERVING INC	164 POST-MILLWOOD RD	MILLWOOD	GRAYSON	KY	42762	ESCUE WOOD PRESERVING INC	P. O. BOX 277	MILLWOOD	KY		42762	YES	NO	NO	NO	VINCE ESCUE	2708793411	2491							321114						37.461944	-86.267222	037856580										NO	ESCUE@WINDSTREAM.NET	
2012	DIRECTOR OF OPERATIONS	GENE COLBURN	42029STRNCHIGHW	ESTRON CHEMICALS INC	807 N MAIN ST	CALVERT CITY	MARSHALL	KY	42029	ESTRON CHEMICALS INC	PO BOX 129	CALVERT CITY	KY		42029	YES	NO	NO	NO	GENE COLBURN	2703954195	2851	2869						325211						37.043639	-88.354639	092570407										NO	GCOLBURN@ESTRON.COM	
2012	SITE MANAGER	MICHAEL ROSS	42029DGSSCRTE28	EVONIK CORP CALVERT CITY PLANT	5150 GILBERTSVILLE HWY	CALVERT CITY	MARSHALL	KY	42029	EVONIK CORP CALVERT CITY PLANT	PO BOX 649	CALVERT CITY	KY		42029	YES	NO	NO	NO	MICHAEL J. ROSS	2703958353	2819							325998						37.043056	-88.347778	068209295								EVONIK INDUSTRIES	068209295	NO	MICHAEL.ROSS@EVONIK.COM	
2012	HEALTH, SEFETY & ENVIRONMENTAL DIRECTOR	DOUGLAS FISHER	40213PTMTV4415E	FAURECIA EXHAUST SYSTEMS INC LOUISVILLE PLANT	4415 E INDIAN TRAIL	LOUISVILLE	JEFFERSON	KY	40213	FAURECIA EXHAUST SYSTEMS INC LOUISVILLE PLANT	4415 E INDIAN TRAIL	LOUISVILLE	KY		40213	YES	NO	NO	NO	DOUG FISHER	8123447810	3714							336399						38.17416	-85.68194	605662907								FAURECIA	023006286	NO	DOUG.FISHER@FAURECIA.COM	
2012	PRESIDENT	TODD PURNELL	4006WFBPRN6931S	FB PURNELLS SAUSAGE CO	6931 SHELBYVILLE RD	SHELBYVILLE	SHELBY	KY	40065	FB PURNELLS SAUSAGE CO	6931 SHELBYVILLE RD	SHELBYVILLE	KY		40065	YES	NO	NO	NO	TODD PURNELL	5027225626								311611						38.222042	-85.348243	009003367										NO	TPURNELL@ITSGOOO-OD.COM	
2012	ENVIRONMENTAL AND SAFETY COMPLIANCE ADMIN.	TIM POWERS	4096WFCMNCPBX3	FCI MANCHESTER	805 FOX HOLLOW RD	MANCHESTER	CLAY	KY	40962	FCI MANCHESTER	PO BOX 3000	MANCHESTER	KY		40962	YES	NO	YES	NO	TIM POWERS	6065981900								922140						37.18316	-83.77335									US DEPARTMENT OF JUSTICE		YES	TPOWERS@BOP.GOV	
2012	ENVIRONMENTAL AND SAFETY COMPLIANCE ADMINISTR	BARNEY TOTTEN	41224FDRLB1197A	FEDERAL BUREAU OF PRISONS USP BIG SANDY	1197 AIRPORT RD	INEZ	MARTIN	KY	41224	FEDERAL BUREAU OF PRISONS USP BIG SANDY	PO BOX 2067	INEZ	KY		41224	YES	NO	YES	NO	BARNEY D TOTTEN	6064332400								922140						37.765	-82.650278									US DEPARTMENT OF JUSTICE		YES	BTOTTEN@BOP.GOV	
2012	ENVIRONMENTAL AND SAFETY COMPLIANCE ADMINISTR	DAVID ASH	4110WFDRLCSTATE	FEDERAL CORRECTIONAL INSTITUTION ASHLAND KY	STATE RT 716	ASHLAND	BOYD	KY	41105	FEDERAL CORRECTIONAL INSTITUTION ASHLAND KY	PO BOX 888	ASHLAND	KY		411050888	YES	NO	YES	NO	DAVID ASH	6069294165								922140						38.435472	-82.704263									US DEPARTMENT OF JUSTICE		YES	DASH@BOP.GOV	
2012	ESCA	JAY HENDERSON	40511FMCLX3301L	FEDERAL MEDICAL CENTER LEXINGTON	3301 LEESTOWN RD	LEXINGTON	FAYETTE	KY	40511	FEDERAL MEDICAL CENTER LEXINGTON	3301 LEESTOWN RD	LEXINGTON	KY		40511	NO	NO	YES	NO	KENNY COLEMAN, EXECUTIVE ASSISTANT	8592556812	9223							INVALD						38.076611	-84.537491			KYD020443594						DEPARTMENT OF JUSTICE		YES	HCOLEMAN@BOP.GOV	
2012	PLANT MANAGER	JUSTICE DINGLE	42141RMNC 20ABE	FEDERAL-MOGUL VSP	20 ABERDEEN DR	GLASGOW	BARREN	KY	42141	FEDERAL-MOGUL VSP	20 ABERDEEN DR	GLASGOW	KY		42141	YES	NO	NO	NO	JT SMITH	2706513609	3714							336340						36.975556	-85.936389	006557045								FEDERAL MOGUL CORP	006557045	NO	JAMES.SMITH@FEDERALMOGUL.COM	
2012	PLANT MANAGER	GARY HARTELL	42141FLKRB125BE	FELKER BROTHERS	125 BEAVER TRAIL RD	GLASGOW	BARREN	KY	42141	FELKER BROTHERS	125 BEAVER TRAIL RD	GLASGOW	KY		42141	YES	NO	NO	NO	GARY HARTELL	2706784143	3317							331210						37.026389	-85.935833	895846500								FELKER BROTHERS CORP	895846500	NO	GHARTELL@FELKERBROTHERS.COM	
2012	PLANT MANAGER	CLAUD GIBSON	41042FRSTN817HL	FIRESTONE BUILDING PRODUCTS	8170 HOLTON DR	FLORENCE	KENTON	KY	41042	FIRESTONE BUILDING PRODUCTS	8170 HOLTON DR	FLORENCE	KY		41042	YES	NO	NO	NO	CLAUD GIBSON	8596553753								326150						38.974335	-84.610359	809622447								BRIDGESTONE AMERICAS HOLDING INC	111482506	NO	GIBSONCLAUD@FIRESTONEBP.COM	
2012	PLANT MANAGER	LYNN TAYLOR	40769FRSTN1FIRE	FIRESTONE INDUSTRIAL PRODUCTS	1 FIRESTONE BLVD	WILLIAMSBURG	WHITLEY	KY	40769	FIRESTONE INDUSTRIAL PRODUCTS	1 FIRESTONE BLVD	WILLIAMSBURG	KY		40769	YES	NO	NO	NO	LYNN TAYLOR	6065490528	3069							326291						36.718889	-84.150278	828390976								BRIDGESTONE AMERICAS HOLDING INC	111482506	NO	TAYLORLYNN@FSIP.COM	
2012	PLANT MANAGER	ROBERT DIEHL	41076FSCHR111IN	FISCHER SPECIAL MANUFACTURING CO	1188 INDUSTRIAL RD	COLD SPRING	CAMPBELL	KY	41076	FISCHER SPECIAL MANUFACTURING CO	1188 INDUSTRIAL RD	COLD SPRING	KY		41076	YES	NO	NO	NO	BOB DIEHL	8597811400	3452	3451						332721						39.02642	-84.444965	004257200										NO	BOBD@FISCHERSPECIAL.COM	
2012	DIRECTOR, CONTINUOUS IMPROVEMENT	DONALD DECKER	42701FLNTN305RI	FLINT GROUP PIGMENTS	305 RING RD	ELIZABETHTOWN	HARDIN	KY	42701	FLINT GROUP PIGMENTS	305 RING RD	ELIZABETHTOWN	KY		42701	YES	NO	NO	NO	DAN HOEPPNER	2707371700	2865	2851	2893	2895				325132	325910					37.686667	-85.909722	791647514								FLINT GROUP N.A. CORP	005355854	NO	EARL.SEIBERT@FLINTGRP.COM	
2012	DIRECTOR, FORD ENVIRONMENTAL QUALITY OFFICE	ANDREW HOBBS	40213FRDMTFERNV	FORD LOUISVILLE ASSEMBLY	2000 FERN VALLEY RD	LOUISVILLE	JEFFERSON	KY	40213	FORD LOUISVILLE ASSEMBLY	2000 FERN VALLEY RD	LOUISVILLE	KY		40213	YES	NO	NO	NO	GREG LONG	5023643751	3711							336112						38.15498	-85.72715	006384143								FORD MOTOR CO	001344746	NO	GLONG4@FORD.COM	
2012	DIRECTOR, FORD ENVIRONMENTAL QUALITY OFFICE	ANDREW HOBBS	40222FRDMT3001C	FORD MOTOR CO KENTUCKY TRUCK PLANT	3001 CHAMBERLAIN LN	LOUISVILLE	JEFFERSON	KY	40241	FORD MOTOR CO KENTUCKY TRUCK PLANT	PO BOX 32310	LOUISVILLE	KY		40232	YES	NO	NO	NO	JOHN ALKIRE	5024292218	3711							336112						38.2935	-85.5322	053351227								FORD MOTOR CO	001344746	NO		
2012	VICE PRESIDENT	RAY LYLE	40203FRTHT600BE	FORTH TECHNOLOGIES INC	600 BERGMAN AVE	LOUISVILLE	JEFFERSON	KY	402032601	FORTH TECHNOLOGIES INC	600 BERGMAN AVE	LOUISVILLE	KY		402032601	YES	NO	NO	NO	RAY LYLE	5026374553	2865							325131						38.22872	-85.74466	119099497										NO	RLYLE@FORTHTECH.COM	
2012	EHS MANAGER	DERRICK CURRAN	42135FRNKL322BW	FRANKLIN PRECISION INDUSTRY	3220 BOWLING GREEN RD	FRANKLIN	SIMPSON	KY	42134	FRANKLIN PRECISION INDUSTRY	3220 BOWLING GREEN RD	FRANKLIN	KY		42134	YES	NO	NO	NO	ERIC ESKRIDGE	2705984323	3592	3363	3714					336312						36.791944	-86.563889	626618144								AISAN INDUSTRY CO LTD		NO	EESKRIDGE@FPIK.COM	
2012	PRESIDENT & CEO, NA REGION	BARRY KELLAR	42240FRDNBPEMBR	FREUDENBERG HOPKINSVILLE KY SITE	2975 PEMBROKE RD	HOPKINSVILLE	CHRISTIAN	KY	42240	FREUDENBERG HOPKINSVILLE KY SITE	2975 PEMBROKE RD	HOPKINSVILLE	KY		42240	YES	NO	NO	NO	BARRY KELLAR	2708875105	2297							333411						36.834069	-87.443483	130841042								FREUDENBERG-NOK	130841042	NO	BARRY.KELLAR@FREUDENBERG-FILTER.COM	
2012	EHS	BRETT PIERCE	40211CNSLV3601R	FRONTIER LOGISTICAL SERVICES LLC	3601 RALPH AVE	LOUISVILLE	JEFFERSON	KY	40211	FRONTIER LOGISTICAL SERVICES LLC	2000 RICHARD JONES ROAD, STE 100	NASHVILLE	TN		37215	YES	NO	NO	NO	BRETT E. PIERCE	6153503562	5169							424690						38.21003	-85.82865	012989125								FRONTIER LOGISTICAL SERVICES LLC.	012989125	NO	BPIERCE@FRONTIERLOGISTICAL.COM	
2012	GENERAL MANAGER	JEFFREY WILES	42629NNNDRPOBOX	FRUIT OF THE LOOM - JAMESTOWN	1 FRUIT OF THE LOOM DR	JAMESTOWN	RUSSELL	KY	42629	FRUIT OF THE LOOM - JAMESTOWN	PO BOX 170	JAMESTOWN	KY		42629	YES	NO	NO	NO	TIM BROCKMAN	2707816400	2322							313312						37.011721	-85.079223									BERKSHIRE HATHAWAY	110555005	NO	TIM.BROCKMAN@FOTLINC.COM	
2012	GM OPERATIONS	CHARLES GREENE	41096GLLTNUS42W	GALLATIN STEEL CO	U.S. HWY 42 W	WARSAW	GALLATIN	KY	41095	GALLATIN STEEL CO	4831 U.S. HWY 42 W	GHENT	KY		41045	YES	NO	NO	NO	CATHY HANLEY	8595673108	3312							331111						38.7625	-85	808368989								GERDAU GROUP		NO	CATHY.HANLEY@GALLATINSTEEL.COM	
2012	GM APPLIANCES SUPPLY CHAIN	MICHAEL CHANATRY	40225GPPLNAPPLI	GE APPLIANCES	APPLIANCE PARK	LOUISVILLE	JEFFERSON	KY	40225	GE APPLIANCES	APPLIANCE PARK BUILDING 3 -207	LOUISVILLE	KY		40225	YES	NO	NO	NO	JULIE WOOD	5024525914	3639	3632	3633					335228	335224	335222				38.168333	-85.651667	021735683	041860565							GENERAL ELECTRIC CO (GE CO)	001367960	NO		
2012	PLANT MANAGER	DOMINIC PITOCCO	42431GRCRFUSHWY	GE AVIATION	3050 NEBO RD	MADISONVILLE	HOPKINS	KY	42431	GE AVIATION	3050 NEBO RD	MADISONVILLE	KY		42431	YES	NO	NO	NO	SIERRA PHILLIPS	2708256479	3724							336412						37.356944	-87.54778	074047556								GENERAL ELECTRIC CO (GE CO)	001367960	NO	SIERRA.PHILLIPS@GE.COM	
2012	PLANT MANAGER	THOMAS BILLUPS	40503LXNGT1808G	GE LEXINGTON LAMP PLANT	1801 EDISON DR	LEXINGTON	FAYETTE	KY	40503	GE LEXINGTON LAMP PLANT	1801 EDISON DR	LEXINGTON	KY		40503	YES	NO	NO	NO	TAMMY PRICE	8592767937	3641							335110						38.023056	-84.52	124924887								G.E. CO	001367960	NO	TAMMY.PRICE@GE.COM	
2012	FACILITIES MANAGER	GARY HASH	40601HTMTV1030H	GECOM CORP	1030 HOOVER BLVD	FRANKFORT	FRANKLIN	KY	40601	GECOM CORP	1030 HOOVER BLVD	FRANKFORT	KY		40601	YES	NO	NO	NO	JOEY PHILLIPS	5026954000	3465	3714						336370	336360					38.170485	-84.812815	602117442								GECOM CORP	180021321	NO	JOEY_PHILLIPS@GECOMCORP.COM	
2012	PLANT MANAGER	BRETT OSTROWSKI	40342GNRLC1381B	GENERAL CABLE CORP	1381 BYPASS N	LAWRENCEBURG	ANDERSON	KY	40342	GENERAL CABLE CORP	1381 BYPASS N	LAWRENCEBURG	KY		40342	YES	NO	NO	NO	BRETT OSTROWSKI	5028396983	3357							335929						38.046111	-84.915	793463209								GENERAL CABLE CORP	793463209	NO	HALEXANDER@GENERALCABLE.COM	
2012	PLANT MANAGER	DAVE TATMAN	42101GNRLMI65US	GENERAL MOTORS LLC BOWLING GREEN ASSEMBLY PLANT	600 CORVETTE DR	BOWLING GREEN	WARREN	KY	42101	GENERAL MOTORS LLC BOWLING GREEN ASSEMBLY PLANT	600 CORVETTE DR	BOWLING GREEN	KY		42101	YES	NO	NO	NO	SHARON BASEL	3133786647	3711							336111						37.009122	-86.373565	099769952								GENERAL MOTORS LLC	831247536	NO	SHARON.BASEL@GM.COM	
2012	WORKS MANAGER	MARK OLSON	42029NRTHSPOBOX	GERDAU AMERISTEEL US INC	1035 SHAR-CAL RD	CALVERT CITY	MARSHALL	KY	42029	GERDAU AMERISTEEL US INC	1035 SHAR-CAL RD	CALVERT CITY	KY		42029	YES	NO	NO	NO	MARK OLSON	2703953143	3312							331221						37.047222	-88.383333	627168417								GERDAU GROUP	004093456	NO	MARK.OLSON@GERDAU.COM	
2012	ENVIRONMENTAL AND SECURITY MANAGER	ERIC GARDNER	42420GBBSDUS60W	GIBBS DIE CASTING CORP	369 COMMUNITY DR	HENDERSON	HENDERSON	KY	42420	GIBBS DIE CASTING CORP	369 COMMUNITY DR	HENDERSON	KY		42420	YES	NO	NO	NO	ERIC GARDNER	2708271801	3363							331521						37.80523	-87.64182	049946627								KOCH ENTERPRISES	006370357	NO	EGARDNER@GIBBSDC.COM	
2012	DIRECTOR OF OPERATIONS	LORRAINE YEAGER	41042GVDNF95SAM	GIVAUDAN FLAVORS CORP	9500 SAM NEACE DR	FLORENCE	BOONE	KY	41042	GIVAUDAN FLAVORS CORP	9500 SAM NEACE DR	FLORENCE	KY		41042	YES	NO	NO	NO	JEFF PEPPET	5139485655								311999						38.963056	-84.627778	020107962								GIVAUDAN US INC	007804680	NO	JEFF.PEPPET@GIVAUDAN.COM	
2012	EH&S MANAGER	JIM WESSEL	41097SNMNF107IN	GOTEC PLUS SUN LLC	107 INDUSTRIAL RD	WILLIAMSTOWN	GRANT	KY	41097	GOTEC PLUS SUN LLC	107 INDUSTRIAL RD	WILLIAMSTOWN	KY		41097	YES	NO	NO	NO	DON FITZGERALD	8598245004	3465							332812						38.647222	-84.569167	032313694								GOTEC PLUS SUN LLC	032313694	NO	D.FITZGERALD@GOTEC-GROUP.COM	
2012	REFRIGERATION SUPERVISOR	MONTY MOORE	4234WGRMTX1GURM	GOURMET EXPRESS	100 GOURMET DINING DR	GREENVILLE	MUHLENBERG	KY	42345	GOURMET EXPRESS	PO BOX 258	GREENVILLE	KY		42345	YES	NO	NO	NO	MONTY E. MOORE	2703773900								311412						37.21916	-87.17809	829726483										NO		
2012	ENVIRONMENTAL MANAGER	MICHAEL LIBBY	4047WGRSPR11CNT	GR SPRING & STAMPING INC	110 CONTINENTAL DR	RICHMOND	MADISON	KY	40475	GR SPRING & STAMPING INC	110 CONTINENTAL DR	RICHMOND	KY		40475	YES	NO	NO	NO	JEN ROBINSON	6163642080								336370						37.691389	-84.26									HZ INDUSTRIES	006018311	NO	JENNIFERROBINSON@GRS-S.COM	
2012	VICE PRESIDENT	DANIEL BOWERS	41056GRNTK1725D	GREEN TOKAI CO - MAYSVILLE	1725 DOWNING DR	MAYSVILLE	MASON	KY	41056	GREEN TOKAI CO - MAYSVILLE	1725 DOWNING DR	MAYSVILLE	KY		41056	YES	NO	NO	NO	JOE KISKADEN	6067594445	3714							336399						38.646245	-83.835331	937871887								GREEN TOKAI CO LTD		NO	JKISKADEN@GREENTOKAI.COM	
2012	PLANT MANAGER	PETER LOEBS	41042VNLRC7425I	GREIF PACKAGING LLC	7425 INDUSTRIAL RD	FLORENCE	BOONE	KY	41042	GREIF PACKAGING LLC	7425 INDUSTRIAL RD	FLORENCE	KY		41042	YES	NO	NO	NO	PETE LOEBS	8592823141	3412							332439						38.978889	-84.629444	107520991								GREIF INC	004282661	NO	PETE.LOEBS@GREIF.COM	
2012	VICE PRESIDENT OF ENVIRONMENTAL AFFAIRS	DOUG IRVIN	41006GRFFN1176B	GRIFFIN INDUSTRIES LLC	1176 BRYAN GRIFFIN RD	BUTLER	PENDLETON	KY	41006	GRIFFIN INDUSTRIES LLC	4221 ALEXANDRIA PIKE	COLD SPRING	KY		41076	YES	NO	NO	NO	CHRIS GRIFFIN	8597812010	2077	2048	2869					311613	311119	325199				38.731961	-84.407214	005092358				KYR001624				DARLING INTERNATIONAL INC	005092358	NO		
2012	VICE PRESIDENT OF ENVIRONMENTAL AFFAIRS	DOUG IRVIN	4227WGRFFN38CNC	GRIFFIN INDUSTRIES LLC	3080 CONCORD RD	RUSSELLVILLE	LOGAN	KY	42276	GRIFFIN INDUSTRIES LLC	3080 CONCORD RD	RUSSELLVILLE	KY		42276	YES	NO	NO	NO	CHRIS GRIFFIN	8597812010								311613						36.902222	-86.874444	004256509								DARLING INTERNATIONAL INC	005092358	NO		
2012	PLANT MANAGER	CHARLES  RAYMONT	42240GRPNT208CO	GRUPO ANTOLIN KENTUCKY	208 COMMERCE CT	HOPKINSVILLE	CHRISTIAN	KY	42240	GRUPO ANTOLIN KENTUCKY	208 COMMERCE CT	HOPKINSVILLE	KY		42240	YES	NO	NO	NO	TIM MARTIN	2708852703								336360						36.831806	-87.445167	808659114		KYR000009225								NO	TIM.MARTIN@GRUPOANTOLIN.COM	
2012	ENV. MANAGER	CORY HOSKINS	40351GRDNT200GU	GUARDIAN AUTOMOTIVE-MOREHEAD PLANT	200 GUARDIAN AVE	MOREHEAD	ROWAN	KY	40351	GUARDIAN AUTOMOTIVE-MOREHEAD PLANT	200 GUARDIAN AVE	MOREHEAD	KY		40351	YES	NO	NO	NO	CORY HOSKINS	6067836214	3089	3471	3999					326199	332813					38.20968	-83.482457	004890489								GUARDIAN INDUSTRIES CORP	054671169	NO		
2012	FACILITIES/EHS MANAGER	MARK HAGER	4104WHMMRS188A	HAMMER STRENGTH	188 HAMMER DR	FALMOUTH	PENDLETON	KY	41040	HAMMER STRENGTH	188 HAMMER DR	FALMOUTH	KY		41040	YES	NO	NO	NO	UNITED STATES COMPLIANCE CORPORATION	9522523000	3499							332999						38.64653	-84.3161											NO	EPCRA@USCOMPLIANCE.COM	
2012	REGIONAL ENVIRONMENTAL MANAGER	JAMES MCKEOWN	40380SBRCK2014M	HANSON BRICK STANTON PLANT	2014 MORRIS CREEK RD	STANTON	POWELL	KY	403800549	HANSON BRICK STANTON PLANT	2014 MORRIS CREEK RD	STANTON	KY		40380-0549	YES	NO	NO	NO	JEFF BREWER	6066634125	3251							327121						37.873361	-83.859667	092824895								LEHIGH HANSON	967342197	NO	JEFF.BREWER@HANSON.COM	
2012	MANAGER, ENVIRONMENTAL CONTROL	GLENN HUNDERTMARK	41045HCKTTBOX32	HARSCO METALS - GALLATIN	4411 US 42 W	GHENT	GALLATIN	KY	410459704	HARSCO METALS - GALLATIN	300 SEVEN FIELDS BLVD	SEVEN FIELDS	PA		16046	YES	NO	NO	NO	GLENN D HUNDERTMARK	7247416662	3295							327992						38.707633	-85.110988	003952009								HARSCO CORP	003952009	NO		
2012	ENVIRONMENTAL MANAGER HARSCO MINERALS	STEPHEN STANISLAWCZYK	41045RCMXN687HW	HARSCO MINERALS OF KY LLC	6870 HWY 42 E	GHENT	CARROLL	KY	41045	HARSCO MINERALS OF KY LLC	6870 HWY 42 E	GHENT	KY		41045	YES	NO	NO	NO	SHANE BABBITT	5023470130								339999						38.727778	-85.072222	960876556								HARSCO CORP	003002268	NO	SBABBITT@HARSCO.COM	
2012	CORPORATE EHS MANAGER	WILLIAM DECKER	42301HSNRJ3094M	HAUSNER HARD-CHROME OF KENTUCKY	3094 MEDLEY RD	OWENSBORO	DAVIESS	KY	42301	HAUSNER HARD-CHROME OF KENTUCKY	3094 MEDLEY RD	OWENSBORO	KY		42301	YES	NO	NO	NO	BILLY DECKER	2706842279	3471							332813						37.796389	-87.1525	094196532								HAUSNER HARD-CHROME INC		NO	BILLY.DECKER@HAUSNERINC.COM	
2012	VICE PRESIDENT AND GENERAL MANAGER	BOB MCDOLE	42301HNDRC3074M	HENDRICK SCREEN CO	3074 MEDLEY RD	OWENSBORO	DAVIESS	KY	42301	HENDRICK SCREEN CO	3074 MEDLEY RD	OWENSBORO	KY		42301	YES	NO	NO	NO	LEONARD A. OLLER	2706855138	3496							332618						37.77583	-87.15694	804501674								HENDRICK MANUFACTURING CO	172575250	NO		
2012	PLANT MANAGER	DEVIN  REYNOLDS	42503HNDRC565PI	HENDRICKSON TRAILER SUSPENSION SYSTEMS	565 PIN OAK DR	SOMERSET	PULASKI	KY	42503	HENDRICKSON TRAILER SUSPENSION SYSTEMS	565 PIN OAK DR	SOMERSET	KY		42503	YES	NO	NO	NO	ROBERT KENNEDY	6062742566								336330						37.171647	-84.476618	174043521								THE BOLER CO	093166080	NO	RKENNEDY@HENDRICKSON-INTL.COM	
2012	PLANT MANAGER	RICHARD MUDD	40033HNDRC655HE	HENDRICKSON TRUCK SUSPENSION SYSTEMS	655 HENDRICKSON DR	LEBANON	MARION	KY	40033	HENDRICKSON TRUCK SUSPENSION SYSTEMS	655 HENDRICKSON DR	LEBANON	KY		40033	YES	NO	NO	NO	RICHARD MUDD	2706992010	3714							336330						37.59111	-85.24833	837769678								THE BOLER CO		NO	RMUDD@HENDRICKSON-INTL.COM	
2012	EHS MANAGER	CARLTON FREEMAN	42101BDCMP31WNO	HENNESSY INDUSTRIES INC BADA DIV	759 HENNESSY WAY	BOWLING GREEN	WARREN	KY	42101	HENNESSY INDUSTRIES INC BADA DIV	759 HENNESSY WAY	BOWLING GREEN	KY		42101	YES	NO	NO	NO	CARLTON FREEMAN	2707811013	3714							336399						37.007778	-86.376111	038105891								DANAHER CORP		NO	CARLTON.FREEMAN@AMMCOATS.COM	
2012	PLANT DIRECTOR	JAMES VAUGHN	42101HLLSP151TU	HILL'S PET NUTRITION INC	151 TURNER CT	BOWLING GREEN	WARREN	KY	42101	HILL'S PET NUTRITION INC	PO BOX 1839	BOWLING GREEN	KY		42102	YES	NO	NO	NO	STEVE SCHULSTROM	2707457484	2047							311111						36.963333	-86.485	173697178								COLGATE-PALMOLIVE CO	173697178	NO	STEVE_SCHULSTROM@HILLSPET.COM	
2012	HEALTH SAFETY AND ENVIRONMENTAL MANAGER	MARIA OLSON	40330HTCHT955WA	HITACHI AUTOMOTIVE SYSTEMS AMERICAS INC - HK	955 WARWICK RD	HARRODSBURG	MERCER	KY	40330	HITACHI AUTOMOTIVE SYSTEMS AMERICAS INC - HK	955 WARWICK RD	HARRODSBURG	KY		40330	YES	NO	NO	NO	CRAIG FISHER	8597349451	3694	3714						336322	336312					37.780833	-84.84	130358682								HITACHI AMERICA LTD	051562908	NO	CRAIG.FISHER@HITACHI-AUTOMOTIVE.US	
2012	CHIEF ENGINEER HSE	BENNIE SLATER	40403TKCSN301MA	HITACHI AUTOMOTIVE SYSTEMS AMERICAS INC-BEREA KY	301 MAYDE RD	BEREA	MADISON	KY	40403	HITACHI AUTOMOTIVE SYSTEMS AMERICAS INC-BEREA KY	301 MAYDE RD	BEREA	KY		40403	YES	NO	NO	NO	BRIAN FOUCH	8599852105	3714							336330	336340					37.609167	-84.307778	130358682								HITACHI AMERICA LTD		NO	BRIAN.FOUCH@HITACHI-AUTOMOTIVE.US	
2012	E.H.S. MANAGER	BILLY DURRETT	42101CLTND1801R	HOLLEY PERFORMANCE PRODUCTS	1801 RUSSELLVILLE RD	BOWLING GREEN	WARREN	KY	42101	HOLLEY PERFORMANCE PRODUCTS	1801 RUSSELLVILLE RD	BOWLING GREEN	KY		42101	YES	NO	NO	NO	BILL DURRETT	2707822900	3714							336399						36.981871	-86.461992	197276736								HOLLEY PERFORMANCE PRODUCTS		NO	BILLDURRETT@HOLLEY.COM	
2012	DIRECTOR OF MANUFACTURING	DUSTIN VARVIL	42240CNTNNBILLB	HUBBARD FEEDS INC	130 BILL BRYAN BLVD	HOPKINSVILLE	CHRISTIAN	KY	42240	HUBBARD FEEDS INC	130 BILL BRYAN BLVD	HOPKINSVILLE	KY		42240	YES	NO	NO	NO	BRUCE CAMPBELL	5073889421	2048							311119						36.826111	-87.438333	111223996		TND981474125		KYK001587				RIDLEY USA INC		NO	BRUCE.CAMPBELL@RIDLEYINC.COM	
2012	GENERAL MANAGER	KELLY WIMAN	42303HNTRD16RAG	HUNTER DOUGLAS	1600 RAGU DR	OWENSBORO	DAVIESS	KY	42303	HUNTER DOUGLAS	1600 RAGU DR	OWENSBORO	KY		42303	YES	NO	NO	NO	JERRY BICKETT	2709266665	3089	3364						326199	331522					37.765833	-87.078333	046188165								HUNTER DOUGLAS	046188165	NO	JERRY.BICKETT@HUNTERDOUGLAS.COM	
2012	RESEARCH AND DEVELOPMENT MANAGER	PERRY BRUNER	40508HNTRM201WL	HUNTER MANUFACTURING LLP	201 W LOUDON AVE	LEXINGTON	FAYETTE	KY	40508	HUNTER MANUFACTURING LLP	201 W LOUDON AVE	LEXINGTON	KY		40508	YES	NO	NO	NO	PERRY BRUNER	8592547573	3263	3231						323113						38.059643	-84.48441	194554697										NO	PERRY.BRUNER@HUNTERMFG.COM	
2012	VP/ GENERAL MANAGER	KEITH DABBS	41129NCLLYOLDUS	HUNTINGTON ALLOYS CORP	OLD U.S. 23	BURNAUGH	BOYD	KY	41129	HUNTINGTON ALLOYS CORP	P. O. BOX 521	CATLETTSBURG	KY		41129	YES	NO	NO	NO	GARAN BAISDEN	3045265228	3356							331491						38.271667	-82.575	076826015								PRECISION CASTPARTS CORP	009027970	NO	GBAISDEN@SPECIALMETALS.COM	
2012	MANAGING DIRECTOR	WILLIAM PAINTER	42420HYDRL5801R	HYDRO ALUMINUM METALS USA LLC	5801 RIVERPORT RD	HENDERSON	HENDERSON	KY	42420	HYDRO ALUMINUM METALS USA LLC	5801 RIVERPORT RD	HENDERSON	KY		42420	YES	NO	NO	NO	JAMIE HANCOCK	2708300022	3365							331314						37.811944	-87.658333	078749484								HYDRO ALUMINUM METALS USA LLC	078749484	NO	JAMIE.HANCOCK@HYDRO.COM	
2012	VICE PRESIDENT OF OPERATIONS	MIKE TODD	42445HYDRG375PA	HYDRO GEAR	375 PARK AVE	PRINCETON	CALDWELL	KY	42445	HYDRO GEAR	375 PARK AVE	PRINCETON	KY		42445	YES	NO	NO	NO	RYAN NETTLES	2178534415								333996						37.11093	-87.91208	621577188								SAUER-DANFOSS INC	621577188	NO	RNETTLES@HYDRO-GEAR.COM	
2012	PRESIDENT/GENERAL MANAGER	GREG FELTNER	41317CGHZR2644F	ICG HAZARD LLC FLINT RIDGE WASHER	2644 FLINT RIDGE RD	CLAYHOLE	BREATHITT	KY	41317	ICG HAZARD LLC FLINT RIDGE WASHER	1021 TORI DR	HAZARD	KY		41701	YES	NO	NO	NO	DON GIBSON	6064357722								212111						37.485811	-83.220947									ARCH COAL INC.	052624962	NO	DGIBSON@ARCHCOAL.COM	
2012	PLANT MANAGER	DAVID JOHNSON	42718NGRSL11IND	INGERSOLL RAND CAMPBELLSVILLE OPERATIONS	101 INDUSTRIAL DR	CAMPBELLSVILLE	TAYLOR	KY	42718	INGERSOLL RAND CAMPBELLSVILLE OPERATIONS	101 INDUSTRIAL DR	CAMPBELLSVILLE	KY		42718	YES	NO	NO	NO	DALE PICCIRILLO	2704037551	3563							333912						37.344444	-85.333889	001368026								INGERSOLL-RAND CO	001368026	NO	DALE.PICCIRILLO@IRCO.COM	
2012	GENERAL MANAGER	MARTIN SPALDING	40069SPRNG70EAS	INOAC GROUP NORTH AMERICA LLC	70 E INDUSTRY DR	SPRINGFIELD	WASHINGTON	KY	40069	INOAC GROUP NORTH AMERICA LLC	PO BOX 167	SPRINGFIELD	KY		40069	YES	NO	NO	NO	ED ROBSON	8593365307	3086							326150						37.692222	-85.225278	090191599								INOAC USA	090610655	NO	EROBSON@INOACUSA.COM	
2012	VICE PRESIDENT OF OPERATIONS	BILL MCCURLEY	40324NTRNT101CA	INTERNATIONAL CRANKSHAFT INC	101 CARLEY CT	GEORGETOWN	SCOTT	KY	403249303	INTERNATIONAL CRANKSHAFT INC	101 CARLEY CT	GEORGETOWN	KY		40324-9303	YES	NO	NO	NO	MR. EUGIE MINTU	5028680003	3462							332111						38.197222	-84.543333	621626597								SUMITOMO METAL USA CORP	072205859	NO	EUGIEM@ICICRANK.COM	
2012	ENVIRONMENTAL - TECHNICAL MANAGER	LARRY GRIFFIN	42420MCMLL1500C	INTERNATIONAL PAPER - HENDERSON MILL	1500 COMMONWEALTH DR	HENDERSON	HENDERSON	KY	42420	INTERNATIONAL PAPER - HENDERSON MILL	1500 COMMONWEALTH DR	HENDERSON	KY		42420	YES	NO	NO	NO	DR. LARRY GRIFFIN	2708316005	2631							322130						37.817778	-87.587222	884779448								INTERNATIONAL PAPER CO	001316561	NO	LARRY.GRIFFIN@IPAPER.COM	
2012	CHIEF ENVIRONMENTAL OFFICER	TRACY BAYSINGER	41015FLNSL3535L	INTERPLASTIC CORP - FORT WRIGHT TRD	3535 LATONIA AVE	COVINGTON	KENTON	KY	41015	INTERPLASTIC CORP - FORT WRIGHT TRD	3535 LATONIA AVE	COVINGTON	KY		41015	YES	NO	NO	NO	IVAN LEVY	6514816860	2821							325211						39.043889	-84.514444	006151336								INTERPLASTIC CORP	006151336	NO	ILEVY@INTERPLASTIC.COM	
2012	FACILITIES ENGINEER	CHRIS QUIREY	40258NTRPL7501D	INTERPOLYMER CORP	7501 DISTRIBUTION DR	LOUISVILLE	JEFFERSON	KY	40258	INTERPOLYMER CORP	7501 DISTRIBUTION DR	LOUISVILLE	KY		40258	YES	NO	NO	NO	CHRIS B. QUIREY	5029332300	2821							325211						38.150833	-85.894167	041699919								INTERPOLYMER CORP		NO	CHRISQUIREY@INTERPOLYMER.US	
2012	OPERATIONS MANAGER	ROGER CLARKE	40475MRCNT2000E	INTERTAPE POLYMER GROUP	2000 ENTERPRISE DR	RICHMOND	MADISON	KY	40475	INTERTAPE POLYMER GROUP	2000 ENTERPRISE DR	RICHMOND	KY		40475	YES	NO	NO	NO	CURTIS CLARKE	6185290302	2671							322222						37.70582	-84.270174	103512893								INTERTAPE POLYMER GROUP	003344843	NO	CRCLARKE@ITAPE.COM	
2012	EHS&S DIRECTOR	CHRISTINE HIGDON	4206WNVNSY939SU	INVENSYS RAIL CORP	939 S MAIN ST	MARION	CRITTENDEN	KY	42064	INVENSYS RAIL CORP	2400 NELSON MILLER PKWY	LOUISVILLE	KY		40223	YES	NO	NO	NO	CHRISTINE HIGDON	5025948175								334290						37.31595	-88.08503	056819642										NO	CHRISTINE.HIGDON@INVENSYS.COM	
2012	EHS/HR COORDINATOR	JAIME CORNELIUS	41017HSCHM125MA	IOFINA CHEMICAL INC	1025 MARY LAIDLEY DR	COVINGTON	KENTON	KY	41017	IOFINA CHEMICAL INC	1025 MARY LAIDLEY DR	COVINGTON	KY		41017	YES	NO	NO	NO	JAIME CORNELIUS	8593568000								325199						39.0005	-84.533806	828217997								IOFINA PLC		NO	JAIMEC@IOFINA.COM	
2012	PLANT MANAGER	LARRY TAYLOR	41071NWPRTLICKI	IPSCO TUBULARS (KENTUCKY)  INC	100 STEEL PLANT RD	WILDER	CAMPBELL	KY	41071	IPSCO TUBULARS (KENTUCKY)  INC	100 STEEL PLANT RD	WILDER	KY		41071	YES	NO	NO	NO	JENNIFER MCDANIEL	8592927236	3317							331210						39.07	-84.493056	808554141								TMK IPSCO	808554141	NO	JMCDANIEL@TMK-IPSCO.COM	
2012	SITE GENERAL MANAGER	FRANK STEVENS	42029GFCHMHIGHW	ISP CHEMICALS LLC	455 N MAIN ST	CALVERT CITY	MARSHALL	KY	42029	ISP CHEMICALS LLC	PO BOX 37	CALVERT CITY	KY		42029	YES	NO	NO	NO	TIM WHITAKER	2703954165	2869							325199						37.047737	-88.35866	002188894								INTERNATIONAL SPECIALTY PRODUCTS INC	135412869	NO	TWHITAKER@ASHLAND.COM	
2012	PLANT MANAGER	JEFFREY HOGUE	40422HBRTC58COR	ITW FEG LLC HOBART DANVILLE DIV	58 CORPORATE DR	DANVILLE	BOYLE	KY	40422	ITW FEG LLC HOBART DANVILLE DIV	58 CORPORATE DR	DANVILLE	KY		40422	YES	NO	NO	NO	SHERRY DAVIS	8592367023	3589							333319						37.621944	-84.817778	005146428								ILLINOIS TOOL WORKS INC	005146428	NO	SHERRY.DAVIS@HOBARTCORP.COM	
2012	HR/ADMINISTRATIVE ASSISTANT	JUDY TUCKER	40361TWRMS7BYPA	ITW RAMSET RED HEAD	7000 BYPASS RD	PARIS	BOURBON	KY	40361	ITW RAMSET RED HEAD	7000 BYPASS RD	PARIS	KY		40361	YES	NO	NO	NO	JUDY TUCKER	8599877900								332722						38.225278	-84.2475	621531201								ILLINOIS TOOL WORKS INC	005146428	NO	JTUCKER@ITWCCNA.COM	
2012	VP OF OPERATIONS	CARL STUECK	40906JCKSNHWY25	JACKSON WWS INC	6209 N HWY 25	BARBOURVILLE	KNOX	KY	40906	JACKSON WWS INC	PO BOX 1060	BARBOURVILLE	KY		40906	YES	NO	NO	NO	CARL STUECK	6065239795	3589							333298						36.928611	-83.936667	006154611								HOSHIZAKI ELECTRIC CO LTD		NO	CARL.STUECK@JACKSONWWS.COM	
2012	DIRECTOR BOURBON DISTILLERY OPERATIONS	KEVIN SMITH	40110JMBMBHIGHW	JIM BEAM BRANDS CO	HWY 245	CLERMONT	BULLITT	KY	40110	JIM BEAM BRANDS CO	526 HAPPY HOLLOW RD	CLERMONT	KY		40110	YES	NO	NO	NO	JAMES TRUSLEY	5022152251	2085	2048						312140						37.92905	-85.652687	006372981		KY0006372981		KY0001660				BEAM INC.	001265768	NO	JAMES.TRUSLEY@BEAMGLOBAL.COM	
2012	DIRECTOR BOURBON DISTILLERY OPERATIONS	KEVIN SMITH	40107JMBMBHWY61	JIM BEAM BRANDS CO	HWY 61	BOSTON	NELSON	KY	40107	JIM BEAM BRANDS CO	1600 LEBANON JUNCTION RD	BOSTON	KY		40107	YES	NO	NO	NO	JAMES TRUSLEY	5022152251	2085	2048						312140						37.807747	-85.687444	006392021		KYO006372981		KY0001759				BEAM INC.	001265768	NO	JAMES.TRUSLEY@BEAMGLOBAL.COM	
2012	BU HS&E USA/CAN	DAVID CURRENCE	42141JLFRN20PRE	JL FRENCH GLASGOW PLANT #1	20 PRESTWICK DR	GLASGOW	BARREN	KY	42141	JL FRENCH GLASGOW PLANT #1	20 PRESTWICK DR	GLASGOW	KY		42141	YES	NO	NO	NO	DAVID CURRENCE	9204534465	3363							331521						36.974722	-85.930278	829100230								JL FRENCH CORP		NO	DAVID.CURRENCE@NEMAK.COM	
2012	BU HS&E USA/CAN	DAVID CURRENCE	4214WJLFRN4AMER	JL FRENCH GLASGOW PLANT #2	400 AMERICAN AVE	GLASGOW	BARREN	KY	42141	JL FRENCH GLASGOW PLANT #2	400 AMERICAN AVE	GLASGOW	KY		42141	YES	NO	NO	NO	DAVID CURRENCE	9204534392	3363							331521						37.008605	-85.941954	829100230								JL FRENCH CORP		NO	DAVID.CURRENCE@NEMAK.COM	
2012	PLANT MANAGER	JIM KACMAR	4241WJLKCR88SAN	JLOK CORP	880 SANDCUT RD	EARLINGTON	HOPKINS	KY	42410	JLOK CORP	880 SANDCUT RD	EARLINGTON	KY		42410	YES	NO	NO	NO	JIM KACMAR	2703263661								325991						37.27715	-87.487822									JLOK CORP		NO	JKACMAR@JENNMAR.COM	
2012	PLANT MANAGER	DWIGHT DUCKER	40324JHNSN824LE	JOHNSON CONTROLS GEORGETOWN	824 LEMONS MILL RD	GEORGETOWN	SCOTT	KY	40324	JOHNSON CONTROLS GEORGETOWN	824 LEMONS MILL RD	GEORGETOWN	KY		40324	YES	NO	NO	NO	MARY KAY DODERO	7342547704	3714							336360	326150					38.200209	-84.543869	801902289								JOHNSON CONTROLS INC	006092860	NO	MARY.KAY.DODERO@JCI.COM	
2012	REGIONAL ENVIRONMENTAL HEALTH & SAFETY SPEC	MICHAEL SEARS	40348WRSTMMAINS	JOY GLOBAL	100 STAMLER ST	MILLERSBURG	BOURBON	KY	40348	JOY GLOBAL	100 STAMLER ST	MILLERSBURG	KY		40348	YES	NO	NO	NO	GORDON FALLEN	8594843170	3532							333131						38.301216	-84.148894	172920225								JOY GLOBAL INC	153550793	NO	GORDON.FALLEN@JOYGLOBAL.COM	
2012	REGIONAL ENVIRONMENTAL HEALTH & SAFETY SPEC	MICHAEL SEARS	41465CNTNNHWY46	JOY GLOBAL	HWY 460 CONTINENTAL DR	SALYERSVILLE	MAGOFFIN	KY	41465	JOY GLOBAL	PO BOX 189	SALYERSVILLE	KY		41465	YES	NO	NO	NO	JUSTIN MASSEY	6063493111								333922						37.743889	-83.051111									JOY GLOBAL INC	153550793	NO	JUSTIN.MASSEY@JOYGLOBAL.COM	
2012	PRESIDENT	CHERYL BAUGUS	42002MDWST725NF	JSC TERMINAL LLC (DBA MIDWEST TERMINAL)	725 N 5TH ST	PADUCAH	MCCRACKEN	KY	42001	JSC TERMINAL LLC (DBA MIDWEST TERMINAL)	725 N 5TH ST	PADUCAH	KY		42001	YES	NO	NO	NO	MICHAEL SMITH	2704420362	5171							424710						37.09278	-88.60444	154528640										NO	MSMITH@JIMSMITHCONTRACTING.COM	
2012	DIRECTOR OF HUMAN RESOURCES	PATRICIA TOWNSEND	40065KTYMM6901M	KATAYAMA AMERICAN CO INC	6901 MIDLAND INDUSTRIAL DR	SHELBYVILLE	SHELBY	KY	40065	KATAYAMA AMERICAN CO INC	6901 MIDLAND INDUSTRIAL DR	SHELBYVILLE	KY		40065	YES	NO	NO	NO	JEFF REINHARDT	5028442432	3465							336370						38.222778	-85.25	603198847								KATAYAMA KOGYO CO LTD	690679279	NO	JREINHARDT@KACI.COM	
2012	ENGINEERING AND FACILITIES MANAGER	MARTIN HOFMEISTER	40216MTHRS2287R	KEEBLER CO	2287 RALPH AVE	LOUISVILLE	JEFFERSON	KY	40216	KEEBLER CO	2287 RALPH AVE	LOUISVILLE	KY		40216	YES	NO	NO	NO	SHAUN SHOWALTER	5024496815	2052							311821						38.20639	-85.80278	005356209								KELLOGG CO	005356209	NO	SHAUN.SHOWALTER@KELLOGG.COM	
2012	VP REASEARCH AND DEVELOPMENT	WILLIAM LAMAR	4021WKLLYT141S1	KELLEY TECHNICAL COATINGS INC	1401 S 15TH ST	LOUISVILLE	JEFFERSON	KY	40210	KELLEY TECHNICAL COATINGS INC	1445 S 15TH ST	LOUISVILLE	KY		40210	YES	NO	NO	NO	WILLIAM T. LAMAR	5026362561								325510						38.23262	-85.779166											NO	BILL.LAMAR@KELLEYTECH.COM	
2012	VP REASEARCH AND DEVELOPMENT	WILLIAM LAMAR	40210KLLYT1445S	KELLEY TECHNICAL COATINGS INC	1445 S 15TH ST	LOUISVILLE	JEFFERSON	KY	40210	KELLEY TECHNICAL COATINGS INC	1445 S 15TH ST	LOUISVILLE	KY		40210	YES	NO	NO	NO	WILLIAM T. LAMAR	5026362561	2851							325510						38.22928	-85.77928			KYD006367528	KYD985111939							NO	BILL.LAMAR@KELLEYTECH.COM	
2012	ENGINEERING & FACILITY MANAGER	KENNETH REMINES	41042MRLDN8060B	KELLOGG CO	500 WEAVER RD	FLORENCE	BOONE	KY	41042	KELLOGG CO	500 WEAVER RD	FLORENCE	KY		41042	YES	NO	NO	NO	BRUCE HAYDEN	7062525378	2052							311812						38.9675	-84.633611	043276393								KELLOGG CO	005356209	NO	BRUCE.HAYDEN@KELLOGG.COM	
2012	ASS'T DIRECTOR OF ENVIRONMENTAL COMPLIANCE	CHARLES SHESTAK	4233WKNMRC759ST	KENAMERICAN RESOURCES INC	7590 STATE RT 181 N	CENTRAL CITY	MUHLENBERG	KY	42330	KENAMERICAN RESOURCES INC	7590 STATE RT 181 N	CENTRAL CITY	KY		42330	YES	NO	NO	NO	CHARLIE SHESTAK	7403383100								212112						37.299167	-87.210278	012730804										NO	CSHESTAK@COALSOURCE.COM	
2012	VICE PRESIDENT/GENERAL MANAGER	JOHN SCHEEL	41105KNTCKUS60W	KENTUCKY ELECTRIC STEEL	2704 S BIG RUN RD	ASHLAND	BOYD	KY	41102	KENTUCKY ELECTRIC STEEL	PO BOX 2119	ASHLAND	KY		41105	YES	NO	NO	NO	JOHN SCHEEL	6069291200	3312							331111						38.3675	-82.764722	145911348								ALJ REGIONAL HOLDING CO		NO	SCHEEL_JOHN@HOTMAIL.COM	
2012	ENVIRONMENTAL ENGINEER	RANDY JUNKINS	40391KNTCK118EN	KENTUCKY HEAT TREATING	1180 ENTERPRISE DR	WINCHESTER	CLARK	KY	40391	KENTUCKY HEAT TREATING	1180 ENTERPRISE DR	WINCHESTER	KY		40391	YES	NO	NO	NO	RON DARNELL	8597449551								332811						38.016389	-84.181111									KENTUCKY HEAT TREATING		NO	RDARNELL@KYHEATTREAT.COM	
2012	PLANT MANAGER	RANDALL SHAFER	40361KNTCK14BEL	KENTUCKY SMELTING TECHNOLOGY	140 BELLAFATO DR	PARIS	BOURBON	KY	40361	KENTUCKY SMELTING TECHNOLOGY	140 BELLAFATO DR	PARIS	KY		40361	YES	NO	NO	NO	RANDY SHAFER	8599876998	3341							331314						38.222222	-84.269444	609031856								TOYOTA TSUSHO AMERICA INC	001790468	NO		
2012	EXECUTIVE VP & CFO	LARRY ROY	40258KNTCK77INT	KENTUCKY TRAILER PAINT	7070 INTERNATIONAL DR	LOUISVILLE	JEFFERSON	KY	40258	KENTUCKY TRAILER PAINT	7201 LOGISTICS DR	LOUISVILLE	KY		40258	YES	NO	NO	NO	LARRY ROY	5026372551								336212						38.16668	-85.88573	006945760								R C TWAY CO. INC	006378632	NO	LROY@KYTRAILER.COM	
2012	MANAGER, ENVIRONMENTAL PROGRAMS	MICHAEL WINKLER	40310KNTCKCURDS	KENTUCKY UTILITIES CO - E W BROWN STATION	815 DIX DAM RD	HARRODSBURG	MERCER	KY	40330	KENTUCKY UTILITIES CO - E W BROWN STATION	815 DIX DAM RD	HARRODSBURG	KY		40330	YES	NO	NO	NO	MARY CHRIS WHELAN	5026274999	4911							221112						37.793194	-84.721889	006944938								PPL CORP	621101484	NO	CHRIS.WHELAN@LGE-KU.COM	
2012	MANAGER, ENVIRONMENTAL PROGRAMS	MICHAEL WINKLER	41045KNTCKUS42P	KENTUCKY UTILITIES CO GHENT STATION	9485 US HWY 42E	GHENT	CARROLL	KY	410450338	KENTUCKY UTILITIES CO GHENT STATION	PO BOX 338	GHENT	KY		41045	YES	NO	NO	NO	MARY CHRIS WHELAN	5026274999	4911							221112						38.7497	-85.035	006944938								PPL CORP	621101484	NO	CHRIS.WHELAN@LGE-KU.COM	
2012	MANAGER, ENVIRONMENTAL PROGRAMS	MICHAEL WINKLER	42330KNTCKUS431	KENTUCKY UTILITIES CO GREEN RIVER STATION	US HWY 431	CENTRAL CITY	MUHLENBERG	KY	42330	KENTUCKY UTILITIES CO GREEN RIVER STATION	PO BOX 191 N POWER PLANT DR	CENTRAL CITY	KY		42330	YES	NO	NO	NO	MARY CHRIS WHELAN	5026274999	4911							221112						37.365278	-87.12	006944938								PPL CORP	621101484	NO	CHRIS.WHELAN@LGE-KU.COM	
2012	VICE PRESIDENT	RICHARD SHEPHERD	40258KYLC07520D	KEY OIL COMPANY-LOUISVILLE BULK PLANT	7520 DISTRIBUTION DR	LOUISVILLE	JEFFERSON	KY	40258	KEY OIL COMPANY-LOUISVILLE BULK PLANT	PO BOX 2809	FRANKLIN	KY		42135	YES	NO	NO	NO	RICHARD SHEPHERD	2705862176	5171							424710						38.151178	-85.88771	057589384								KEYSTOPS LLC	057589384	NO	DSHEPHERD@KEYSTOPS.COM	
2012	VICE PRESIDENT	RICHARD SHEPHERD	42134KYLSP376RE	KEY OIL SUPPLY	376 REASONOVER DR WILKEY N INDUSTRIAL PARK	FRANKLIN	SIMPSON	KY	42134	KEYSTOPS LLC	PO BOX 2809	FRANKLIN	KY		42135	YES	NO	NO	NO	RICHARD SHEPHERD	2705862176								424710						36.79259	-86.5636	057589384								KEYSTOPS LLC	057589384	NO	DSHEPHERD@KEYSTOPS.COM	
2012	MILL MANAGER	DAN LACHMANN	42301KMBRL601IN	KIMBERLY-CLARK CORP OWENSBORO OPERATIONS	601 INNOVATIVE WAY	OWENSBORO	DAVIESS	KY	42301	KIMBERLY-CLARK CORP OWENSBORO OPERATIONS	601 INNOVATIVE WAY	OWENSBORO	KY		42301	YES	NO	NO	NO	DAN LACHMANN	2707644400	2621							322121						37.820833	-87.301667									KIMBERLY-CLARK CORP	006047213	NO	DLACHMAN@KCC.COM	
2012	PLANT MANAGER	RICHARD ZIMMERMAN	42166KNGSF5126S	KINGSFORD MANUFACTURING CO	5126 SUMMER SHADE RD	SUMMER SHADE	METCALFE	KY	42166	KINGSFORD MANUFACTURING CO	PO BOX 9	SUMMER SHADE	KY		42166	YES	NO	NO	NO	RICK ZIMMERMAN	2704286208	2861							325191						36.8775	-85.659722	064641798								THE CLOROX CO	009138033	NO	RICK.ZIMMERMAN@CLOROX.COM	
2012	PLANT MANAGER	ROBERT KELLER	42519KNGSF9500S	KINGSFORD MANUFACTURING CO	9500 S HWY 27	BURNSIDE	PULASKI	KY	42519	KINGSFORD MANUFACTURING CO	PO BOX 487	BURNSIDE	KY		42519	YES	NO	NO	NO	ROBERT KELLER	6065614151	2861							325191						36.97	-84.584722	020437760								THE CLOROX CO	009138033	NO	ROBERT.KELLER@CLOROX.COM	
2012	VP	MASAUOBU ZUATA	42101KBLMN525CE	KOBE ALUMINUM AUTOMOTIVE PRODUCTS LLC	1 KOBE WAY	BOWLING GREEN	WARREN	KY	42101	KOBE ALUMINUM AUTOMOTIVE PRODUCTS LLC	1 KOBE WAY	BOWLING GREEN	KY		42101	YES	NO	NO	NO	JOHN GREGORY	2708426492	3463							332112						36.937028	-86.508417	144576779								KOBE ALUMINUM AUTOMOTIVE PRODUCTS LLC	144576779	NO	JOHNLG@KOBEAL.COM	
2012	HSE MANAGER	JOE WISDOM	4020WKCHFL625WH	KOCH FILTER CORP	625 W HILL ST	LOUISVILLE	JEFFERSON	KY	40208	KOCH FILTER CORP	625 W HILL ST	LOUISVILLE	KY		40208	YES	NO	NO	NO	JOE WISDOM	5026344796								333411						38.22648	-85.7664	024068132								TOMKINS PLC	184101194	NO	JWISDOM@KOCHFILTER.COM	
2012	PLANT MANAGER	HOWELL OWENS	42234KPPRSMERRI	KOPPERS INC (GUTHRIE KY)	198 FAIRGROUND RD	GUTHRIE	TODD	KY	42234	KOPPERS INC (GUTHRIE KY)	P. O. BOX 8	GUTHRIE	KY		42234	YES	NO	NO	NO	TED OWENS	2704832458	2491							321114						36.643306	-87.156444	006383392								KOPPERS INC	196991582	NO	OWENSHT@KOPPERS.COM	
2012	DIRECTOR OF GLOBAL PURCHASING	MICHAEL GERKIN	4109WKSTMG3CARB	KUSTOM GROUP	3 CARBON WAY	RICHWOOD	BOONE	KY	41094	KUSTOM GROUP	3 CARBON WAY	RICHWOOD	KY		41094	YES	NO	NO	NO	MICHAEL P GERKIN	5136042739								325998						38.92344	-84.6106									KUSTOM GROUP		NO	MPGERKIN@KUSTOMGROUP.COM	
2012	PLANT MANAGER	KEN BRITT	4108WLFRGN5145M	LAFARGE NA	5145 MARY INGLES HWY	SILVER GROVE	CAMPBELL	KY	41085	LAFARGE NA	5145 MARY INGLES HWY	SILVER GROVE	KY		41085	YES	NO	NO	NO	SCOTT WALTON	8594484731								327420						39.03672	-84.39019	067568246								LAFARGE NA INC	067568246	NO	SCOTT.WALTON@LAFARGE-NA.COM	
2012	TECHNICAL SERVICES MANAGER	MICHAEL KRZYZANOWSKI	41031LNDMR267SA	LANDMARK STONE	267 SAFETY WAY RD	CYNTHIANA	HARRISON	KY	41031	LANDMARK STONE	PO BOX 7276	CYNTHIANA	KY		41031	YES	NO	NO	NO	ARLAN MCFALL	8592359636	3271							327331						38.317778	-84.302222									OLDCASTLE INC	037176591	NO	ARLAN.MCFALL@OLDCASTLE.COM	
2012	ENVIRONMENTAL COORDINATOR	DWIGHT STAMPER	40019HSSYCMULBE	LIBERTAS COPPER LLC	1178 MULBERRY RD	EMINENCE	HENRY	KY	40019	LIBERTAS COPPER LLC	1178 MULBERRY RD	EMINENCE	KY		40019	YES	NO	NO	NO	DWIGHT D. STAMPER	8595561675	3351							331421						38.357222	-85.161389	113424154								LIBERTAS COPPER LLC	113424154	NO	DSTAMPER@HUSSEYCOPPER.COM	
2012	VP MANUFACTURING	RUSSELL HOPPER	40509LNKBL3001T	LINK BELT CONSTRUCTION EQUIPMENT	2651 PALUMBO DR	LEXINGTON	FAYETTE	KY	40509	LINK BELT CONSTRUCTION EQUIPMENT	PO BOX 13600	LEXINGTON	KY		40583	YES	NO	NO	NO	KENNETH R. JOHNSON	8592635200	3531							333120						38.013333	-84.438889	154514814								SUMITOMO HEAVY INDUSTRIES LTD		NO	KJOHNSON@LINKBELT.COM	
2012	VICE PRESIDENT, TECHNICAL DEVELOPMENT	GLENN VICE	41042LTTLF7451E	LITTLEFORD DAY	7451 EMPIRE DR	FLORENCE	BOONE	KY	41042	LITTLEFORD DAY	7451 EMPIRE DR	FLORENCE	KY		41042	YES	NO	NO	NO	GLENN S VICE	8595257600	3559							333298						38.971434	-84.625115	150681922								LITTLEFORD DAY INC	150681922	NO	GVICE@LITTLEFORD.COM	
2012	PRESIDENT	RANDY SCHUMAKER	42276LGNLMPOBOX	LOGAN ALUMINUM INC	US HWY 431 N	RUSSELLVILLE	LOGAN	KY	42276	LOGAN ALUMINUM INC	PO BOX 3000	RUSSELLVILLE	KY		42276	YES	NO	NO	NO	TIM ANDERSON	2707556000	3353							331314	331315					36.942885	-86.937382	130400799								LOGAN ALUMINUM INC	130400799	NO	TIM.ANDERSON@LOGAN-ALUMINUM.COM	
2012	SR. PLANT MANAGER	STEVEN SCHRADER	42101LRDCR2800P	LORD CORP	2800 PIONEER DR	BOWLING GREEN	WARREN	KY	42101	LORD CORP	2800 PIONEER DR	BOWLING GREEN	KY		42101	YES	NO	NO	NO	STEVE SCHRADER	2707815440	3069							326299						36.952777	-86.489659	005031281								LORD CORP	005031281	NO	STEVEN.SCHRADER@LORD.COM	
2012	PRESIDENT	JAMES KINSER	40214LSVLL7657N	LOUISVILLE COOLER MANUFACTURING CO	7635 NATIONAL TURNPIKE UNIT 130	LOUISVILLE	JEFFERSON	KY	40214	LOUISVILLE COOLER MANUFACTURING CO	7635 NATIONAL TURNPIKE UNIT 130	LOUISVILLE	KY		40214	YES	NO	NO	NO	JIM KINSER	5023631692	3585							326150						38.138506	-85.753641											NO	JKINSER@LVLCOOLER.COM	
2012	MANAGER, ENVIRONMENTAL PROGRAMS	MICHAEL WINKLER	40216LSVLL5252C	LOUISVILLE GAS & ELECTRIC CO - CANE RUN STATION	5252 CANE RUN RD	LOUISVILLE	JEFFERSON	KY	402161108	LOUISVILLE GAS & ELECTRIC CO - CANE RUN STATION	5252 CANE RUN RD	LOUISVILLE	KY		40216-1108	YES	NO	NO	NO	MARY CHRIS WHELAN	5026274999	4911							221112						38.1828	-85.8894	006945505								PPL CORP	621101484	NO	CHRIS.WHELAN@LGE-KU.COM	
2012	MANAGER, ENVIRONMENTAL PROGRAMS	MICHAEL WINKLER	40272LSVLL14660	LOUISVILLE GAS & ELECTRIC CO - MILL CREEK STATION	14660 DIXIE HWY	LOUISVILLE	JEFFERSON	KY	402721016	LOUISVILLE GAS & ELECTRIC CO - MILL CREEK STATION	14660 DIXIE HWY	LOUISVILLE	KY		40272-1016	YES	NO	NO	NO	MARY CHRIS WHELAN	5026274999	4911							221112						38.0531	-85.91	006945505								PPL CORP	621101484	NO	CHRIS.WHELAN@LGE-KU.COM	
2012	MANAGER, ENVIRONMENTAL PROGRAMS	MICHAEL WINKLER	40006LSVLL487CO	LOUISVILLE GAS & ELECTRIC CO - TRIMBLE COUNTY STATION	487 CORN CREEK RD	BEDFORD	TRIMBLE	KY	400068514	LOUISVILLE GAS & ELECTRIC CO - TRIMBLE COUNTY STATION	487 CORN CREEK RD	BEDFORD	KY		40006-8514	YES	NO	NO	NO	MARY CHRIS WHELAN	5026274999	4911							221112						38.580833	-85.411944	006945505								PPL CORP	621101484	NO	CHRIS.WHELAN@LGE-KU.COM	
2012	SAP AND INVENTORY COORDINATOR	VANESSA MARSHALL	40214LRDNC7753N	LOUISVILLE PACKAGING	7745 NATIONAL TURNPIKE	LOUISVILLE	JEFFERSON	KY	40214	LOUISVILLE PACKAGING	7745 NATIONAL TURNPIKE	LOUISVILLE	KY		40214	YES	NO	NO	NO	WILLIAM.E.WICKER	5023638000	2869							325120						38.138889	-85.747222									LOUISVILLE PACKAGING		NO	WILLIAM.W.WICKER@USA.DUPONT.COM	
2012	PLANT MANAGER	F. CHRISTOPHER CLEMSON	42029NVNNC2468I	LUBRIZOL ADVANCED MATERIALS INC	2468 INDUSTRIAL PKWY	CALVERT CITY	MARSHALL	KY	42029	LUBRIZOL ADVANCED MATERIALS INC	PO BOX 1498	CALVERT CITY	KY		42029	YES	NO	NO	NO	F. CHRISTOPHER CLEMSON	2703951009	2821							325211						37.051109	-88.331665	003893620								BERKSHIRE HATHAWAY	001024314	NO	CHRIS.CLEMSON@LUBRIZOL.COM	
2012	PLANT MANAGER	SAM STRIEGEL	40211BFGDR4100B	LUBRIZOL ADVANCED MATERIALS INC	4200 BELLS LN	LOUISVILLE	JEFFERSON	KY	402112147	LUBRIZOL ADVANCED MATERIALS INC	4200 BELLS LN	LOUISVILLE	KY		40211-2147	YES	NO	NO	NO	ALICE SIMPSON	5027725710	2821							325211						38.221389	-85.828611	627773799								BERKSHIRE HATHAWAY	001024314	NO	ALICE.SIMPSON@LUBRIZOL.COM	
2012	FACILITY ENGINEERING MANAGER	RICHARD BIGGS	41042SWCNC8029D	M-I LLC SWECO DIV	8029 US HWY 25	FLORENCE	BOONE	KY	41042	M-I LLC SWECO DIV	PO BOX 1509	FLORENCE	KY		410221509	YES	NO	NO	NO	GARY NEAL	8592838427	3569	3496	3499	3541				333999						38.979167	-84.619444	063968382								SCHLUMBERGER TECHNOLOGY CORP	005926100	NO	GNEAL@SWECO.COM	
2012	GENERAL MANAGER	TODD PALMER	41051MGNND10250	MAGNI INDUSTRIES INC	10250 TOEBBEN DR	INDEPENDENCE	BOONE	KY	41051	MAGNI INDUSTRIES INC	10250 TOEBBEN DR	INDEPENDENCE	KY		41051	YES	NO	NO	NO	TODD R. PALMER	8597461777	2851							325510						38.949444	-84.617222	095413050								THE MAGNI GROUP INC	151266269	NO	TPALMER@MAGNIINDUSTREIS.COM	
2012	DEPUTY ASSISTANT SECRETARY, MPC LP	TIMOTHY AYDT	41015CVNGT230E3	MARATHON PETROLEUM CO - COVINGTON KY TERMINAL	230 E 33RD ST	COVINGTON	KENTON	KY	410151250	MARATHON PETROLEUM CO - COVINGTON KY TERMINAL	539 S MAIN ST	FINDLAY	OH		458403295	YES	NO	NO	NO	GREG MOORE	4194213774	5171							424710						39.052778	-84.498333	616766119								MARATHON PETROLEUM CORP	968393996	NO	WGMOORE@MARATHONPETROLEUM.COM	
2012	DEPUTY ASSISTANT SECRETARY, MPC LP	TIMOTHY AYDT	40504LXNGT1770O	MARATHON PETROLEUM CO - LEXINGTON KY TERMINAL	1770 OLD FRANKFORT PIKE	LEXINGTON	FAYETTE	KY	405041010	MARATHON PETROLEUM CO - LEXINGTON KY TERMINAL	539 S MAIN ST	FINDLAY	OH		458403295	YES	NO	NO	NO	GREG MOORE	4194213774	5171							424710						38.059444	-84.540556	068212752								MARATHON PETROLEUM CORPORATOIN	968393996	NO	WGMOORE@MARATHONPETROLEUM.COM	
2012	DEPUTY ASSISTANT SECRETARY, MPC LP	TIMOTHY AYDT	40211LSVLL4510A	MARATHON PETROLEUM CO - LOUISVILLE (ALG) KY TERMINAL	4510 ALGONQUIN PKWY	LOUISVILLE	JEFFERSON	KY	402112407	MARATHON PETROLEUM CO - LOUISVILLE (ALG) KY TERMINAL	539 S MAIN ST	FINDLAY	OH		458403295	YES	NO	NO	NO	GREG MOORE	4194213774	5171							424710						38.23204	-85.83027	074069980								MARATHON PETROLUEM CORP	967393996	NO		
2012	DEPUTY ASSISTANT SECRETARY, MPC LP	TIMOTHY AYDT	40216LSVLL3920K	MARATHON PETROLEUM CO - LOUISVILLE (KRAMERS) KY	3920 KRAMER'S LN	LOUISVILLE	JEFFERSON	KY	402164651	MARATHON PETROLEUM CO - LOUISVILLE (KRAMERS) KY	539 S MAIN ST	FINDLAY	OH		458403295	YES	NO	NO	NO	GREG MOORE	4194213774	5171							424710						38.206154	-85.847851	055122568								MARATHON PETROLUEM CORP	968393996	NO	WGMOORE@MARATHONPETROLEUM.COM	
2012	VICE PRESIDENT	STEVEN MARCUS	40202MRCSP235EM	MARCUS PAINT CO	235 E MARKET ST	LOUISVILLE	JEFFERSON	KY	40202	MARCUS PAINT CO	235 E MARKET ST	LOUISVILLE	KY		40202	YES	NO	NO	NO	STEVEN M. MARCUS	5025840303	2851							325510						38.254534	-85.74951	006383202										NO	STEVEM@MARCUSPAINT.COM	
2012	PLANT MANAGER	KEN DARNELL	40353QLTYC51CLA	MASCO CABINETRY LLC (FORMERLY MASCO BUILDER CABINET GROUP)	51 CLARENCE DR	MOUNT STERLING	MONTGOMERY	KY	40353	MASCO CABINETRY LLC (FORMERLY MASCO BUILDER CABINET GROUP)	51 CLARENCE DR	MOUNT STERLING	KY		40353	YES	NO	NO	NO	SARA OSTERMAN, DIR. EHS SYSTEMS & COMPLIANCE	7342054504	2434							337110						38.093611	-83.9									MASCO CORP	005320924	NO	SARA.OSTERMAN@MASCOCABINETRY.COM	
2012	PRESIDENT	BRIAN PAPKE	41042MZKCR8025P	MAZAK CORP	8025 PRODUCTION DR	FLORENCE	KENTON	KY	41042	MAZAK CORP	P. O. BOX 970	FLORENCE	KY		41022	YES	NO	NO	NO	JOHN FELDMANN	8593421700	3541							333512						38.97784	-84.602722	071279798								MAZAK	071279798	NO	JFELDMANN@MAZAKCORP.COM	
2012	SAFETY SPECIALIST	RICHARD KEARNELY	4263WMCCRR33FED	MCCREARY US PENITENTARY	330 FEDERAL WAY	PINE KNOT	MC CREARY	KY	42635	MCCREARY US PENITENTARY	330 FEDERAL WAY	PINE KNOT	KY		42635	YES	NO	YES	NO	JANICE BISHOP	6063547003								922140						36.688089	-84.38854									US DEPARTMENT OF JUSTICE		YES	AJBISHOP@BOP.GOV	
2012	PRESIDENT	MICHAEL CAMPBELL	42354MCHNRNELSO	MCHENRY BRASS INC	89 N JANE ST	MC HENRY	OHIO	KY	42354	MCHENRY BRASS INC	PO BOX 156	MC HENRY	KY		423540156	YES	NO	NO	NO	MICHAEL D. CAMPBELL	2702749651	3366							331525						37.380278	-86.925556	079673554										NO	MIKE@MCHENRYBRASS.COM	
2012	CEO	MIKE TORAKIS	40356NNDST801JO	MCKECHNIE VEHICLE COMPONETS	801 JOHN C WATTS DR	NICHOLASVILLE	JESSAMINE	KY	40356	MCKECHNIE VEHICLE COMPONETS	801 JOHN C WATTS DR	NICHOLASVILLE	KY		40356	YES	NO	NO	NO	RICK SATTERLY	8598876200	3714							336399						37.861602	-84.573187	360625743										NO		
2012	PLANT MANAGER	DAVID ALTHOUSE	42087WSTVCHIGHA	MEADWESTVACO VIRGINIA CORP - WICKLIFFE CARBON PLANT	2025 BEECH GROVE RD	WICKLIFFE	BALLARD	KY	42087	MEADWESTVACO VIRGINIA CORP - WICKLIFFE CARBON PLANT	2025 BEECH GROVE RD PO BOX 249	WICKLIFFE	KY		42087	YES	NO	NO	NO	THOMAS MCNEIL	8044446353	2819							325199						36.95	-89.066111	002553860								MEADWESTVACO CORP	102235004	NO	TUCKER.MCNEIL@MWV.COM	
2012	GROUP LEADER HSE	GIULIO GABRIELE	40422MGGTT19CRP	MEGGITT AIRCRAFT BRAKING SYSTEMS KENTUCKY CORP	190 CORPORATE DR	DANVILLE	BOYLE	KY	40422	MEGGITT AIRCRAFT BRAKING SYSTEMS KENTUCKY CORP	190 CORPORATE DR	DANVILLE	KY		40422	YES	NO	NO	NO	EDWARD SEARLE	3307965745								336413						37.628889	-84.821944	780810037								MEGGITT AIRCRAFT BRAKING SYSTEMS CORP	361941875	NO	ED.SEARLE@MEGGITT.COM	
2012	SITE MANAGER	JASON WRIGHT	42135MRTRH115OG	MERITOR	115 OGLES AVE	FRANKLIN	SIMPSON	KY	42134	MERITOR	115 OGLES AVE	FRANKLIN	KY		42134	YES	NO	NO	NO	KRISTA SOHM	2484357115	3321							331511						36.738611	-86.578056	006379002								MERITOR	788082092	NO	KRISTA.SOHM@MERITOR.COM	
2012	CEO MESSIER BUGATTI USA	PAT HAYWOOD	41094CRBLLONECA	MESSIER-BUGATTI USA LLC	ONE CARBON WAY	WALTON	BOONE	KY	41094	MESSIER-BUGATTI USA LLC	ONE CARBON WAY	WALTON	KY		41094	YES	NO	NO	NO	TODD FOSTER	8598173105	3728							336413						38.862778	-84.640833	080818359								SAFRAN USA	794107214	NO	TODDM.FOSTER@USA.MESSIER-BUGATTI.COM	
2012	ENVIRONMENTAL HEALTH & SAFETY MANAGER	CORINNE DOBBINS	40475MKRNN1MIKR	MIKRON INDUSTRIES INC	100 MIKRON WAY	RICHMOND	MADISON	KY	40475	MIKRON INDUSTRIES INC	100 MIKRON WAY	RICHMOND	KY		40475	YES	NO	NO	NO	CORINNE DOBBINS	2533981361	3089							326199						37.706667	-84.271111	046686622								QUANEX CORP	005357249	NO	CORINNE.DOBBINS@QUANEX.COM	
2012	SENIOR SHEC SPECIALIST	LEO HICKAM	40324CLTTN150CA	MINOVA USA INC	150 CARLEY CT	GEORGETOWN	SCOTT	KY	40324	MINOVA USA INC	150 CARLEY CT	GEORGETOWN	KY		40324	YES	NO	NO	NO	LEONARD HICKAM	5028636800	3087							325991	327999					38.197686	-84.544712	058370685								MINOVA HOLDING INC	130382588	NO	LEO.HICKAM@MINOVAINT.COM	
2012	MAINTENANCE SUPERVISOR	SONJA BRUMETT	40258MSMTL711IN	MISA METAL FABRICATING INC	7101 INTERNATIONAL DR	LOUISVILLE	JEFFERSON	KY	40258	MISA METAL FABRICATING INC	7101 INTERNATIONAL DR	LOUISVILLE	KY		40258	YES	NO	NO	NO	SONJA BRUMETT	5029335555								333512						38.165	-85.885	609399814										NO	SONJA_BRUMETT@RIVERPORTSTEEL.COM	
2012	PLANT MANAGER	KENNY PITAKIS	41056MTSBS1705D	MITSUBISHI ELECTRIC AUTOMOTIVE AMERICA	1705 DOWNING DR	MAYSVILLE	MASON	KY	41056	MITSUBISHI ELECTRIC AUTOMOTIVE AMERICA	1705 DOWNING DR	MAYSVILLE	KY		41056	YES	NO	NO	NO	KENNY PITAKIS	6067594513	3694							336322						38.644173	-83.835861	938287257		KYR000006882						MITSUBISHI ELECTRIC CORP		NO	KPITAKIS@MEAA.MEA.COM	
2012	VICE-PRESIDENT/MANAGER	JOHN AUSTIN	42303MDRNW1450E	MODERN WELDING CO OF OWENSBORO INC	1450 E PARRISH AVE	OWENSBORO	DAVIESS	KY	42303	MODERN WELDING CO OF OWENSBORO INC	1450 E PARRISH AVE	OWENSBORO	KY		42303	YES	NO	NO	NO	JOHN D. AUSTIN	2706835323	3499	3795						332313						37.765298	-87.095425	848919130								MODERN WELDING CO INC	006370712	NO	JAUSTIN@MODWELDCO.COM	
2012	SITE LEADER	JEFFREY ANDERSON	40216BRDNN6200C	MOMENTIVE SPECIALTY CHEMICALS INC	6200 CAMPGROUND RD	LOUISVILLE	JEFFERSON	KY	40216	MOMENTIVE SPECIALTY CHEMICALS INC	6200 CAMPGROUND RD	LOUISVILLE	KY		40216	YES	NO	NO	NO	JEFFREY L. ANDERSON	5024496315	2821	2869						325211	325199					38.195278	-85.872222	055832091								MOMENTIVE PERFORMANCE MATERIALS HOLDINGS LLC	965214146	NO	JEFFREY.ANDERSON@MOMENTIVE.COM	
2012	PLANT MANAGER	LYLE BERGMAN	42071RYNMLECHES	MORNINGSTAR FOODS CO	100 E CHESTNUT ST	MURRAY	CALLOWAY	KY	42071	MORNINGSTAR FOODS CO	PO BOX 1175	MURRAY	KY		42071	YES	NO	NO	NO	BRAD DEMAREST	2707621630	2026							311511						36.617222	-88.296944	006373286								DEAN FOODS CO	005104815	NO	BRAD.DEMAREST@SAPUTO.COM	
2012	DIRECTOR OF STEMCO BRAKE PRODUCTS	TOM ELKINS	40403MTRWHGLADE	MOTOR WHEEL COMMERCIAL VEHICLE SYSTEMS INC	159 GLADES RD	BEREA	MADISON	KY	40403	MOTOR WHEEL COMMERCIAL VEHICLE SYSTEMS INC	159 GLADES RD	BEREA	KY		40403	YES	NO	NO	NO	JEFF SCHUCK	8599869381	3714							332710						37.616667	-84.291667	151674249								STEMCO		NO	JSCHUCK@MOTORWHEELCVS.COM	
2012	HUMAN RESOURCES MANAGER	JERRY PETERSON	42701MSRCS2112N	MOUSER CUSTOM CABINETRY	2112 N DIXIE AVE	ELIZABETHTOWN	HARDIN	KY	42701	MOUSER CUSTOM CABINETRY	2112 N DIXIE AVE	ELIZABETHTOWN	KY		42701	YES	NO	NO	NO	JERRY PETERSON	2707377477	2434							337110						37.739501	-85.889755	026007450										NO	JPETERSON@MOUSERCC.COM	
2012	EHS COORDINATOR	JUSTIN  CHARD	41042MBNCX8252D	MUBEA INC	8252 DIXIE HWY	FLORENCE	BOONE	KY	41042	MUBEA INC	8200 DIXIE HWY	FLORENCE	KY		41042	YES	NO	NO	NO	JUSTIN CHARD	8597465300	3499							332611						38.97561	-84.61768	044489110										NO	JUSTIN.CHARD@MUBEAUSA.COM	
2012	PLANT ADMINISTRATION MANAGER	ANGIE MILLER	4271WMRKMM575WA	MURAKAMI MANUFACTURING USA INC	575 WATER TOWER BYPASS	CAMPBELLSVILLE	TAYLOR	KY	42718	MURAKAMI MANUFACTURING USA INC	575 WATER TOWER BYPASS	CAMPBELLSVILLE	KY		42718	YES	NO	NO	NO	LEE BISHOP	2704693939								336399						37.339444	-85.322222	024780061										NO	LBISHOP@MURAKAMI-USA.COM	
2012	PLANT MANAGER	RODNEY WILSON	40403HYSTRPOBOX	NACCO MATERIALS HANDLING GROUP INC	2200 MENELAUS RD	BEREA	MADISON	KY	40403	NACCO MATERIALS HANDLING GROUP INC	2200 MENELAUS RD	BEREA	KY		40403	YES	NO	NO	NO	STEVE LAWSON	8599865787	3537							333924						37.602778	-84.310278	068331735								HYSTER-YALE MATERIALS HANDLING INC	602472573	NO	ABSLAWSO@NMHG.COM	
2012	PLANT MANAGER	TOM NUNN	42101SSPNS3251N	NASCO	3251 NASHVILLE RD	BOWLING GREEN	WARREN	KY	42101	NASCO	3251 NASHVILLE RD	BOWLING GREEN	KY		42101	YES	NO	NO	NO	GREGG GEORGE	2704672144	3493	3495	3714					332611						36.966111	-86.465556	185281623								NASCO	185281623	NO		
2012	DIVISION OPERATIONS MANAGER	STEVE WAGNER	40601NSHVL616IN	NASHVILLE WIRE PRODUCTS	616 INDUSTRIAL PARK DR	FRANKFORT	FRANKLIN	KY	40601	NASHVILLE WIRE PRODUCTS	1604 COUNTY HOSPITAL RD	NASHVILLE	TN		37218	YES	NO	NO	NO	STEVE WAGNER	6157432500								332618						38.1675	-84.785833	613324763										NO	SWAGNER@NASHVILLEWIRE.COM	
2012	PLANT MANAGER	ROBERT LELLIE	42320NNDST1TECH	NEO INDUSTRIES KENTUCKY LLC	10 TECHNOLOGY PL	BEAVER DAM	OHIO	KY	42320	NEO INDUSTRIES KENTUCKY LLC	10 TECHNOLOGY PL	BEAVER DAM	KY		42320	YES	NO	NO	NO	BOB LELLIE	2702743504	3471							332813						37.385877	-86.868973	804708097		KY00000429						NEO INDUSTRIES (USA) INC	877589358	NO	BLELLIE@NEODELIVERS.COM	
2012	ENVIRONMENTAL COORDINATOR	ANN KILKELLY	40004NWCMB1360E	NEWCOMB OIL CO	1360 E JOHN ROWAN BLVD	BARDSTOWN	NELSON	KY	40004	NEWCOMB OIL CO	1360 E JOHN ROWAN BLVD	BARDSTOWN	KY		40004	YES	NO	NO	NO	ANN KILKELLY	5023483961	5171							424720						37.824722	-85.455556	050006196								NEWCOMB OIL CO LLC	050006196	NO	ANNK@NEWCOMBOIL.COM	
2012	ENVIRONMENTAL COORDINATOR	ANN KILKELLY	42728NWCMB706BU	NEWCOMB OIL CO -COLUMBIA BULK PLANT	706 BURKESVILLE ST	COLUMBIA	ADAIR	KY	42728	NEWCOMB OIL CO -COLUMBIA BULK PLANT	1360 E JOHN ROWAN BLVD	BARDSTOWN	KY		40004	YES	NO	NO	NO	ANN KILKELLY	5023483961	5171	5541						424720						37.098611	-85.314444	050006196								NEWCOMB OIL CO LLC	050006196	NO	ANNK@NEWCOMBOIL.COM	
2012	ACTING FACILITY MANAGER	CHRISTIAN DEGRANDI	40211SHLND4185A	NEXEO SOLUTIONS LLC - LOUISVILLE	4185 ALGONQUIN PKWY	LOUISVILLE	JEFFERSON	KY	40211	NEXEO SOLUTIONS LLC - LOUISVILLE	3 WATERWAY SQUARE PLACE, SUITE 1000	THE WOODLANDS	TX		77380	YES	NO	NO	NO	LINDA DENISON	6147904277	5169							424690						38.23051	-85.82596									NEXEO SOLUTIONS LLC		NO	LJDENISON@NEXEOSOLUTIONS.COM	
2012	VICE PRESIDENT - EASTERN OPERATIONS	JOHN LINCOLN	40214BYLSG6310K	NORTH AMERICAN GALVANIZING CO LOUISVILLE	6310 KENJOY DR	LOUISVILLE	JEFFERSON	KY	40214	NORTH AMERICAN GALVANIZING CO LOUISVILLE	6310 KENJOY DR	LOUISVILLE	KY		40214	YES	NO	NO	NO	JASON PENCE	8178100095	3479							332812						38.166794	-85.758616	007218167								AZZ INC	008012148	NO	JASONPENCE@AZZGALV.COM	
2012	SR. MANAGER, CORPORATE EHS	RHONDA VETE	41175DDRTYHIGHW	NORTH AMERICAN REFRACTORIES CO	US HWY 23	SOUTH SHORE	GREENUP	KY	411750457	NORTH AMERICAN REFRACTORIES CO	PO BOX 457	SOUTH SHORE	KY		411750457	YES	NO	NO	NO	RHONDA L VETE	4123756848	3297	3255						327124	327125					38.721944	-82.956944	093902542								NORTH AMERICAN REFRACTORIES CO	093902542	NO	RVETE@ANHREFRACTORIES.COM	
2012	ENVIRONMENTAL MANAGER	MARIA EICHELBERGER	41045NRTHMUS42E	NORTH AMERICAN STAINLESS	6870 US 42 E	GHENT	CARROLL	KY	41045	NORTH AMERICAN STAINLESS	6870 US 42 E	GHENT	KY		41045	YES	NO	NO	NO	MARIA EICHELBERGER	5023476000	3312	3315	3316					331111						38.727778	-85.072222	620819318								ACERINOX SA	620819318	NO	MEICHELBERGER@NORTHAMERICANSTAINLESS.COM	
2012	PLANT MANAGER	MARK TICHENOR	40403LCNRC302MA	NOVELIS CORP	302 MAYDE RD	BEREA	MADISON	KY	40403	NOVELIS CORP	302 MAYDE RD	BEREA	KY		40403	YES	NO	NO	NO	MARK TICHENOR	8599856705	3341							331314						37.601667	-84.308889	001504935								NOVELIS CORP	001504935	NO	MARK.TICHENOR@NOVELIS.COM	
