Year,TRI Facility ID,Facility Name,Street Address,City,County,ST,ZIP,Latitude,Longitude,Primary SIC,SIC 2,SIC 3,SIC 4,SIC 5,SIC 6,Primary NAICS,NAICS 2,NAICS 3,NAICS 4,NAICS 5,NAICS 6,Doc_Ctrl_Num,Chemical,CAS #/Compound ID,Clean Air Act Chemical,Classification,Metal,Metal Category,Carcinogen,Form Type,Unit of Measure,5.1 Fugitive Air,5.2 Stack Air,5.3 Water,5.4.1 Underground Class I,5.4.2 Underground Class II-V,5.5.1A RCRA C Landfills,5.5.1B Other Landfills,5.5.2 Land Treatment,5.5.3 Surface Impoundment,5.5.3A RCRA C Surface Impoundment,5.5.3B Other Surface Impoundment,5.5.4 Other Disposal,On-site Release Total,6.1 POTW - Metals and Metal Compounds,6.1 POTW - Non-Metals,6.1 POTW - Total Transfers,6.2 M10,6.2 M41,6.2 M62,6.2 M71,6.2 M81,6.2 M82,6.2 M72,6.2 M63,6.2 M66,6.2 M67,6.2 M64,6.2 M65,6.2 M73,6.2 M79,6.2 M90,6.2 M94,6.2 M99,Off-Site Release Total,6.2 M20,6.2 M24,6.2 M26,6.2 M28,6.2 M93,Off-Site Recycled Total,6.2 M56,6.2 M92,Off-Site Recovery Total,6.2 M40,6.2 M50,6.2 M54,6.2 M61,6.2 M69,6.2 M95,Off-Site Treated Total,Total Releases,8.1 Releases,8.1a On-site Contained Releases,8.1b On-site Other Releases,8.1c Off-site Contained Releases,8.1d Off-site Other Releases,8.2 Energy Recovery On-site,8.3 Energy Recovery Off-site,8.4 Recycling On-Site,8.5 Recycling Off-Site,8.6 Treatment On-site,8.7 Treatement Off-site,Production Waste (8.1 thru 8.7),8.8 One-time Release,8.9 Production Ratio,Parent Company Name,Parent Company DB Number,3/3/2012 v10
1996,14204THXCR251SE,ETHOX CORP,251 SENECA ST,BUFFALO,ERIE,NY,14204,42.879062,-78.867111,3841,,,,,,339112,,,,,,1396100017452,ETHYLENE OXIDE,000075218,YES,NON-PBT,NO,0,YES,R,Pounds,5,1,0,0,0,0,0,0,0,0,0,0,6,0,0,0,0,0,0,0,0,0,0,0,0,0,0,0,0,0,0,0,0,0,0,0,43,0,0,43,0,0,0,0,0,0,0,0,0,0,6,6,0,0,0,0,0,0,0,43,2205,0,2254,0,.14,NA,NA
1996,13069NSTLF555SO,NESTLE CONFECTIONS AND SNACKS,555 SOUTH 4TH ST,FULTON,OSWEGO,NY,13069,43.313861,-76.403806,2066,2064,,,,,311514,,,,,,1396100065059,NITRIC ACID,007697372,NO,NON-PBT,NO,0,NO,R,Pounds,0,0,0,0,0,0,0,0,0,0,0,0,0,0,0,0,0,0,0,0,0,0,0,0,0,0,0,0,0,0,0,0,0,0,0,0,0,0,0,0,0,0,0,0,0,0,0,0,0,0,0,0,0,0,0,0,0,0,0,0,13051,0,13051,0,1,NESTLE USA INC,NA
1996,13421DRYLCROUTE,HPHOOD LLC,252 GENESEE ST,ONEIDA,MADISON,NY,13421,43.080583,-75.64894,2026,,,,,,311511,,,,,,1396100069285,PHOSPHORIC ACID,007664382,NO,NON-PBT,NO,0,NO,R,Pounds,0,0,0,0,0,0,0,0,0,0,0,0,0,0,38344,38344,0,0,0,0,0,0,0,0,0,0,0,0,0,0,0,0,0,0,0,0,0,0,0,0,0,0,0,0,0,0,0,0,0,0,0,0,0,0,0,0,0,0,0,0,0,38244,38244,0,1.18,HP HOOD LLC,001008697
1996,14240GNRLM2390K,AAM TONAWANDA FORGE,2390 KENMORE AVE,TONAWANDA,ERIE,NY,14150,42.972225,-78.906577,3462,,,,,,332111,,,,,,1396100050285,POLYCHLORINATED ALKANES,N583,NO,NON-PBT,NO,0,NO,R,Pounds,0,0,0,0,0,0,0,0,0,0,0,0,0,0,0,0,0,0,0,0,0,0,0,0,0,0,0,0,0,0,0,0,0,0,0,0,0,0,0,0,0,10000,10000,0,0,0,0,0,0,0,0,0,0,0,0,0,0,10000,0,0,0,0,10000,0,1.25,AMERICAN AXLE & MANUFACTURING INC,808844567
1996,14589THTCH4135R,THATCHER CO OF NEW YORK,4135 RT 104,WILLIAMSON,WAYNE,NY,14589,43.23295,-77.1846,2819,,,,,,325188,,,,,,1396100171103,NITRATE COMPOUNDS,N511,NO,NON-PBT,NO,0,NO,R,Pounds,0,0,0,0,0,0,0,0,0,0,0,0,0,0,1580,1580,0,0,0,0,0,0,0,0,0,0,0,0,0,0,0,0,0,0,0,0,0,0,0,0,0,0,0,0,0,0,0,0,0,0,0,0,0,0,0,0,0,0,0,0,0,1580,1580,0,2,THATCHER CO,NA
1996,12832NRTNCONESE,SAINT-GOBAIN PERFORMANCE PLASTICS,1 SEALANTS PARK,GRANVILLE,WASHINGTON,NY,12832,43.400006,-73.255027,3086,,,,,,326000,,,,,,1396100309172,METHYL ETHYL KETONE,000078933,NO,NON-PBT,NO,0,NO,R,Pounds,250,1200,0,0,0,0,0,0,0,0,0,0,1450,0,0,0,0,0,0,0,0,0,0,0,0,0,0,0,0,0,0,0,0,0,0,0,0,0,0,0,4588,0,4588,0,0,0,0,0,0,0,1450,1700,0,0,0,0,0,4588,0,0,0,0,6288,0,.95,SAINT-GOBAIN CORP,782731848
1996,13421NDLTDKENWO,ONEIDA LTD  KNIFE PLANT,KENWOOD AVE,SHERRILL,ONEIDA,NY,13461,43.079168,-75.601351,3914,,,,,,332811,,,,,,1396100017843,NICKEL,007440020,YES,NON-PBT,YES,1,YES,R,Pounds,0,0,0,0,0,0,0,0,0,0,0,0,0,0,0,0,0,0,0,0,0,0,756,0,0,0,0,0,0,0,0,0,0,756,0,0,0,0,0,0,0,0,0,0,0,0,0,0,0,0,756,756,0,0,0,0,0,0,0,0,0,0,756,0,.87,NA,NA
1996,13045BRWRT45CLE,APEX TOOL GROUP LLC CORTLAND NY OPERATION,45 CLEVELAND ST,CORTLAND,CORTLAND,NY,13045,42.605537,-76.164597,3462,,,,,,332510,,,,,,1396100102603,ZINC COMPOUNDS,N982,NO,NON-PBT,YES,1,NO,R,Pounds,5,5,0,0,0,0,0,0,0,0,0,0,10,5,0,5,0,0,0,0,0,0,352,0,0,0,0,0,0,0,0,0,0,352,0,182585,0,0,0,182585,0,0,0,0,0,0,0,0,0,0,367,9,0,0,0,0,0,0,0,182585,0,352,182946,0,1.1,COOPER INDUSTRIES LTD,602755428
1996,12801GLNSF313LO,LEHIGH NORTHEAST CEMENT CO - GLENS FALLS PLANT,313 WARREN ST,GLENS FALLS,WARREN,NY,12801,43.310565,-73.621063,3241,,,,,,327310,,,,,,1396100184441,NICKEL COMPOUNDS,N495,YES,NON-PBT,YES,1,NO,R,Pounds,0,1,0,0,0,0,0,0,0,0,0,0,1,0,0,0,0,0,0,0,0,0,0,0,0,0,0,0,0,0,0,0,0,0,0,7560,0,0,0,7560,0,0,0,0,0,0,0,0,0,0,1,1,0,0,0,0,0,0,0,7560,0,0,7561,0,.92,LEHIGH HANSON,967342197
1996,14760MRCNL103SO,DAL-TILE CORP,103 S CLARK ST,OLEAN,CATTARAUGUS,NY,147600808,42.07312,-78.40391,3253,,,,,,327122,,,,,,1396100184492,CHROMIUM COMPOUNDS(EXCEPT CHROMITE ORE MINED IN THE TRANSVAAL REGION),N090,YES,NON-PBT,YES,1,NO,R,Pounds,5,250,0,0,0,0,0,0,0,0,0,0,255,5,0,5,0,0,0,0,0,0,3645,0,0,0,0,0,0,0,0,0,0,3645,0,0,3763,0,0,3763,0,0,0,0,0,0,0,0,0,0,3905,3657,0,0,0,0,0,0,0,3763,0,3,7423,0,1.09,MOHAWK INDUSTRIES INC,612757070
1996,13495BNDCH2WURZ,BONIDE PRODS. INC.,2 WURZ AVE.,YORKVILLE,ONEIDA,NY,13495,43.10191,-75.29944,2899,,,,,,325000,,,,,,1396100213558,COPPER COMPOUNDS,N100,NO,NON-PBT,YES,1,NO,R,Pounds,0,0,0,0,0,0,0,0,0,0,0,0,0,0,0,0,0,0,0,0,0,0,0,0,0,0,0,0,0,0,0,0,0,0,0,0,0,0,0,0,0,0,0,0,0,0,0,0,0,0,0,0,0,0,0,0,0,0,0,0,0,0,0,0,1.09,NA,NA
1996,10454TJRNN749EA,TJ RONAN PAINT CORP,749 E 135TH ST,BRONX,BRONX,NY,10454,40.802551,-73.913314,2851,,,,,,325510,,,,,,1396100175381,LEAD COMPOUNDS,N420,YES,PBT,YES,1,NO,R,Pounds,4,0,0,0,0,0,0,0,0,0,0,0,4,0,0,0,0,0,0,0,0,0,0,0,0,0,0,0,0,0,0,0,0,0,0,0,0,0,0,0,0,0,0,0,0,0,0,0,0,0,4,4,0,0,0,0,0,0,0,0,0,0,4,0,1.6,NA,NA
1996,10965LDRLLNORTH,WYETH PHARMACEUTICALS,401 N MIDDLETOWN RD,PEARL RIVER,ROCKLAND,NY,10965,41.075667,-74.020111,2833,2834,2836,,,,325412,,,,,,1396100238702,MANGANESE COMPOUNDS,N450,YES,NON-PBT,YES,1,NO,R,Pounds,250,5,0,0,0,250,0,0,0,0,0,0,505,250,0,250,0,0,0,0,0,0,0,0,0,0,0,0,0,0,0,0,0,0,0,0,0,0,0,0,0,0,0,0,0,500,0,0,0,500,755,90,0,0,0,0,0,0,0,0,0,320,410,0,1.29,PFIZER INC,113480771
1996,12979YRSTL64MAP,WYETH,64 MAPLE ST,ROUSES POINT,CLINTON,NY,12979,44.989083,-73.363,2834,,,,,,325412,,,,,,1396100321619,"1,2-DICHLOROETHANE",000107062,YES,NON-PBT,NO,0,YES,R,Pounds,5,95,6,0,0,0,0,0,0,0,0,0,106,0,5,5,0,0,0,0,0,0,0,0,0,0,0,0,0,0,0,0,0,0,26000,0,0,0,0,26000,1200,0,1200,0,250,0,0,0,0,250,106,110,0,0,0,0,0,1200,0,26000,0,220,27530,0,1.05,PFIZER INC,113480771
1996,12804CRBRD266BA,C.R. BARD INC,289 BAY RD,QUEENSBURY,WARREN,NY,12804,43.329133,-73.652363,3841,,,,,,339112,,,,,,1396100321811,DICHLOROMETHANE,000075092,YES,NON-PBT,NO,0,YES,R,Pounds,0,12772,0,0,0,0,0,0,0,0,0,0,12772,0,0,0,0,0,0,0,0,0,0,0,0,0,0,0,0,0,0,0,0,0,1800,0,0,0,0,1800,0,0,0,0,0,0,0,0,0,0,12772,13624,0,0,0,0,0,0,0,1800,0,0,15424,0,1.7,CR BARD,006973408
1996,11980ZMCRPCOUNT,TRW STEERING WHEEL SYSTEMS,445 COUNTY RD. 101,YAPHANK,SUFFOLK,NY,11980,40.815971,-72.949018,3714,,,,,,336000,,,,,,1396100338413,N-METHYL-2-PYRROLIDONE,000872504,NO,NON-PBT,NO,0,NO,R,Pounds,5091,20365,0,0,0,0,0,0,0,0,0,0,25456,0,0,0,0,0,0,0,0,0,0,0,0,0,0,0,0,0,0,0,0,0,0,0,0,0,0,0,0,0,0,0,0,0,0,0,0,0,25456,25456,0,0,0,0,0,0,0,0,0,0,25456,0,.95,TRW INC,004179453
1996,14207DPNTYSHERI,DUPONT YERKES PLANT,3115 RIVER RD,BUFFALO,ERIE,NY,14207,42.9615,-78.920667,3081,3088,,,,,326191,,,,,,1396100342827,METHYL METHACRYLATE,000080626,YES,NON-PBT,NO,0,NO,R,Pounds,328,177307,0,0,0,0,0,0,0,0,0,0,177635,0,0,0,0,0,0,0,0,0,0,0,0,0,0,0,0,0,0,0,0,0,0,0,0,0,0,0,87404,0,87404,0,0,0,0,0,0,0,177635,177635,0,0,0,0,0,87404,0,0,0,0,265039,0,1.3,E I DU PONT DE NEMOURS & CO INC,001315704
1996,12204SRPSS3BRID,SURPASS CHEMICAL CO,3 BRIDGE ST,ALBANY,ALBANY,NY,12204,42.665556,-73.740833,5161,2819,2842,,,,325612,,,,,,1396100078005,PHOSPHORIC ACID,007664382,NO,NON-PBT,NO,0,NO,R,Pounds,0,0,0,0,0,0,0,0,0,0,0,0,0,0,5,5,0,0,0,0,0,0,0,0,0,0,0,0,0,0,0,0,0,0,0,0,0,0,0,0,0,0,0,0,0,0,0,0,0,0,0,0,0,0,0,0,0,0,0,0,100,0,100,0,.44,NA,NA
1996,14450FRRNC45OCO,FERRONICS INC,45 O'CONNOR RD,FAIRPORT,MONROE,NY,14450,43.1054,-77.45724,3679,,,,,,334419,,,,,,1396100220678,MANGANESE COMPOUNDS,N450,YES,NON-PBT,YES,1,NO,R,Pounds,0,0,0,0,0,0,0,0,0,0,0,0,0,0,0,0,0,0,0,0,0,0,2208,0,0,0,0,0,0,0,0,0,0,2208,0,0,0,0,0,0,0,0,0,0,0,0,0,0,0,0,2208,2208,0,0,0,0,0,0,6338,0,0,0,8546,0,137,NA,NA
1996,13605GRTLK23PHE,GREAT LAKES CHEESE OF NY INC,23 PHELPS ST,ADAMS,JEFFERSON,NY,13605,43.81325,-76.032167,2022,,,,,,311513,,,,,,1396100256231,PHOSPHORIC ACID,007664382,NO,NON-PBT,NO,0,NO,R,Pounds,0,0,0,0,0,0,0,0,0,0,0,0,0,0,0,0,0,0,0,0,0,0,0,0,0,0,0,0,0,0,0,0,0,0,0,0,0,0,0,0,0,0,0,0,0,0,0,0,0,0,0,0,0,0,0,0,0,0,0,0,18540,0,18540,0,1.16,GREAT LAKES CHEESE CO INC,018219808
1996,13045PTTRP24CRA,POTTER PAINT CO. INC.,21 CRAWFORD ST.,CORTLAND,CORTLAND,NY,130450150,42.590981,-76.180306,2851,,,,,,325510,,,,,,1396100257942,METHYL ISOBUTYL KETONE,000108101,YES,NON-PBT,NO,0,NO,R,Pounds,494,494,0,0,0,0,0,0,0,0,0,0,988,0,0,0,0,0,0,0,0,0,0,0,0,0,0,0,0,0,0,0,0,0,0,0,0,0,0,0,0,348,348,0,0,0,0,0,0,0,988,1000,0,0,0,0,0,350,0,0,0,0,1350,0,.82,NA,NA
1996,14302CCDNT4700B,OCCIDENTAL CHEMICAL CORP NIAGARA PLANT,4700 BUFFALO AVE,NIAGARA FALLS,NIAGARA,NY,14302,43.086694,-79.003833,2812,2865,2819,2869,,,325181,,,,,,1396100279088,BENZAL CHLORIDE,000098873,NO,NON-PBT,NO,0,NO,R,Pounds,220,0,0,0,0,0,0,0,0,0,0,0,220,0,0,0,0,0,0,0,0,0,0,0,0,0,0,0,0,0,0,0,0,0,0,0,0,0,0,0,0,0,0,0,0,0,0,0,0,0,220,220,0,0,0,0,0,0,0,0,110000,0,110220,0,1.26,OCCIDENTAL PETROLEUM CORP,006908354
1996,14425MTXNC5450C,XEROX CORP.,5450 CAMPUS DR.,CANANDAIGUA,ONTARIO,NY,144248200,42.923206,-77.310794,3714,3861,2821,,,,336000,,,,,,1396100307673,"SULFURIC ACID (1994 AND AFTER ""ACID AEROSOLS"" ONLY)",007664939,NO,NON-PBT,NO,0,NO,R,Pounds,0,20,0,0,0,0,0,0,0,0,0,0,20,0,0,0,0,0,0,0,0,0,0,0,0,0,0,0,0,0,0,0,0,0,0,0,0,0,0,0,0,0,0,0,0,0,0,0,0,0,20,20,0,0,0,0,0,0,0,0,31000,0,31020,0,1.15,XEROX CORP,195746789
1996,14207BFFLM1875E,BUFFALO METAL CASTING CO INC,1875 ELMWOOD AVE,BUFFALO,ERIE,NY,14207,42.948284,-78.878209,3365,3366,,,,,331524,,,,,,1396100365891,COPPER,007440508,NO,NON-PBT,YES,1,NO,R,Pounds,0,457,0,0,0,0,0,0,0,0,0,0,457,0,0,0,0,0,0,0,0,0,0,0,0,0,0,0,0,0,0,0,0,0,0,9476,0,0,13219,22695,0,0,0,0,0,0,0,0,0,0,457,457,0,0,0,0,0,0,0,22696,0,0,23153,0,.89,NA,NA
1996,14215CRTSS60GRI,INTERNATIONAL EXTRUDED PRODUCTS LLC,60 GRIDER ST.,BUFFALO,ERIE,NY,142154095,42.91623,-78.82913,3317,,,,,,331210,,,,,,1396100368238,MANGANESE,007439965,YES,NON-PBT,YES,1,NO,R,Pounds,0,0,0,0,0,0,0,0,0,0,0,0,0,0,0,0,0,0,0,0,0,0,0,0,0,0,0,0,0,0,0,0,0,0,0,18460,0,0,0,18460,0,0,0,0,0,0,0,0,0,0,0,0,0,0,0,0,0,0,0,18460,0,0,18460,0,1.04,WYMAN GORDON,001128016
1996,12144BSFCR36RIV,BASF CORP COATINGS & COLORANTS DIV.,36 RIVERSIDE AVE.,RENSSELAER,RENSSELAER,NY,121442928,42.627482,-73.749438,2865,,,,,,325100,,,,,,1396100377593,CHROMIUM COMPOUNDS(EXCEPT CHROMITE ORE MINED IN THE TRANSVAAL REGION),N090,YES,NON-PBT,YES,1,NO,R,Pounds,0,5,0,0,0,0,0,0,0,0,0,0,5,1400,0,1400,0,0,0,0,0,0,250,0,0,0,0,0,0,0,0,0,0,250,0,0,0,0,0,0,0,0,0,0,0,0,0,0,0,0,1655,31,0,0,0,0,0,0,0,0,2000,1400,3431,0,1.05,BASF CORP,071014385
1996,12144BSFCR36RIV,BASF CORP COATINGS & COLORANTS DIV.,36 RIVERSIDE AVE.,RENSSELAER,RENSSELAER,NY,121442928,42.627482,-73.749438,2865,,,,,,325100,,,,,,1396100377643,FORMALDEHYDE,000050000,YES,NON-PBT,NO,0,YES,R,Pounds,0,5,0,0,0,0,0,0,0,0,0,0,5,0,0,0,0,0,0,0,0,0,0,0,0,0,0,0,0,0,0,0,0,0,0,0,0,0,0,0,0,0,0,0,0,0,0,0,0,0,5,1,0,0,0,0,0,0,0,0,2,0,3,0,.89,BASF CORP,071014385
1996,12144BSFCR36RIV,BASF CORP COATINGS & COLORANTS DIV.,36 RIVERSIDE AVE.,RENSSELAER,RENSSELAER,NY,121442928,42.627482,-73.749438,2865,,,,,,325100,,,,,,1396100377694,N-METHYL-2-PYRROLIDONE,000872504,NO,NON-PBT,NO,0,NO,R,Pounds,0,5,0,0,0,0,0,0,0,0,0,0,5,0,51000,51000,0,0,0,0,0,0,0,0,0,0,0,0,0,0,0,0,0,0,0,0,0,0,0,0,0,0,0,0,0,0,0,0,0,0,5,1,0,0,0,0,0,0,0,0,0,51000,51001,0,.45,BASF CORP,071014385
1996,14225GBRLT2555W,GIBRALTAR STRIP STEEL WALDEN,2555 WALDEN AVE,BUFFALO,ERIE,NY,14225,42.908333,-78.741784,3316,,,,,,331221,,,,,,1396100167372,LEAD,007439921,YES,PBT,YES,1,YES,R,Pounds,0,55,0,0,0,0,0,0,0,0,0,0,55,0,0,0,0,0,0,0,0,0,0,0,0,0,0,0,0,0,0,0,0,15000,0,40000,0,0,0,40000,0,0,0,15000,500,0,0,0,0,500,15055,55,0,0,0,0,0,0,0,40000,0,15000,55055,0,1.02,GIBRALTAR INDUSTRIES,059961847
1996,14302CCDNT4700B,OCCIDENTAL CHEMICAL CORP NIAGARA PLANT,4700 BUFFALO AVE,NIAGARA FALLS,NIAGARA,NY,14302,43.086694,-79.003833,2812,2865,2819,2869,,,325181,,,,,,1396100279165,"HYDROCHLORIC ACID (1995 AND AFTER ""ACID AEROSOLS"" ONLY)",007647010,YES,NON-PBT,NO,0,NO,R,Pounds,3100,470,0,0,0,0,0,0,0,0,0,230,3800,0,0,0,0,0,0,0,0,0,147,0,0,0,0,0,0,0,0,0,0,147,0,0,0,0,0,0,0,0,0,0,0,66,0,0,0,66,3947,3900,0,0,0,0,0,0,0,0,5400000,66,5403966,1,1.19,OCCIDENTAL PETROLEUM CORP,006908354
1996,14302CCDNT4700B,OCCIDENTAL CHEMICAL CORP NIAGARA PLANT,4700 BUFFALO AVE,NIAGARA FALLS,NIAGARA,NY,14302,43.086694,-79.003833,2812,2865,2819,2869,,,325181,,,,,,1396100279215,PHOSPHORIC ACID,007664382,NO,NON-PBT,NO,0,NO,R,Pounds,2,3200,0,0,0,0,0,0,0,0,0,0,3202,0,0,0,0,0,0,0,0,0,0,0,0,0,0,0,0,0,0,0,0,0,0,0,0,0,0,0,0,0,0,0,0,0,0,0,0,0,3202,3200,0,0,0,0,0,0,0,0,0,0,3200,0,1.09,OCCIDENTAL PETROLEUM CORP,006908354
1996,13221BRSTLTHOMP,BRISTOL-MYERS SQUIBB CO,6000 THOMPSON RD,EAST SYRACUSE,ONONDAGA,NY,13057,43.065722,-76.087,2834,2833,,,,,325412,,,,,,1396100320136,NITRIC ACID,007697372,NO,NON-PBT,NO,0,NO,R,Pounds,0,0,0,0,0,0,0,0,0,0,0,0,0,0,0,0,0,0,0,0,0,0,0,0,0,0,0,0,0,0,0,0,0,0,0,0,0,0,0,0,0,0,0,0,0,0,0,0,0,0,0,0,0,0,0,0,0,0,0,0,15400,0,15400,0,.99,BRISTOL-MYERS SQUIBB CO,NA
1996,11542PHTCR31SEA,PHOTOCIRCUITS CORP,31 SEA CLIFF AVE,GLEN COVE,NASSAU,NY,11542,40.85183,-73.622792,3672,3471,,,,,334412,,,,,,1396100332511,NITRIC ACID,007697372,NO,NON-PBT,NO,0,NO,R,Pounds,5,80,0,0,0,0,0,0,0,0,0,0,85,0,0,0,0,0,0,0,0,0,0,0,0,0,0,0,0,0,0,0,0,0,0,0,0,0,0,0,0,0,0,0,0,0,0,0,0,0,85,80,0,0,0,0,0,0,0,0,52678,0,52758,0,1.1,NA,NA
1996,14652STMNK1669L,EASTMAN KODAK CO EASTMAN BUSINESS PARK,1669 LAKE AVE,ROCHESTER,MONROE,NY,146523615,43.202778,-77.655222,3861,,,,,,325992,,,,,,1396100108683,"HYDROCHLORIC ACID (1995 AND AFTER ""ACID AEROSOLS"" ONLY)",007647010,YES,NON-PBT,NO,0,NO,R,Pounds,0,2000000,0,0,0,0,0,0,0,0,0,0,2000000,0,0,0,0,0,0,0,0,0,0,0,0,0,0,0,0,0,0,0,0,0,0,0,0,0,0,0,0,0,0,0,0,0,0,0,0,0,2000000,2000000,0,0,0,0,0,0,0,0,0,0,2000000,0,.95,EASTMAN KODAK CO,002206183
1996,14652STMNK1669L,EASTMAN KODAK CO EASTMAN BUSINESS PARK,1669 LAKE AVE,ROCHESTER,MONROE,NY,146523615,43.202778,-77.655222,3861,,,,,,325992,,,,,,1396100108810,4-NITROPHENOL,000100027,YES,NON-PBT,NO,0,NO,R,Pounds,0,0,0,0,0,0,0,0,0,0,0,0,0,0,0,0,0,0,0,0,0,0,0,0,0,0,0,0,0,0,0,0,0,0,0,0,0,0,0,0,0,0,0,0,0,0,0,0,0,0,0,0,0,0,0,0,0,0,0,0,0,0,0,0,1.1,EASTMAN KODAK CO,002206183
1996,14522GRLCK1666D,GARLOCK SEALING TECHNOLOGIES,1666 DIVISION ST,PALMYRA,WAYNE,NY,14522,43.070028,-77.224222,3053,3061,,,,,339991,,,,,,1396100256282,TOLUENE,000108883,YES,NON-PBT,NO,0,NO,R,Pounds,68930,1309666,64,0,0,0,0,0,0,0,0,0,1378660,0,0,0,0,0,0,0,0,0,0,0,0,0,0,0,0,0,0,0,0,0,0,0,0,0,0,0,0,0,0,0,0,7377,0,0,0,7377,1378660,1386202,0,0,0,0,0,0,2274992,0,0,7542,3668736,0,98,ENPRO INDUSTRIES INC,004467452
1996,13209CRCBLSTATE,CRUCIBLE INDUSTRIES LLC,575 STATE FAIR BLVD,SOLVAY,ONONDAGA,NY,13209,43.068889,-76.209,3312,,,,,,331111,,,,,,1396100291412,CHROMIUM,007440473,YES,NON-PBT,YES,1,YES,R,Pounds,2265,1557,203,0,0,0,0,0,0,0,0,0,4025,8,0,8,0,0,0,0,0,0,47200,0,0,0,0,0,0,0,0,0,0,47200,0,103200,94300,0,0,197500,0,0,0,0,0,0,0,105,0,105,51233,49500,0,0,0,0,0,0,775800,197500,725,100,1023625,1700,1.06,CRUCIBLE INDUSTRIES LLC,961589863
1996,10918CHSTR15OAK,NEXANS ENERGY USA INC,25 OAKLAND AVE,CHESTER,ORANGE,NY,10918,41.362167,-74.279333,3357,,,,,,331422,,,,,,1396100420153,COPPER COMPOUNDS,N100,NO,NON-PBT,YES,1,NO,R,Pounds,0,0,0,0,0,0,0,0,0,0,0,0,0,0,0,0,0,0,0,0,0,0,0,0,0,0,0,0,0,0,0,0,0,0,0,459400,0,0,0,459400,0,0,0,0,0,0,0,0,0,0,0,0,0,0,0,0,0,0,0,459400,0,0,459400,0,.65,NA,NA
1996,14302STLLB4111W,STOLLBERG INC,4111 WITMER RD,NIAGARA FALLS,NIAGARA,NY,14302,43.122107,-79.035495,2899,,,,,,327999,,,,,,1396100424389,LITHIUM CARBONATE,000554132,NO,NON-PBT,YES,2,NO,R,Pounds,0,25,0,0,0,0,0,0,0,0,0,0,25,0,369,369,0,0,0,0,0,0,2226,0,0,0,0,0,0,0,0,0,0,2226,0,0,0,0,0,0,0,0,0,0,0,0,0,0,0,0,2251,2620,0,0,0,0,0,0,0,0,0,0,2620,0,1.31,NA,NA
1996,14845LRCLC224NM,BELDEN CONNECTIVITY SOLUTIONS,224 N MAIN ST BLDG K,HORSEHEADS,CHEMUNG,NY,14845,42.178952,-76.821544,3663,3678,3679,,,,334417,,,,,,1396100355989,COPPER COMPOUNDS,N100,NO,NON-PBT,YES,1,NO,R,Pounds,0,0,0,0,0,0,0,0,0,0,0,0,0,0,0,0,0,0,0,0,0,0,20,0,0,0,0,0,0,180,941,555,0,1696,0,2994735,0,0,0,2994735,0,0,0,0,0,0,0,0,0,0,1696,1696,0,0,0,0,0,0,0,2994735,0,0,2996431,0,3.82,BELDEN INC,809182579
1996,13790ZNCRP720AZ,INTELICOAT TECHNOLOGIES AZON LLC,720 AZON RD,JOHNSON CITY,BROOME,NY,13790,42.11967,-75.974247,3861,,,,,,322000,,,,,,1396100368366,THIOUREA,000062566,NO,NON-PBT,NO,0,YES,R,Pounds,0,0,0,0,0,0,0,0,0,0,0,0,0,0,0,0,0,0,0,0,0,0,0,0,0,0,0,0,0,0,0,0,0,0,0,0,0,0,0,0,0,0,0,0,0,0,1100,0,1100,2200,0,0,0,0,0,0,0,0,0,0,0,2200,2200,0,1.09,INTELICOAT TECHNOLOGIES,625761119
1996,14207FDCTM57TON,FEDCO AUTOMOTIVE COMPONENTS CO.,57 TONAWANDA ST.,BUFFALO,ERIE,NY,14207,42.931068,-78.897174,3714,,,,,,336399,,,,,,1396100141833,DIISOCYANATES,N120,YES,NON-PBT,NO,0,NO,R,Pounds,0,0,0,0,0,0,0,0,0,0,0,0,0,0,0,0,0,0,0,0,0,0,0,0,0,0,0,0,0,0,0,0,0,0,0,0,0,0,0,0,0,0,0,0,0,0,0,0,0,0,0,0,0,0,0,0,0,0,0,0,0,0,0,0,.9,STANT CORP,183040278
1996,11542CHMCTCHARL,KONICA MINOLTA GRAPHIC IMAGING USA INC,71 CHARLES ST,GLEN COVE,NASSAU,NY,11542,40.861167,-73.63675,3861,,,,,,325000,,,,,,1396100279417,METHANOL,000067561,YES,NON-PBT,NO,0,NO,R,Pounds,19000,51000,0,0,0,0,0,0,0,0,0,0,70000,0,8900,8900,0,0,0,0,0,0,0,0,0,0,0,0,0,0,0,0,0,0,0,0,0,0,0,0,0,0,0,0,6600,0,0,0,0,6600,70000,70000,0,0,0,0,0,0,0,0,56000,16000,142000,0,1.51,NA,NA
1996,11211GLSSF135JA,GLOSS-FLO CORP,135 JACKSON ST,BROOKLYN,KINGS,NY,112112401,40.716574,-73.945726,2851,,,,,,325510,,,,,,1396100059892,METHANOL,000067561,YES,NON-PBT,NO,0,NO,R,Pounds,1250,0,0,0,0,0,0,0,0,0,0,0,1250,0,0,0,0,0,0,0,0,0,0,0,0,0,0,0,0,0,0,0,0,0,0,0,0,0,0,0,0,0,0,0,0,0,0,0,0,0,1250,1250,0,0,0,0,0,0,500,0,0,0,1750,0,88,NA,NA
1996,12183LLDSGTIBBE,HONEYWELL INTERNATIONAL INC,3 TIBBITS AVE,GREEN ISLAND,ALBANY,NY,12183,42.748889,-73.695833,3292,2821,,,,,325000,,,,,,1396100049105,CRESOL (MIXED ISOMERS),001319773,YES,NON-PBT,NO,0,NO,R,Pounds,3,497,0,0,0,0,0,0,0,0,0,0,500,0,0,0,0,0,0,0,0,0,0,0,0,0,0,0,0,0,0,0,0,0,0,0,0,0,0,0,25,0,25,0,0,0,22,0,0,22,500,500,0,0,0,0,0,25,0,0,0,22,547,0,.96,HONEYWELL INTERNATIONAL INC,139691877
1996,11791DMC  105EI,HONEYWELL ALARM DEVICE,165 EILEEN WAY,SYOSSET,NASSAU,NY,11791,40.803186,-73.519008,3639,,,,,,335999,,,,,,1396100071772,LEAD,007439921,YES,PBT,YES,1,YES,R,Pounds,0,0,0,0,0,0,0,0,0,0,0,0,0,0,0,0,0,0,0,0,0,0,0,0,0,0,0,0,0,0,0,0,0,0,0,14477,0,0,0,14477,0,0,0,0,0,0,0,0,0,0,0,0,0,0,0,0,0,0,0,14477,0,0,14477,0,1.18,HONEYWELL,194387957
1996,13440RVRCPSENEC,REVERE COPPER PRODUCTS INC,ONE REVERE PARK,ROME,ONEIDA,NY,13440,43.208528,-75.436167,3351,,,,,,331421,,,,,,1396100127859,LEAD,007439921,YES,PBT,YES,1,YES,R,Pounds,0,2369,12,0,0,512,0,0,0,0,0,0,2893,0,0,0,0,0,0,0,0,0,205,0,0,0,0,0,0,0,0,0,0,205,0,73799,0,0,0,73799,0,0,0,0,0,0,0,0,0,0,3098,512,0,0,0,0,0,0,0,73799,0,0,74311,0,98,NA,NA
1996,13601NWYRKSTARB,NEW YORK AIR BRAKE CORP,748 STARBUCK AVE,WATERTOWN,JEFFERSON,NY,13601,43.979917,-75.896389,3743,,,,,,562212,,,,,,1396100193073,COPPER,007440508,NO,NON-PBT,YES,1,NO,R,Pounds,0,0,0,0,0,0,0,0,0,0,0,0,0,9,0,9,0,0,0,0,0,0,1,0,0,0,0,0,0,0,0,466,0,614,0,216625,0,0,0,216625,0,0,0,147,0,0,0,0,0,0,623,623,0,0,0,0,0,0,0,216625,0,9,217257,0,1.08,KNORR BRAKE HOLDING CO,622101384
1996,14094VNDMR1NORT,VANDEMARK CHEMICAL INC,1 N TRANSIT RD,LOCKPORT,NIAGARA,NY,14094,43.183778,-78.6975,2869,,,,,,325199,,,,,,1396100243447,"HYDROCHLORIC ACID (1995 AND AFTER ""ACID AEROSOLS"" ONLY)",007647010,YES,NON-PBT,NO,0,NO,R,Pounds,499,5,0,0,0,0,0,0,0,0,0,0,504,0,0,0,0,0,0,0,0,0,0,0,0,0,0,0,0,0,0,0,0,0,0,0,0,0,0,0,0,0,0,0,0,0,0,0,0,0,504,504,0,0,0,0,0,0,0,0,0,0,504,0,1.02,NA,NA
1996,14220SRRNT2375S,SORRENTO LACTALIS INC,2375 S PARK AVE,BUFFALO,ERIE,NY,14220,42.833056,-78.825,2022,,,,,,311513,,,,,,1396100256623,AMMONIA,007664417,NO,NON-PBT,NO,0,NO,R,Pounds,0,0,0,0,0,0,0,0,0,0,0,0,0,0,0,0,0,0,0,0,0,0,0,0,0,0,0,0,0,0,0,0,0,0,0,0,0,0,0,0,0,0,0,0,0,0,0,0,0,0,0,0,0,0,0,0,0,0,0,0,0,0,0,0,0,LACTALIS AMERICAN CO INC,009073503
1996,14218BTHLHPOBOX,METALICO ALUMINUM RECOVERY INC,1951 HAMBURG TURNPIKE BOX 6,LACKAWANNA,ERIE,NY,14218,42.832563,-78.854012,3312,,,,,,331492,,,,,,1396100343805,CYANIDE COMPOUNDS,N106,YES,NON-PBT,NO,0,NO,R,Pounds,39000,750,0,0,0,0,0,0,0,0,0,0,39750,0,250,250,0,0,0,0,0,0,0,0,0,0,0,0,0,0,0,0,0,0,0,0,0,0,0,0,0,0,0,0,0,0,0,0,0,0,39750,40000,0,0,0,0,0,0,0,0,130000,0,170000,0,1,METALICO INC,047877688
1996,14218BTHLHPOBOX,METALICO ALUMINUM RECOVERY INC,1951 HAMBURG TURNPIKE BOX 6,LACKAWANNA,ERIE,NY,14218,42.832563,-78.854012,3312,,,,,,331492,,,,,,1396100343856,PROPYLENE,000115071,NO,NON-PBT,NO,0,NO,R,Pounds,3500,0,0,0,0,0,0,0,0,0,0,0,3500,0,0,0,0,0,0,0,0,0,0,0,0,0,0,0,0,0,0,0,0,0,0,0,0,0,0,0,0,0,0,0,0,0,0,0,0,0,3500,3500,0,0,0,0,0,0,0,0,0,0,3500,0,1,METALICO INC,047877688
1996,12920MCCDM23COL,AGRI-MARK INC  MCCADAM PLANT,39 MCCADAM LN,CHATEAUGAY,FRANKLIN,NY,12920,44.923347,-74.078447,2022,,,,,,311513,,,,,,1396100426220,NITRATE COMPOUNDS,N511,NO,NON-PBT,NO,0,NO,R,Pounds,0,0,0,0,0,0,0,0,0,0,0,0,0,0,157985,157985,0,0,0,0,0,0,0,0,0,0,0,0,5223,0,0,0,0,5223,0,0,0,0,0,0,0,0,0,0,0,0,0,0,0,0,5223,0,0,0,0,0,0,0,0,0,0,163208,163208,0,1.23,AGRI-MARK INC,021719893
1996,14150TNWND3875R,TONAWANDA COKE CORP,3875 RIVER RD,TONAWANDA,ERIE,NY,14150,42.98125,-78.930972,3312,,,,,,324199,,,,,,1396100358290,TOLUENE,000108883,YES,NON-PBT,NO,0,NO,R,Pounds,1,29,0,0,0,0,0,0,0,0,0,0,30,0,0,0,0,0,0,0,0,0,0,0,0,0,0,0,0,0,0,0,0,0,0,0,0,0,0,0,0,0,0,0,0,0,0,0,0,0,30,30,0,0,0,0,300,0,0,0,0,0,330,0,.87,NA,NA
1996,12801FNCHP1GLEN,FINCH PAPER  LLC,1 GLEN ST,GLENS FALLS,WARREN,NY,12801,43.306583,-73.639,2611,2621,,,,,322121,,,,,,1396100085188,AMMONIA,007664417,NO,NON-PBT,NO,0,NO,R,Pounds,250,29500,11000,0,0,0,0,0,0,0,0,0,40750,0,0,0,0,0,0,0,0,0,3900,0,0,0,0,0,0,0,0,0,0,3900,0,0,0,0,0,0,0,0,0,0,0,0,0,0,0,0,44650,44900,0,0,0,0,0,0,0,0,489000,0,533900,0,.93,FINCH PAPER HOLDINGS,NA
1996,13037GRYSY901EA,ESCO TURBINE TECHNOLOGIES - SYRACUSE,901 E GENESEE ST,CHITTENANGO,MADISON,NY,13037,43.054163,-75.861336,3324,,,,,,331512,,,,,,1396100129562,CHROMIUM,007440473,YES,NON-PBT,YES,1,YES,R,Pounds,5,5,0,0,0,0,0,0,0,0,0,0,10,5,0,5,0,0,0,0,0,0,750,0,0,0,0,0,0,0,0,0,0,750,0,18000,0,0,0,18000,0,0,0,0,0,0,0,0,0,0,765,3,0,0,0,0,0,0,0,18000,33,0,18036,0,1,ESCO CORP,009028259
1996,11356CNDDR11202,PEPSI COLA BOTTLING CO OF NEW YORK INC,112-02 15TH AVE,COLLEGE POINT,QUEENS,NY,11356,40.783871,-73.854933,2087,,,,,,311000,,,,,,1396100206871,PHOSPHORIC ACID,007664382,NO,NON-PBT,NO,0,NO,R,Pounds,0,0,0,0,0,0,0,0,0,0,0,0,0,0,0,0,0,0,0,0,0,0,0,0,0,0,0,0,0,0,0,0,0,0,0,0,0,0,0,0,0,0,0,0,0,0,0,0,0,0,0,0,0,0,0,0,0,0,0,0,0,0,0,0,0,NA,000942537
1996,12010MHWKFROUTE,MOHAWK FINISHING PRODS. INC.,4715 ST. HWY. 30,AMSTERDAM,MONTGOMERY,NY,12010,42.98025,-74.186414,2851,,,,,,325510,,,,,,1396100306327,"1,1,1-TRICHLOROETHANE",000071556,YES,NON-PBT,NO,0,NO,R,Pounds,5,48,0,0,0,0,0,0,0,0,0,0,53,0,0,0,0,0,0,0,0,0,0,0,0,0,0,0,0,0,0,0,0,0,200,0,0,0,0,200,0,0,0,0,0,0,0,0,0,0,53,48,0,0,0,0,0,0,0,200,0,0,248,0,.09,RPM INC,004155651
1996,12010MHWKFROUTE,MOHAWK FINISHING PRODS. INC.,4715 ST. HWY. 30,AMSTERDAM,MONTGOMERY,NY,12010,42.98025,-74.186414,2851,,,,,,325510,,,,,,1396100306366,XYLENE (MIXED ISOMERS),001330207,YES,NON-PBT,NO,0,NO,R,Pounds,250,498,0,0,0,0,0,0,0,0,0,0,748,0,0,0,0,0,0,0,0,0,0,0,0,0,0,0,0,0,0,0,0,0,0,0,0,0,0,0,6600,0,6600,0,0,0,0,0,0,0,748,468,0,0,0,0,0,6600,5598,0,0,0,12666,0,.93,RPM INC,004155651
1996,12047NRLTC628SO,NORLITE CORP,628 S SARATOGA ST,COHOES,ALBANY,NY,12047,42.753081,-73.700673,3299,,,,,,327992,,,,,,1396100324920,BENZENE,000071432,YES,NON-PBT,NO,0,YES,R,Pounds,250,2,0,0,0,0,0,0,0,0,0,0,252,0,0,0,0,0,0,0,0,0,0,0,0,0,0,0,0,0,0,0,0,0,0,0,0,0,0,0,0,0,0,0,0,0,0,0,0,0,252,18,0,0,0,0,258377,0,0,0,0,0,258395,0,1.36,UNITED OIL RECOVERY,154133672
1996,14482LPPNSGILBE,LAPP INSULATORS LLC,130 GILBERT ST,LEROY,GENESEE,NY,14482,42.969306,-78.005306,3264,,,,,,327113,,,,,,1396100356613,COPPER,007440508,NO,NON-PBT,YES,1,NO,R,Pounds,0,0,13,0,0,0,0,0,0,0,0,0,13,0,0,0,0,0,0,0,0,0,0,0,0,0,0,0,0,0,0,0,0,0,0,0,0,0,0,0,0,0,0,0,0,0,0,0,0,0,13,13,0,0,0,0,0,0,0,0,0,0,13,0,0,LAPP INSULATORS LLC,NA
1996,14738FRWSB36RAI,ETHAN ALLEN INC. FREWSBURG DIV.,36 RAILROAD AVE.,FREWSBURG,CHAUTAUQUA,NY,147380536,42.054362,-79.167646,2511,,,,,,337122,,,,,,1396100389218,"ISOPROPYL ALCOHOL (MANUFACTURING,STRONG-ACID PROCESS ONLY,NO SUPPLIER)",000067630,NO,NON-PBT,NO,0,NO,R,Pounds,3091,7212,0,0,0,0,0,0,0,0,0,0,10303,0,0,0,0,0,0,0,0,0,0,0,0,0,0,0,0,0,0,0,0,0,0,0,0,0,0,0,0,0,0,0,0,0,0,0,0,0,10303,10303,0,0,0,0,0,0,0,0,0,0,10303,0,1.2,ETHAN ALLEN INC,001213545
1996,14572GNLCKONEGU,GUNLOCKE CO,ONE GUNLOCKE DR,WAYLAND,STEUBEN,NY,14572,42.553626,-77.591465,2521,,,,,,337211,,,,,,1396100036856,TOLUENE,000108883,YES,NON-PBT,NO,0,NO,R,Pounds,4000,17000,0,0,0,0,0,0,0,0,0,0,21000,0,0,0,0,0,0,0,0,0,0,0,0,0,0,0,0,0,0,0,0,0,0,0,0,0,0,0,250,250,500,0,0,0,0,0,0,0,21000,21400,0,0,0,0,0,160,0,0,0,0,21560,0,.75,HNI CORP,199936550
1996,13838MPHNL4060D,AMPHENOL CORP,40-60 DELAWARE AVE,SIDNEY,DELAWARE,NY,13838,42.315278,-75.404028,3678,,,,,,334417,,,,,,1396100103249,CADMIUM,007440439,YES,NON-PBT,YES,1,YES,R,Pounds,0,0,48,0,0,0,0,0,0,0,0,0,48,0,0,0,0,0,0,0,0,0,0,0,0,0,0,0,0,0,0,0,0,0,0,3976,0,0,0,3976,0,0,0,0,0,0,0,0,0,0,48,48,0,0,0,0,0,0,0,3976,0,0,4024,0,.91,AMPHENOL CORP,NA
1996,13165WRGRC228EA,EVANS CHEMETICS LP,228 E MAIN ST,WATERLOO,SENECA,NY,13165,42.901556,-76.853917,2869,,,,,,325199,,,,,,1396100107503,CHLOROACETIC ACID,000079118,YES,NON-PBT,NO,0,NO,R,Pounds,5,1,0,0,0,0,0,0,0,0,0,0,6,0,0,0,0,0,0,0,0,0,0,0,0,0,0,0,0,0,0,0,0,0,0,0,0,0,0,0,0,0,0,0,0,0,0,0,0,0,6,11,0,0,0,0,0,0,0,0,20,0,31,0,1.35,NA,NA
1996,12888MRCNS430HU,MONSEY PRODUCTS CO,430 HUDSON RIVER RD,WATERFORD,SARATOGA,NY,12188,42.827858,-73.667294,2952,,,,,,324122,,,,,,1396100254945,ASBESTOS (FRIABLE),001332214,YES,NON-PBT,YES,2,YES,R,Pounds,0,0,0,0,0,0,0,0,0,0,0,0,0,0,0,0,0,0,0,0,0,0,175,0,0,0,0,0,0,0,0,0,0,175,0,0,0,0,0,0,0,0,0,0,0,0,0,0,0,0,175,175,0,0,0,0,0,0,2498,0,0,0,2673,0,.78,MONSEY PRODUCTS CO,002269710
1996,14094VNDMR1NORT,VANDEMARK CHEMICAL INC,1 N TRANSIT RD,LOCKPORT,NIAGARA,NY,14094,43.183778,-78.6975,2869,,,,,,325199,,,,,,1396100243450,CHLOROBENZENE,000108907,YES,NON-PBT,NO,0,NO,R,Pounds,5,47,0,0,0,0,0,0,0,0,0,0,52,0,5,5,0,0,0,0,0,0,0,0,0,0,0,0,0,0,0,0,0,0,0,0,0,0,0,0,0,0,0,0,0,0,0,0,0,0,52,248,0,0,0,0,0,0,0,0,0,14629,14877,184,1.02,NA,NA
1996,14533PNNWLROUTE,ARKEMA INC,RT 63,PIFFARD,LIVINGSTON,NY,14533,42.832361,-77.841917,2869,,,,,,325199,,,,,,1396100406735,DIBUTYL PHTHALATE,000084742,YES,NON-PBT,NO,0,NO,R,Pounds,0,0,0,0,0,0,0,0,0,0,0,0,0,0,0,0,0,0,0,0,0,0,0,0,0,0,0,0,0,0,0,0,0,0,0,0,0,0,0,0,442,0,442,0,0,0,0,0,0,0,0,0,0,0,0,0,0,445,0,0,80,0,525,0,.56,ARKEMA DELAWARE INC,002290773
1996,14302DPNTNBUFFA,DU PONT NIAGARA FALLS PLANT,BUFFALO AVE & 26TH ST,NIAGARA FALLS,NIAGARA,NY,14302,43.081056,-79.022361,2812,2819,2860,2899,,,325188,,,,,,1396100140464,CHLORINE,007782505,YES,NON-PBT,NO,0,NO,R,Pounds,6,15027,0,0,0,0,0,0,0,0,0,0,15033,0,0,0,0,0,0,0,0,0,0,0,0,0,0,0,0,0,0,0,0,0,0,0,0,0,0,0,0,0,0,0,0,0,0,0,0,0,15033,15033,0,0,0,0,0,0,0,0,95590,0,110623,0,1.05,E I DU PONT DE NEMOURS & CO INC,001315704
1996,12095HDSNNMAPLE,HUDSON INDUSTRIES CORP MILLIGAN & HIGGINS DIV,100 MAPLE AVE   PO BOX 506,JOHNSTOWN,FULTON,NY,12095,43.03064,-74.369458,2891,,,,,,325520,,,,,,1396100092093,PHOSPHORIC ACID,007664382,NO,NON-PBT,NO,0,NO,R,Pounds,0,0,0,0,0,0,0,0,0,0,0,0,0,0,5,5,0,0,0,0,0,0,0,0,0,0,0,0,0,0,0,0,0,0,0,0,0,0,0,0,0,0,0,0,0,0,0,0,0,0,0,0,0,0,0,0,0,0,0,0,0,1,1,0,1.19,UHFC,045783073
1996,10710LCTRN21GRA,ELECTRONIC DEVICES INC,21 GRAY OAKS AVE,YONKERS,WESTCHESTER,NY,10710,40.974657,-73.86794,3674,,,,,,334413,,,,,,1396100100876,XYLENE (MIXED ISOMERS),001330207,YES,NON-PBT,NO,0,NO,R,Pounds,0,0,0,0,0,0,0,0,0,0,0,0,0,0,0,0,0,0,0,0,0,0,0,0,0,0,0,0,0,0,0,0,0,0,0,0,0,0,0,0,0,0,0,0,0,0,0,2158,0,2158,0,0,0,0,0,0,0,0,0,0,0,2158,2158,0,1,ELECTRONIC DEVICES INC,NA
1996,12303SCHNC10THA,SCHENECTADY INTL. INC.,1302 CONGRESS ST.,SCHENECTADY,SCHENECTADY,NY,12303,42.792861,-73.950528,2851,,,,,,325510,,,,,,1396100273984,DIISOCYANATES,N120,YES,NON-PBT,NO,0,NO,R,Pounds,250,250,0,0,0,0,0,0,0,0,0,0,500,0,0,0,0,0,0,0,0,0,0,0,0,0,0,0,0,0,0,0,0,0,0,0,0,0,0,0,0,0,0,0,0,0,0,0,0,0,500,430,0,0,0,0,0,0,0,0,0,0,430,0,.84,SCHENECTADY INTL GROUP INC,146710330
1996,14304THGDY5408B,GOODYEAR TIRE & RUBBER CO,5500 GOODYEAR DR,NIAGARA FALLS,NIAGARA,NY,143043110,43.08493,-79.00174,2821,2869,,,,,325199,,,,,,1396100282274,PHENOL,000108952,YES,NON-PBT,NO,0,NO,R,Pounds,2200,95,0,0,0,0,0,0,0,0,0,0,2295,0,20500,20500,0,0,0,0,0,0,0,0,0,0,0,0,0,0,0,0,0,0,0,0,0,0,0,0,0,2821,2821,0,0,0,0,0,0,0,2295,2295,0,0,0,0,0,2821,0,0,0,20500,25616,0,.89,THE GOODYEAR TIRE & RUBBER CO,004467924
1996,13148GLDSPEBAYA,GOULDS PUMPS INC. WATER SYS. DIV.,E. BAYARD ST.,SENECA FALLS,SENECA,NY,13148,42.915,-76.75972,3561,,,,,,333911,,,,,,1396100308459,NICKEL,007440020,YES,NON-PBT,YES,1,YES,R,Pounds,0,0,0,0,0,0,0,0,0,0,0,0,0,0,0,0,0,0,0,0,0,0,29,0,0,0,0,0,0,0,0,0,0,29,0,1500,0,0,50200,51700,0,0,0,0,0,0,0,0,0,0,29,29,0,0,0,0,0,0,0,52000,0,0,52029,0,.92,GOULDS PUMPS INC,002225100
1996,14611LNCRP100MC,ARCH CHEMICALS INC,100 MCKEE RD,ROCHESTER,MONROE,NY,14611,43.154771,-77.66765,2865,2869,2879,,,,325199,,,,,,1396100385210,ZINC COMPOUNDS,N982,NO,NON-PBT,YES,1,NO,R,Pounds,0,11,0,0,0,0,46954,0,0,0,0,0,46965,130,0,130,0,0,0,0,0,0,0,0,0,0,0,0,0,0,0,0,0,0,0,0,0,0,0,0,0,0,0,0,0,0,0,0,0,0,47095,141,0,0,0,0,0,0,0,0,11393,46954,58488,26,2.71,ARCH CHEMICALS INC,049422509
1996,13413SPCLMMIDDL,SPECIAL METALS CORP,4317 MIDDLE SETTLEMENT RD,NEW HARTFORD,ONEIDA,NY,13413,43.07675,-75.34375,3313,,,,,,331112,,,,,,1396100056201,POLYCHLORINATED BIPHENYLS,001336363,YES,PBT,NO,0,YES,R,Pounds,0,0,0,0,0,0,0,0,0,0,0,0,0,0,0,0,0,0,0,0,0,0,4382,0,0,0,0,0,0,0,0,0,0,4382,0,0,0,0,0,0,0,0,0,0,4029,0,31711,0,0,35740,4382,4029,0,0,0,0,0,0,0,0,0,36093,40122,0,1.07,PRECISION CASTPARTS CORP,002241669
1996,14219JHNSTHAMBU,JOHNSTOWN WIRE TECHNOLOGIES GREAT LAKES DIV.,HAMBURG TURNPIKE GATE 6,BUFFALO,ERIE,NY,14219,42.803279,-78.846301,3312,,,,,,331111,,,,,,1396100070491,"SULFURIC ACID (1994 AND AFTER ""ACID AEROSOLS"" ONLY)",007664939,NO,NON-PBT,NO,0,NO,R,Pounds,0,4659,0,0,0,0,0,0,0,0,0,0,4659,0,0,0,0,0,0,0,0,0,0,0,0,0,0,0,0,0,0,0,0,0,0,0,0,0,0,0,0,0,0,0,0,0,0,0,0,0,4659,4659,0,0,0,0,0,0,0,0,0,0,4659,0,3.41,JOHNSTOWN WIRE TECHS,797319662
1996,13077PNNWL43JAM,HENKEL CORP,43 JAMES ST,HOMER,CORTLAND,NY,13077,42.637684,-76.182114,2899,,,,,,325998,,,,,,1396100114053,SODIUM NITRITE,007632000,NO,NON-PBT,YES,2,NO,R,Pounds,31,1,0,0,0,0,0,0,0,0,0,0,32,0,71,71,0,0,0,0,0,0,10,0,0,0,0,0,0,0,0,0,0,10,0,0,0,0,0,0,0,0,0,0,0,0,0,0,0,0,42,42,0,0,0,0,0,0,0,0,0,71,113,0,97,HENKEL CORP,051441731
1996,13329TMBLFBARKE,TUMBLE FORMS INC,1013 BARKER RD,DOLGEVILLE,HERKIMER,NY,13329,43.089496,-74.779447,3086,,,,,,326150,,,,,,1396100125893,"TOLUENE-2,4-DIISOCYANATE",000584849,YES,NON-PBT,NO,0,YES,R,Pounds,18,31,0,0,0,0,0,0,0,0,0,0,49,0,0,0,0,0,0,0,0,0,0,0,0,0,0,0,0,0,0,0,0,0,0,0,0,0,0,0,0,0,0,0,0,0,0,0,0,0,49,49,0,0,0,0,0,0,0,0,0,0,49,0,,PATTERSON MEDICAL,NA
1996,13733BRDNN911JO,ELMER'S PRODUCTS INC.,151 COUNTY RT 38,BAINBRIDGE,CHENANGO,NY,13733,42.30573,-75.46781,2891,,,,,,325520,,,,,,1396100138217,METHANOL,000067561,YES,NON-PBT,NO,0,NO,R,Pounds,0,498,0,0,0,0,0,0,0,0,0,0,498,0,250,250,0,0,0,0,0,0,0,0,0,0,0,0,0,0,0,0,0,0,0,0,0,0,0,0,0,0,0,0,0,0,0,0,0,0,498,500,0,0,0,0,0,0,0,0,0,500,1000,0,1.45,ELMER'S PRODUCTS INC,839421633
1996,14240PRCST710OH,HENKEL CORP,710 OHIO ST,BUFFALO,ERIE,NY,14203,42.8577,-78.866631,2851,2891,,,,,325510,,,,,,1396100138357,METHYL ETHYL KETONE,000078933,NO,NON-PBT,NO,0,NO,R,Pounds,3200,3900,0,0,0,0,0,0,0,0,0,0,7100,0,0,0,0,0,0,0,0,0,0,0,0,0,0,0,0,0,0,0,0,0,0,0,0,0,0,0,5500,0,5500,0,0,0,0,0,0,0,7100,3400,0,0,0,0,0,5500,35000,0,0,0,43900,0,1.97,HENKEL CORP,051441731
1996,13080LRBWR24NBE,INTERNATIONAL WIRE GROUP - AUBURN FACILITY,24 N BEAVER ST,JORDAN,ONONDAGA,NY,13080,43.06779,-76.46714,3315,,,,,,331421,,,,,,1396100231291,COPPER,007440508,NO,NON-PBT,YES,1,NO,R,Pounds,0,0,0,0,0,0,0,0,0,0,0,0,0,0,0,0,0,0,0,0,0,0,250,0,0,0,0,0,0,0,0,0,0,250,0,0,526490,0,0,526490,0,0,0,0,0,0,0,0,0,0,250,5,0,0,0,0,0,0,0,530000,0,0,530005,0,1.03,OMEGA WIRE INC,063048953
1996,10562MTLLZ19SOU,METALLIZED CARBON CORP,19 S WATER ST,OSSINING,WESTCHESTER,NY,10562,41.15867,-73.86778,3999,,,,,,339999,,,,,,1396100319058,ZINC COMPOUNDS,N982,NO,NON-PBT,YES,1,NO,R,Pounds,1,11,1,0,0,0,0,0,0,0,0,0,13,0,0,0,0,0,0,0,0,0,0,0,0,0,0,0,0,0,0,0,0,1300,0,36,0,0,0,36,0,0,0,1300,0,5,0,0,0,5,1313,13,0,0,0,0,0,0,0,36,0,1300,1349,0,1.05,NA,NA
1996,14580XRXCR800PH,XEROX CORP,800 PHILLIPS RD,WEBSTER,MONROE,NY,14580,43.2285,-77.423917,3579,,,,,,333315,,,,,,1396100417221,"SULFURIC ACID (1994 AND AFTER ""ACID AEROSOLS"" ONLY)",007664939,NO,NON-PBT,NO,0,NO,R,Pounds,0,0,0,0,0,0,0,0,0,0,0,0,0,0,0,0,0,0,0,0,0,0,45,0,0,0,0,0,0,0,0,0,0,45,0,0,0,0,0,0,0,0,0,0,0,0,0,0,0,0,45,45,0,0,0,0,0,0,0,0,1115,0,1160,0,1,XEROX CORP,002211324
1996,14304BTLSP5000P,DUREZ NIAGARA,5000 PACKARD RD,NIAGARA FALLS,NIAGARA,NY,14304,43.09719,-79.00525,2821,,,,,,325211,,,,,,1396100064548,METHANOL,000067561,YES,NON-PBT,NO,0,NO,R,Pounds,250,11200,0,0,0,0,0,0,0,0,0,0,11450,0,3000,3000,0,0,0,0,0,0,0,0,0,0,0,0,0,0,0,0,0,0,0,0,0,0,0,0,118235,0,118235,0,17066,0,31777,620,0,49463,11450,11450,0,0,0,0,320800,118235,0,0,30000,49463,529948,0,.97,DUREZ CORP,NA
1996,14304BTLSP5000P,DUREZ NIAGARA,5000 PACKARD RD,NIAGARA FALLS,NIAGARA,NY,14304,43.09719,-79.00525,2821,,,,,,325211,,,,,,1396100064613,"4,4'-ISOPROPYLIDENEDIPHENOL",000080057,NO,NON-PBT,NO,0,NO,R,Pounds,250,250,0,0,0,0,0,0,0,0,0,0,500,0,0,0,0,0,0,0,0,0,0,0,0,0,0,0,0,0,0,0,0,0,0,0,0,0,0,0,0,0,0,0,0,0,0,0,0,0,500,260,0,0,0,0,0,0,0,0,0,0,260,0,.97,DUREZ CORP,NA
1996,14304BTLSP5000P,DUREZ NIAGARA,5000 PACKARD RD,NIAGARA FALLS,NIAGARA,NY,14304,43.09719,-79.00525,2821,,,,,,325211,,,,,,1396100064664,TRIETHYLAMINE,000121448,YES,NON-PBT,NO,0,NO,R,Pounds,0,0,0,0,0,0,0,0,0,0,0,0,0,0,0,0,0,0,0,0,0,0,0,0,0,0,0,0,0,0,0,0,0,0,0,0,0,0,0,0,0,0,0,0,200,0,0,0,0,200,0,0,0,0,0,0,0,0,0,0,0,200,200,0,.97,DUREZ CORP,NA
1996,14150FMCCR37SAW,FMC CORP TONAWANDA PLAN T,35 SAWYER AVE,TONAWANDA,ERIE,NY,14150,42.973139,-78.926278,2819,,,,,,325188,,,,,,1396100037100,AMMONIA,007664417,NO,NON-PBT,NO,0,NO,R,Pounds,2200,6800,1900,0,0,0,0,0,0,0,0,0,10900,0,0,0,0,0,0,0,0,0,0,0,0,0,0,0,0,0,0,0,0,0,0,0,0,0,0,0,0,0,0,0,0,0,0,0,0,0,10900,11000,0,0,0,0,0,0,0,0,0,0,11000,0,.95,FMC CORP,009146945
1996,14623MDTBL1777E,GETINGE SOURCING LLC,1777 E HENRIETT RD,ROCHESTER,MONROE,NY,14623,43.085729,-77.608639,3841,,,,,,339999,,,,,,1396100041298,CHROMIUM,007440473,YES,NON-PBT,YES,1,YES,R,Pounds,1,7,0,0,0,0,0,0,0,0,0,0,8,250,0,250,0,0,0,0,0,0,0,0,0,0,0,0,0,0,0,0,0,0,0,70908,0,0,0,70908,0,0,0,0,0,0,0,0,0,0,258,8,0,0,0,0,0,0,0,70908,0,0,70916,0,1,NA,NA
1996,14621DPNTR69SEN,DUPONT ROCHESTER SENECA AVE,69 SENECA AVE,ROCHESTER,MONROE,NY,14621,43.187505,-77.609057,2869,3861,,,,,325000,,,,,,1396100216922,FORMALDEHYDE,000050000,YES,NON-PBT,NO,0,YES,R,Pounds,5,5,0,0,0,0,0,0,0,0,0,0,10,0,1015,1015,0,0,0,0,0,0,0,0,0,0,0,0,0,0,0,0,0,0,0,0,0,0,0,0,0,0,0,0,1005,0,0,0,0,1005,10,10,0,0,0,0,0,0,0,0,0,2020,2030,0,.5,E I DU PONT DE NEMOURS & CO INC,001315704
1996,12188GNRLL260HU,MPM SILICONES LLC,260 HUDSON RIVER RD,WATERFORD,SARATOGA,NY,12188,42.813917,-73.66,2821,2869,,,,,325212,,,,,,1396100268224,ETHYLBENZENE,000100414,YES,NON-PBT,NO,0,NO,R,Pounds,1300,1100,45,0,0,0,0,0,0,0,0,0,2445,0,0,0,0,0,0,0,0,0,0,0,0,0,0,0,0,0,0,0,0,0,0,0,0,0,0,0,0,0,0,0,0,0,0,0,0,0,2445,2100,0,0,0,0,0,0,0,0,310000,0,312100,290,1.09,MOMENTIVE PERFORMANCE MATERIALS,NA
1996,13662RYNLDSOUTH,REYNOLDS METALS CO ST LAWRENCE REDUCTION PLANT,194 COUNTY RT 45,MASSENA,ST LAWRENCE,NY,13662,44.986556,-74.747139,3334,,,,,,331312,,,,,,1396100102060,MANGANESE,007439965,YES,NON-PBT,YES,1,NO,R,Pounds,0,0,0,0,0,0,0,0,0,0,0,0,0,0,0,0,0,0,0,0,0,0,0,0,0,0,0,0,0,0,0,0,0,0,0,1500,0,0,0,1500,0,0,0,0,0,0,0,0,0,0,0,0,0,0,0,0,0,0,0,1500,0,0,1500,0,1.17,ALCOA INC,001339472
1996,14623HMMRL330ME,HAMMER LITHOGRAPH CORP,330 METRO PARK,ROCHESTER,MONROE,NY,146232696,43.095946,-77.622824,2752,,,,,,323119,,,,,,1396100138433,TOLUENE,000108883,YES,NON-PBT,NO,0,NO,R,Pounds,2800,0,0,0,0,0,0,0,0,0,0,0,2800,0,0,0,0,0,0,0,0,0,0,0,0,0,0,0,0,0,0,0,0,0,0,0,0,0,0,0,330,0,330,0,0,0,0,0,0,0,2800,2800,0,0,0,0,0,330,0,0,0,0,3130,0,1,NA,NA
1996,14303LXCRP3943B,K-C DIVESTITURE CORP.,3943 BUFFALO AV,NIAGARA FALLS,NIAGARA,NY,143032136,43.081657,-79.015696,2992,,,,,,324191,,,,,,1396100308598,DIETHANOLAMINE,000111422,YES,NON-PBT,NO,0,NO,R,Pounds,0,0,0,0,0,0,0,0,0,0,0,0,0,0,750,750,0,0,0,0,0,0,0,0,0,0,0,0,0,0,0,0,0,0,0,0,0,0,0,0,0,0,0,0,0,0,0,0,0,0,0,0,0,0,0,0,0,0,0,0,0,610,610,0,.97,RPM INC,004155651
1996,13126LCNRLLAKER,NOVELIS CORP,448 COUNTY RT 1A,OSWEGO,OSWEGO,NY,13126,43.488056,-76.453611,3353,3341,,,,,331315,,,,,,1396100003793,"HYDROCHLORIC ACID (1995 AND AFTER ""ACID AEROSOLS"" ONLY)",007647010,YES,NON-PBT,NO,0,NO,R,Pounds,4404,84712,0,0,0,0,0,0,0,0,0,0,89116,0,0,0,0,0,0,0,0,0,0,0,0,0,0,0,0,0,0,0,0,0,0,0,0,0,0,0,0,0,0,0,0,0,0,0,0,0,89116,89116,0,0,0,0,0,0,0,0,17000,0,106116,0,1.05,NOVELIS CORP,001504935
1996,13628CHMPNANDER,NEWSTECH NY INC.,400 ANDERSON AVE.,DEFERIET,JEFFERSON,NY,13628,44.0385,-75.679639,2611,2621,,,,,322121,,,,,,1396100016524,PHOSPHORIC ACID,007664382,NO,NON-PBT,NO,0,NO,R,Pounds,0,0,0,0,0,0,0,0,0,0,0,0,0,0,0,0,0,0,0,0,0,0,0,0,0,0,0,0,0,0,0,0,0,0,0,0,0,0,0,0,0,0,0,0,0,0,0,0,0,0,0,0,0,0,0,0,0,0,0,0,0,0,0,0,.98,BELKORP INDUSTRIES INC,207999863
1996,13221CRSHNWOLFA,COOPER CROUSE-HINDS LLC,1201 WOLF ST,SYRACUSE,ONONDAGA,NY,13208,43.084518,-76.159024,3357,3648,3613,,,,335932,,,,,,1396100043898,ZINC COMPOUNDS,N982,NO,NON-PBT,YES,1,NO,R,Pounds,0,0,0,0,0,0,0,0,0,0,0,0,0,500,0,500,0,0,0,0,0,0,0,0,0,0,0,0,0,0,0,0,0,21000,0,0,0,0,0,0,0,0,0,21000,0,0,0,0,0,0,21500,0,0,0,0,0,0,0,0,0,24000,24000,48000,0,.77,COOPER US INC,602755428
1996,14760HYSLL211FR,SOLEPOXY INC,211 FRANKLIN ST,OLEAN,CATTARAUGUS,NY,147609503,42.094861,-78.439994,3087,,,,,,325991,,,,,,1396100143318,ANTIMONY COMPOUNDS,N010,YES,NON-PBT,YES,1,NO,R,Pounds,250,250,0,0,0,0,0,0,0,0,0,0,500,5,0,5,0,0,0,0,0,0,24475,0,0,0,0,0,0,0,0,0,0,24475,0,0,0,0,0,0,0,0,0,0,0,0,0,0,0,0,24980,24503,0,0,0,0,0,0,0,0,0,0,24503,0,.87,SOLEPOXY INC,035040334
1996,13031CMLLS54MAI,CAMILLUS CUTLERY CO,54 MAIN ST,CAMILLUS,ONONDAGA,NY,13031,43.038933,-76.30932,3421,,,,,,332211,,,,,,1396100120385,CHROMIUM,007440473,YES,NON-PBT,YES,1,YES,R,Pounds,0,0,0,0,0,0,0,0,0,0,0,0,0,122,0,122,0,0,0,0,0,0,11728,0,0,0,0,0,0,0,0,0,0,11728,0,10960,0,0,0,10960,0,0,0,0,0,0,0,0,0,0,11850,11700,0,0,0,0,0,0,0,11000,0,120,22820,0,.98,NA,NA
1996,12150SCHNC1000M,SI GROUP INC,1000 MAIN ST,ROTTERDAM JUNCTION,SCHENECTADY,NY,12150,42.86077,-74.02846,2821,2869,,,,,325211,,,,,,1396100274378,CERTAIN GLYCOL ETHERS,N230,YES,NON-PBT,NO,0,NO,R,Pounds,250,250,5,0,0,0,0,0,0,0,0,0,505,0,0,0,0,0,0,0,0,0,0,0,0,0,0,0,0,0,0,0,0,0,0,0,0,0,0,0,0,10250,10250,0,0,0,0,250,0,250,505,200,0,0,0,0,68700,10300,0,0,0,250,79450,0,1.04,SI GROUP INC,146710330
1996,12345GNRLL1RIVE,GE CO,1 RIVER RD BLDG 273-1029,SCHENECTADY,SCHENECTADY,NY,12345,42.810809,-73.962246,3511,,,,,,333611,,,,,,1396100423019,MANGANESE,007439965,YES,NON-PBT,YES,1,NO,R,Pounds,5,5,250,0,0,0,0,0,0,0,0,5,265,0,0,0,0,0,0,0,0,0,755,0,0,0,0,0,0,0,0,0,2,757,0,55000,0,0,0,55000,0,0,0,0,0,0,0,0,0,0,1022,1026,0,0,0,0,0,0,0,55000,0,0,56026,0,.83,GE CO,001367960
1996,14739FRNDSCOUNT,FRIENDSHIP DAIRIES LLC,6701 COUNTY RD 20,FRIENDSHIP,ALLEGANY,NY,147398660,42.212111,-78.114278,2021,2022,2023,,,,311512,,,,,,1396100128572,"SULFURIC ACID (1994 AND AFTER ""ACID AEROSOLS"" ONLY)",007664939,NO,NON-PBT,NO,0,NO,R,Pounds,5,5,0,0,0,0,0,0,0,0,0,0,10,0,0,0,0,0,0,0,0,0,0,0,0,0,0,0,0,0,0,0,0,0,0,0,0,0,0,0,0,0,0,0,0,0,0,0,0,0,10,0,0,0,0,0,0,0,0,0,37245,0,37245,0,1.07,DEAN FOODS CO,NA
1996,14787RNLDNBOURN,RENOLD INC,100 BOURNE ST,WESTFIELD,CHAUTAUQUA,NY,14787,42.333042,-79.577604,3568,,,,,,333613,,,,,,1396100113760,AMMONIA,007664417,NO,NON-PBT,NO,0,NO,R,Pounds,0,3700,0,0,0,0,0,0,0,0,0,0,3700,0,0,0,0,0,0,0,0,0,0,0,0,0,0,0,0,0,0,0,0,0,0,0,0,0,0,0,0,0,0,0,0,0,0,0,0,0,3700,3700,0,0,0,0,0,0,0,0,0,0,3700,0,.83,RENOLD PLC,212290647
1996,14518LDRLN729CR,ELDERLEE INC,729 CROSS RD,OAKS CORNERS,ONTARIO,NY,14518,42.932476,-77.007518,3479,3441,3993,,,,332812,,,,,,1396100118140,LEAD,007439921,YES,PBT,YES,1,YES,R,Pounds,5,40,0,0,0,0,0,0,0,0,0,0,45,0,0,0,0,0,0,0,0,0,970,0,0,0,0,0,0,0,0,200,0,1170,0,0,0,0,0,0,0,0,0,0,0,0,0,0,0,0,1215,1200,0,0,0,0,0,0,0,0,0,0,1200,0,.8,REH HOLDINGS INC,121728083
1996,11222NYSML269FR,NEY SMELTING & REFINING CO INC,269 FREEMAN ST,BROOKLYN,KINGS,NY,112221295,40.734894,-73.95028,3369,,,,,,331528,,,,,,1396100083599,CADMIUM,007440439,YES,NON-PBT,YES,1,YES,R,Pounds,0,1,0,0,0,0,0,0,0,0,0,0,1,0,0,0,0,0,0,0,0,0,0,0,0,0,0,0,0,0,0,0,0,0,0,0,0,0,0,0,0,0,0,0,0,0,0,0,0,0,1,1,0,0,0,0,0,0,500,0,0,0,501,0,.01,NA,NA
1996,13440RMCBL421RI,ROME CABLE CORP.,421 RIDGE ST.,ROME,ONEIDA,NY,13440,43.211499,-75.466781,3357,,,,,,335929,,,,,,1396100123076,ACETOPHENONE,000098862,YES,NON-PBT,NO,0,NO,R,Pounds,37977,0,0,0,0,0,0,0,0,0,0,0,37977,0,0,0,0,0,0,0,0,0,0,0,0,0,0,0,0,0,0,0,0,0,0,0,0,0,0,0,0,0,0,0,0,0,0,0,0,0,37977,50636,0,0,0,0,0,0,0,0,0,0,50636,0,.89,ROME GROUP INC,106621493
1996,12550MTLCN1000B,METAL CONTAINER CORP - NEWBURGH CAN PLANT,130 BREUNIG RD,NEW WINDSOR,ORANGE,NY,12553,41.487295,-74.096466,3411,,,,,,332431,,,,,,1396100135274,N-BUTYL ALCOHOL,000071363,NO,NON-PBT,NO,0,NO,R,Pounds,120000,268000,0,0,0,0,0,0,0,0,0,0,388000,0,0,0,0,0,0,0,0,0,0,0,0,0,0,0,0,0,0,0,0,0,0,0,0,0,0,0,0,250,250,0,0,0,0,0,0,0,388000,389000,0,0,0,0,0,60,0,0,0,0,389060,0,.99,ANHEUSER-BUSCH INBEV,098630254
1996,14850BRGWR800WA,BORGWARNER MORSE TEC CORP,800 WARREN RD,ITHACA,TOMPKINS,NY,14850,42.50104,-76.4713,3714,,,,,,336399,,,,,,1396100130501,NICKEL COMPOUNDS,N495,YES,NON-PBT,YES,1,NO,R,Pounds,0,0,0,0,0,0,0,0,0,0,0,0,0,22,0,22,0,0,0,0,0,0,5,0,0,0,0,0,0,0,0,0,0,5,0,0,0,0,19500,19500,0,0,0,0,0,0,0,0,0,0,27,10,0,0,0,0,0,0,0,19500,5,22,19537,0,.78,BORGWARNER INC,139469787
1996,10591GNRLM199BE,GENERAL MOTORS CORP CHEVROLET PONTIAC CANADA GROUP,199 BEEKMAN AVE.,NORTH TARRYTOWN,WESTCHESTER,NY,105912494,41.082792,-73.866865,3711,,,,,,336000,,,,,,1396100248602,METHYL ISOBUTYL KETONE,000108101,YES,NON-PBT,NO,0,NO,R,Pounds,250,250,0,0,0,0,0,0,0,0,0,0,500,0,0,0,0,0,0,0,0,0,0,0,0,0,0,0,0,0,0,0,0,0,54000,0,0,0,0,54000,0,250,250,0,0,0,0,0,0,0,500,50,0,0,0,0,0,50,0,54000,0,0,54100,0,.54,GENERAL MOTORS CORP,005356613
1996,10591GNRLM199BE,GENERAL MOTORS CORP CHEVROLET PONTIAC CANADA GROUP,199 BEEKMAN AVE.,NORTH TARRYTOWN,WESTCHESTER,NY,105912494,41.082792,-73.866865,3711,,,,,,336000,,,,,,1396100248653,CERTAIN GLYCOL ETHERS,N230,YES,NON-PBT,NO,0,NO,R,Pounds,750,33000,0,0,0,0,0,0,0,0,0,0,33750,0,0,0,0,0,0,0,0,0,0,0,0,0,0,0,0,0,0,0,0,0,1300,0,0,0,0,1300,0,3050,3050,0,0,0,0,0,0,0,33750,33000,0,0,0,0,4000,2900,0,1300,0,0,41200,0,.54,GENERAL MOTORS CORP,005356613
1996,14546CPRVS711NO,COOPERVISION,711 N RD,SCOTTSVILLE,MONROE,NY,14546,43.02831,-77.75692,3827,3851,3089,,,,333314,,,,,,1396100253184,DICHLOROMETHANE,000075092,YES,NON-PBT,NO,0,YES,R,Pounds,0,150,0,0,0,0,0,0,0,0,0,0,150,0,0,0,0,0,0,0,0,0,0,0,0,0,0,0,0,0,0,0,0,0,0,0,0,0,0,0,0,0,0,0,0,600,0,0,0,600,150,150,0,0,0,0,0,0,22000,0,0,600,22750,0,,COOPER COMPANIES,024187130
1996,13476DRYLCWARDS,H P HOOD LLC,19 WARD ST,VERNON,ONEIDA,NY,134760930,43.083639,-75.537806,2023,2026,,,,,311511,,,,,,1396100347424,PHOSPHORIC ACID,007664382,NO,NON-PBT,NO,0,NO,R,Pounds,0,0,0,0,0,0,0,0,0,0,0,0,0,0,750,750,0,0,0,0,0,0,0,0,0,0,0,0,0,0,0,0,0,0,0,0,0,0,0,0,0,0,0,0,0,0,0,0,0,0,0,0,0,0,0,0,0,0,0,0,26500,500,27000,0,1.04,HP HOOD LLC,001008697
1996,10918CHSTR15OAK,NEXANS ENERGY USA INC,25 OAKLAND AVE,CHESTER,ORANGE,NY,10918,41.362167,-74.279333,3357,,,,,,331422,,,,,,1396100427210,VINYL CHLORIDE,000075014,YES,NON-PBT,NO,0,YES,R,Pounds,0,0,0,0,0,0,0,0,0,0,0,0,0,0,0,0,0,0,0,0,0,0,0,0,0,0,0,0,0,0,0,0,0,0,0,0,73712,0,0,73712,0,0,0,0,0,0,0,0,0,0,0,0,0,0,0,0,0,0,0,73712,0,0,73712,0,1,NA,NA
1996,14652STMNK1669L,EASTMAN KODAK CO EASTMAN BUSINESS PARK,1669 LAKE AVE,ROCHESTER,MONROE,NY,146523615,43.202778,-77.655222,3861,,,,,,325992,,,,,,1396100429416,ACETONITRILE,000075058,YES,NON-PBT,NO,0,NO,R,Pounds,3000,8100,1300,0,0,0,0,0,0,0,0,0,12400,0,0,0,0,0,0,0,0,0,700,0,0,0,0,0,0,0,81,0,0,781,0,0,0,0,0,0,0,0,0,0,0,0,0,0,0,0,13181,12000,0,0,0,0,0,0,0,0,580000,700,592700,0,1.1,EASTMAN KODAK CO,002206183
1996,14591TMPTC6110L,TMP TECHNOLOGIES INC ADVANCED FOAM PRODUCTION DIV.,6110 LAMB RD.,WYOMING,WYOMING,NY,14591,42.818464,-78.079176,3086,,,,,,326000,,,,,,1396105061511,DICHLOROMETHANE,000075092,YES,NON-PBT,NO,0,YES,R,Pounds,17112,0,0,0,0,0,0,0,0,0,0,0,17112,0,0,0,0,0,0,0,0,0,0,0,0,0,0,0,0,0,0,0,558,558,0,0,0,0,0,0,0,0,0,0,0,0,0,0,0,0,17670,16554,0,0,0,0,0,0,0,0,0,558,17112,0,.61,NA,NA
1996,14513SPNCM1COUN,SPINCO METAL PRODUCTS INC,1 COUNTRY CLUB DR,NEWARK,WAYNE,NY,14513,43.04984,-77.08669,3499,,,,,,332999,,,,,,1396105172340,COPPER,007440508,NO,NON-PBT,YES,1,NO,R,Pounds,0,0,0,0,0,0,0,0,0,0,0,0,0,5,0,5,0,0,0,0,0,0,0,0,0,0,0,0,0,0,0,750,0,750,0,0,0,0,103788,103788,0,0,0,0,0,0,0,0,0,0,755,500,0,0,0,0,0,0,0,103788,0,2,104290,0,1.1,NA,NA
1996,14304NCTCR40047,NIACET CORP,400 47TH ST,NIAGARA FALLS,NIAGARA,NY,14304,43.090278,-79.00836,2869,2819,INVA,,,,325199,,,,,,1396105197077,ETHYLENE GLYCOL,000107211,YES,NON-PBT,NO,0,NO,R,Pounds,0,0,0,0,0,0,0,0,0,0,0,0,0,0,0,0,0,0,0,0,0,0,0,0,0,0,0,0,0,0,0,0,0,0,0,0,0,0,0,0,0,0,0,0,0,0,0,0,0,0,0,0,0,0,0,0,0,0,0,0,0,0,0,0,1,NIACET CORP,NA
1996,11101GLLCT4531C,COOPER WIRING DEVICES,45-31 CT ST,LONG ISLAND CITY,QUEENS,NY,11101,40.746346,-73.942827,3679,,,,,,335000,,,,,,1396105299147,ZINC COMPOUNDS,N982,NO,NON-PBT,YES,1,NO,R,Pounds,5,0,0,0,0,0,0,0,0,0,0,0,5,91,0,91,0,0,0,0,0,0,1,0,0,0,0,0,0,0,0,0,0,1,0,0,0,0,0,0,0,0,0,0,0,0,0,0,0,0,97,101,0,0,0,0,0,0,0,0,0,0,101,0,1,COOPER INDUSTRIES INC,001883156
1996,11101GLLCT4531C,COOPER WIRING DEVICES,45-31 CT ST,LONG ISLAND CITY,QUEENS,NY,11101,40.746346,-73.942827,3679,,,,,,334000,,,,,,1396105299186,"SULFURIC ACID (1994 AND AFTER ""ACID AEROSOLS"" ONLY)",007664939,NO,NON-PBT,NO,0,NO,R,Pounds,88,0,0,0,0,0,0,0,0,0,0,0,88,0,0,0,0,0,0,0,0,0,0,0,0,0,0,0,0,0,0,0,0,0,0,0,0,0,0,0,0,0,0,0,0,0,0,0,0,0,88,88,0,0,0,0,0,0,0,0,0,0,88,0,1,COOPER INDUSTRIES INC,001883156
1996,13662LMNMCPARKA,ALCOA INC,PARK AVE E,MASSENA,ST LAWRENCE,NY,13662,44.939389,-74.873528,3334,3354,3355,,,,331312,,,,,,1396105359638,POLYCYCLIC AROMATIC COMPOUNDS,N590,YES,PBT,NO,0,YES,R,Pounds,380,2500,0,0,0,0,0,0,0,0,0,0,2880,0,0,0,0,0,0,0,0,0,0,0,0,0,0,0,0,0,0,0,0,0,0,0,0,0,0,0,0,0,0,0,0,0,0,0,0,0,2880,2900,0,0,0,0,800000,0,61000,0,1400,0,865300,0,1.02,ALCOA INC,001339472
1996,12183LLDSGTIBBE,HONEYWELL INTERNATIONAL INC,3 TIBBITS AVE,GREEN ISLAND,ALBANY,NY,12183,42.748889,-73.695833,3292,2821,,,,,336340,,,,,,1396101005686,"SULFURIC ACID (1994 AND AFTER ""ACID AEROSOLS"" ONLY)",007664939,NO,NON-PBT,NO,0,NO,A,Pounds,0,0,0,0,0,0,0,0,0,0,0,0,0,0,0,0,0,0,0,0,0,0,0,0,0,0,0,0,0,0,0,0,0,0,0,0,0,0,0,0,0,0,0,0,0,0,0,0,0,0,0,0,0,0,0,0,0,0,0,0,0,0,0,0,,HONEYWELL INTERNATIONAL INC,139691877
1996,11802RCPLYNEWSO,BAYER CORP. (RUCO POLYMER CORP.),125 NEW S. RD.,HICKSVILLE,NASSAU,NY,11801,40.7575,-73.50416,2821,,,,,,325211,,,,,,1396101015358,METHYL ISOBUTYL KETONE,000108101,YES,NON-PBT,NO,0,NO,A,Pounds,0,0,0,0,0,0,0,0,0,0,0,0,0,0,0,0,0,0,0,0,0,0,0,0,0,0,0,0,0,0,0,0,0,0,0,0,0,0,0,0,0,0,0,0,0,0,0,0,0,0,0,0,0,0,0,0,0,0,0,0,0,0,0,0,,BAYER CORP,NA
1996,14218BTHLHPOBOX,METALICO ALUMINUM RECOVERY INC,1951 HAMBURG TURNPIKE BOX 6,LACKAWANNA,ERIE,NY,14218,42.832563,-78.854012,3312,,,,,,331492,,,,,,1396101035727,CRESOL (MIXED ISOMERS),001319773,YES,NON-PBT,NO,0,NO,A,Pounds,0,0,0,0,0,0,0,0,0,0,0,0,0,0,0,0,0,0,0,0,0,0,0,0,0,0,0,0,0,0,0,0,0,0,0,0,0,0,0,0,0,0,0,0,0,0,0,0,0,0,0,0,0,0,0,0,0,0,0,0,0,0,0,0,,METALICO INC,047877688
1996,14218BTHLHPOBOX,METALICO ALUMINUM RECOVERY INC,1951 HAMBURG TURNPIKE BOX 6,LACKAWANNA,ERIE,NY,14218,42.832563,-78.854012,3312,,,,,,331492,,,,,,1396101035766,QUINOLINE,000091225,YES,NON-PBT,NO,0,NO,A,Pounds,0,0,0,0,0,0,0,0,0,0,0,0,0,0,0,0,0,0,0,0,0,0,0,0,0,0,0,0,0,0,0,0,0,0,0,0,0,0,0,0,0,0,0,0,0,0,0,0,0,0,0,0,0,0,0,0,0,0,0,0,0,0,0,0,,METALICO INC,047877688
1996,14653STMNK901EL,EASTMAN KODAK CO. ELMGROVE PLANT,901 ELMGROVE RD.,ROCHESTER,MONROE,NY,146535710,43.15206,-77.7339,3861,,,,,,333315,,,,,,1396105016909,CHROMIUM,007440473,YES,NON-PBT,YES,1,YES,R,Pounds,0,250,0,0,0,0,0,0,0,0,0,0,250,0,0,0,0,0,0,0,0,0,0,0,0,0,0,0,0,0,0,0,0,0,0,0,0,0,40000,40000,0,0,0,0,250,0,0,0,0,250,250,410,0,0,0,0,0,0,0,40000,0,190,40600,0,1.39,EASTMAN KODAK CO,002206183
1996,12090NRPLX1MECH,ISOLA LAMINATE SYSTEMS,1 MECHANIC ST.,HOOSICK FALLS,RENSSELAER,NY,12090,42.903656,-73.352117,3679,,,,,,334419,,,,,,1396105017040,METHYL ETHYL KETONE,000078933,NO,NON-PBT,NO,0,NO,R,Pounds,12,110,0,0,0,0,0,0,0,0,0,0,122,0,0,0,0,0,0,0,0,0,0,0,0,0,0,0,0,0,0,0,0,0,0,0,0,0,0,0,0,250,250,0,0,0,0,0,0,0,122,110,0,0,0,0,4000,380,0,0,6500,0,10990,0,.9,ISOLA LAMINATE SYSTEMS CORP,139691877
1996,14120BFFLP874OL,BUFFALO PUMPS INC,874 OLIVER ST,NORTH TONAWANDA,NIAGARA,NY,141203298,43.04541,-78.88348,3561,,,,,,333911,,,,,,1396105024917,COPPER,007440508,NO,NON-PBT,YES,1,NO,R,Pounds,750,0,0,0,0,0,0,0,0,0,0,0,750,0,0,0,0,0,0,0,0,0,0,0,0,0,0,0,0,0,0,0,0,0,0,0,0,0,0,0,0,0,0,0,0,0,0,0,0,0,750,748,0,0,0,0,0,0,0,0,0,0,748,0,1.01,AMPCO-PITTSBURG CORP,004327876
1996,11704MRCNC400SH,AMERICAN ACRYLIC CORP,400 SHEFFIELD AVE,WEST BABYLON,SUFFOLK,NY,11704,40.719169,-73.337101,3083,,,,,,326130,,,,,,1396105193116,METHYL METHACRYLATE,000080626,YES,NON-PBT,NO,0,NO,R,Pounds,0,10000,0,0,0,0,0,0,0,0,0,0,10000,0,0,0,0,0,0,0,0,0,0,0,0,0,0,0,0,0,0,0,0,0,0,0,0,0,0,0,0,0,0,0,0,0,0,0,0,0,10000,10000,0,0,0,0,0,0,0,0,300,0,10300,0,1.1,NA,NA
1996,13440RMSTR530HE,ROME STRIP STEEL CO INC,530 HENRY ST,ROME,ONEIDA,NY,13440,43.213389,-75.471972,3316,,,,,,331221,,,,,,1396105263444,MANGANESE COMPOUNDS,N450,YES,NON-PBT,YES,1,NO,R,Pounds,0,0,0,0,0,0,0,0,0,0,0,0,0,5,0,5,0,0,0,0,0,0,250,0,0,0,0,0,0,0,0,0,0,250,0,15100,0,0,0,15100,0,0,0,0,0,0,0,0,0,0,255,19,0,0,0,0,0,0,0,15000,0,0,15019,0,.84,NA,NA
1996,10931HDSNT25TOR,HUDSON TECHS. CO.,60 TORNE VALLEY RD.,HILLBURN,ROCKLAND,NY,10931,41.13013,-74.16486,2869,,,,,,325000,,,,,,1396105263495,DICHLORODIFLUOROMETHANE,000075718,NO,NON-PBT,NO,0,NO,R,Pounds,1200,0,0,0,0,0,0,0,0,0,0,0,1200,0,0,0,0,0,0,0,0,0,0,0,0,0,0,0,0,0,0,0,0,0,0,0,0,0,0,0,0,0,0,0,0,0,0,0,0,0,1200,0,0,0,0,0,0,0,0,0,0,0,0,0,,HUDSON TECHNOLOGIES INC,782619647
1996,10305SNCHM441TO,SUN CHEMICAL CORP,441 TOMPKINS AVE,STATEN ISLAND,RICHMOND,NY,10305,40.614878,-74.073014,2865,,,,,,325132,,,,,,1396105271504,SODIUM NITRITE,007632000,NO,NON-PBT,YES,2,NO,R,Pounds,0,300,0,0,0,0,0,0,0,0,0,0,300,0,0,0,0,0,0,0,0,0,600,0,0,0,0,0,0,0,0,0,0,600,0,0,0,0,0,0,0,0,0,0,0,0,0,0,0,0,900,900,0,0,0,0,0,0,0,0,26000,0,26900,0,.95,SUN CHEMICAL CORP,144638558
1996,14701SSXSP125BL,LILLY IND. INC.,125 BLACKSTONE AVE.,JAMESTOWN,CHAUTAUQUA,NY,14701,42.109285,-79.214232,2851,,,,,,325510,,,,,,1396105370151,TOLUENE,000108883,YES,NON-PBT,NO,0,NO,R,Pounds,2640,1100,0,0,0,0,0,0,0,0,0,0,3740,0,0,0,0,0,0,0,0,0,0,0,0,0,0,0,0,0,0,0,0,0,0,0,0,0,0,0,26616,0,26616,0,0,0,0,0,0,0,3740,3740,0,0,0,0,0,26600,0,0,0,0,30340,0,1.07,LILLY IND INC,006040117
1996,13057RTHBR6223T,WABASH ALUMINUM ALLOYS LLC SYRACUSE PLANT,6223 THOMPSON RD,EAST SYRACUSE,ONONDAGA,NY,13057,43.075417,-76.087028,3341,,,,,,331000,,,,,,1396105331831,NICKEL COMPOUNDS,N495,YES,NON-PBT,YES,1,NO,R,Pounds,93,510,0,0,0,0,0,0,0,0,0,0,603,0,0,0,0,0,0,0,0,0,2178,0,0,0,0,0,0,0,0,0,0,2178,0,0,0,0,0,0,0,0,0,0,0,0,0,0,0,0,2781,2800,0,0,0,0,0,0,0,0,0,0,2800,0,1,CONNELL INVESTMENT PTNR,NA
1996,12306NSLTNONECA,VON ROLL USA INC,200 VON ROLL DR,SCHENECTADY,SCHENECTADY,NY,123062442,42.806556,-73.984694,3299,2295,2821,2851,,,327999,,,,,,1396105339838,STYRENE,000100425,YES,NON-PBT,NO,0,YES,R,Pounds,6,250,0,0,0,0,0,0,0,0,0,0,256,0,0,0,0,0,0,0,0,0,0,0,0,0,0,0,0,0,0,0,0,0,0,0,0,0,0,0,0,750,750,0,0,0,0,0,0,0,256,20,0,0,0,0,0,800,0,0,0,0,820,0,.95,VON ROLL AG,NA
1996,14652STMNK1669L,EASTMAN KODAK CO EASTMAN BUSINESS PARK,1669 LAKE AVE,ROCHESTER,MONROE,NY,146523615,43.202778,-77.655222,3861,,,,,,325992,,,,,,1396105402147,HYDROQUINONE,000123319,YES,NON-PBT,NO,0,NO,R,Pounds,58,400,1800,0,0,0,0,0,0,0,0,0,2258,0,0,0,0,0,0,0,0,0,0,0,0,0,0,0,0,0,0,0,0,0,0,0,0,0,0,0,0,0,0,0,0,0,0,0,0,0,2258,2300,0,0,0,0,0,0,0,0,23000,0,25300,0,1.01,EASTMAN KODAK CO,002206183
1996,13204NPLTC459PU,ANOPLATE CORP,459 PULASKI ST,SYRACUSE,ONONDAGA,NY,13204,43.06187,-76.176113,3471,,,,,,332813,,,,,,1396105430185,NICKEL COMPOUNDS,N495,YES,NON-PBT,YES,1,NO,R,Pounds,250,250,0,0,0,0,0,0,0,0,0,0,500,250,0,250,0,0,5460,0,0,0,0,0,0,0,0,0,0,0,0,0,0,5460,0,4500,0,0,0,4500,0,0,0,0,0,0,0,0,0,0,6210,7000,0,0,0,0,0,0,0,4500,0,0,11500,0,1,NA,NA
1996,10962PXRCR530RT,AVERY DENNISON INFORMATION & BRAND MANAGEMENT DIV,524 RT 303,ORANGEBURG,ROCKLAND,NY,10962,41.054754,-73.948264,2672,,,,,,313000,,,,,,1396100445663,"N,N-DIMETHYLFORMAMIDE",000068122,YES,NON-PBT,NO,0,YES,R,Pounds,1193,6360,0,0,0,0,0,0,0,0,0,0,7553,0,0,0,0,0,0,0,0,0,0,0,0,0,0,0,0,0,0,0,454,454,0,0,0,0,0,0,0,0,0,0,0,0,0,0,0,0,8007,7553,0,0,0,0,0,0,0,0,32183,453,40189,0,.98,AVERY DENNISON CORP,NA
1996,13440RVRCPSENEC,REVERE COPPER PRODUCTS INC,ONE REVERE PARK,ROME,ONEIDA,NY,13440,43.208528,-75.436167,3351,,,,,,331421,,,,,,1396101017325,AMMONIA,007664417,NO,NON-PBT,NO,0,NO,A,Pounds,0,0,0,0,0,0,0,0,0,0,0,0,0,0,0,0,0,0,0,0,0,0,0,0,0,0,0,0,0,0,0,0,0,0,0,0,0,0,0,0,0,0,0,0,0,0,0,0,0,0,0,0,0,0,0,0,0,0,0,0,0,0,0,0,,NA,NA
1996,10553STWRT222WA,RECTORSEAL CORP.,222 WASHINGTON ST.,MOUNT VERNON,WESTCHESTER,NY,10553,40.91074,-73.82729,2842,2899,,,,,325612,,,,,,1396105023333,DICHLOROMETHANE,000075092,YES,NON-PBT,NO,0,YES,R,Pounds,250,250,0,0,0,0,0,0,0,0,0,0,500,0,0,0,0,0,0,0,0,0,0,0,0,0,0,0,0,0,0,0,0,0,0,0,0,0,0,0,0,0,0,0,0,0,0,0,0,0,500,162,0,0,0,0,0,0,0,0,0,0,162,0,.78,CAPITAL SOUTHWEST CORP,007925670
1996,10461MSTRD1546S,AMSTERDAM COLOR WORKS,1546 STILLWELL AVE,BRONX,BRONX,NY,10461,40.854385,-73.842107,2851,,,,,,325510,,,,,,1396105184360,LEAD COMPOUNDS,N420,YES,PBT,YES,1,NO,R,Pounds,1,10,0,0,0,0,0,0,0,0,0,0,11,0,0,0,0,0,0,0,0,0,0,0,0,0,0,0,0,0,0,0,0,0,0,0,0,0,0,0,0,0,0,0,0,0,0,0,0,0,11,11,0,0,0,0,0,0,0,0,0,0,11,0,1,NA,NA
1996,14227CWLLC2775B,ARS/VISTEON,2775 BROADWAY AVE,CHEEKTOWAGA,ERIE,NY,14227,42.901978,-78.771735,3714,,,,,,336000,,,,,,1396105356087,LEAD,007439921,YES,PBT,YES,1,YES,R,Pounds,0,5,0,0,0,0,0,0,0,0,0,0,5,250,0,250,0,0,0,0,0,0,0,0,0,0,0,0,0,0,0,0,0,0,0,10755,0,0,0,10755,0,0,0,0,0,0,0,0,0,0,255,105,0,0,0,0,0,0,0,10755,0,0,10860,0,1.1,NA,NA
1996,14094GNRLM200UP,GM COMPONENTS HOLDINGS LLC,"200 UPPER MOUNTAIN ROAD, MANUFACTURING PLANT",LOCKPORT,NIAGARA,NY,140941896,43.168361,-78.72625,3714,3585,,,,,336399,,,,,,1396105364044,ETHYLENE GLYCOL,000107211,YES,NON-PBT,NO,0,NO,R,Pounds,250,43000,750,0,0,0,0,0,0,0,0,0,44000,0,0,0,0,0,0,0,0,0,0,0,0,0,0,0,0,0,0,0,0,0,0,0,0,0,0,0,0,1500,1500,0,0,0,0,0,0,0,44000,44000,0,0,0,0,0,1500,0,0,0,0,45500,0,.99,GENERAL MOTORS LLC,832447812
1996,11215CMMTL12712,CAMEO METAL PRODS. INC.,127 12TH ST.,BROOKLYN,KINGS,NY,11215,40.670218,-73.993654,3479,,,,,,333298,,,,,,1396105368031,TETRACHLOROETHYLENE,000127184,YES,NON-PBT,NO,0,YES,R,Pounds,4,0,0,0,0,0,0,0,0,0,0,0,4,0,0,0,0,0,0,0,0,0,0,0,0,0,0,0,0,0,0,0,0,0,0,0,0,0,0,0,0,0,0,0,0,0,0,0,0,0,4,0,0,0,0,0,0,0,0,0,0,0,0,0,,NA,NA
1996,14733LLSNB125WM,ELLISON BRONZE INC,125 W MAIN ST,FALCONER,CHAUTAUQUA,NY,14733,42.117281,-79.199864,3442,,,,,,332321,,,,,,1396100370105,COPPER,007440508,NO,NON-PBT,YES,1,NO,R,Pounds,250,1858,0,0,0,0,0,0,0,0,0,0,2108,0,0,0,0,0,0,0,0,0,0,0,0,0,0,0,0,0,0,0,0,1000,0,4126,0,0,0,4126,0,0,0,1000,0,0,0,0,0,0,3108,1896,0,0,0,0,0,0,0,4126,0,980,7002,0,2.1,NA,NA
1996,14518LDRLN729CR,ELDERLEE INC,729 CROSS RD,OAKS CORNERS,ONTARIO,NY,14518,42.932476,-77.007518,3479,3441,3993,,,,332312,,,,,,1396101015446,MANGANESE,007439965,YES,NON-PBT,YES,1,NO,A,Pounds,0,0,0,0,0,0,0,0,0,0,0,0,0,0,0,0,0,0,0,0,0,0,0,0,0,0,0,0,0,0,0,0,0,0,0,0,0,0,0,0,0,0,0,0,0,0,0,0,0,0,0,0,0,0,0,0,0,0,0,0,0,0,0,0,,REH HOLDINGS INC,121728083
1996,11931KLLMRWESTL,AMP CIRCUITS,WEST LN.,AQUEBOGUE,SUFFOLK,NY,11931,40.955563,-72.632653,3672,3679,,,,,334412,,,,,,1396105017216,LEAD,007439921,YES,PBT,YES,1,YES,R,Pounds,0,95,5,0,0,0,0,0,0,0,0,0,100,0,0,0,0,0,0,0,0,0,0,0,0,0,0,0,0,0,0,0,0,0,0,0,0,0,0,0,0,0,0,0,0,560,0,0,0,560,100,100,0,0,0,0,0,0,0,0,0,560,660,0,1,AMP INC,003012549
1996,14414GNRLF140SP,KRAFT FOODS INC.,140 SPRING ST.,AVON,LIVINGSTON,NY,14414,42.906265,-77.753826,2099,,,,,,311991,,,,,,1396105019362,AMMONIA,007664417,NO,NON-PBT,NO,0,NO,R,Pounds,172,0,0,0,0,0,0,0,0,0,0,0,172,0,0,0,0,0,0,0,0,0,0,0,0,0,0,0,0,0,0,0,0,0,0,0,0,0,0,0,0,0,0,0,0,0,0,0,0,0,172,172,0,0,0,0,0,0,0,0,0,0,172,0,1.8,PHILIP MORRIS COS INC,144628310
1996,10550DYNCS807SO,NORTHEAST PLATING INC,807 S FULTON AVE,MOUNT VERNON,WESTCHESTER,NY,105504703,40.89457,-73.823641,3471,,,,,,332813,,,,,,1396105084141,"SULFURIC ACID (1994 AND AFTER ""ACID AEROSOLS"" ONLY)",007664939,NO,NON-PBT,NO,0,NO,R,Pounds,0,0,0,0,0,0,0,0,0,0,0,0,0,0,0,0,0,0,0,0,0,0,0,0,0,0,0,0,0,0,0,0,0,0,0,0,0,0,0,0,0,0,0,0,0,0,0,0,0,0,0,0,0,0,0,0,0,0,0,0,34000,0,34000,0,.9,NA,NA
1996,12189LTCHSSPRIN,REALCO INC.,LINCOLN AVE,WATERVLIET,ALBANY,NY,12189,42.71098,-73.8377,3312,3316,3398,,,,331000,,,,,,1396105138489,HYDROGEN FLUORIDE,007664393,YES,NON-PBT,NO,0,NO,R,Pounds,0,5386,0,0,0,0,0,0,0,0,0,0,5386,0,0,0,0,0,0,0,0,0,0,0,0,0,0,0,0,0,0,0,0,0,0,0,0,0,0,0,0,0,0,0,0,0,74,0,0,74,5386,5386,0,0,0,0,0,0,0,0,26012,74,31472,0,1,NA,NA
1996,13442KRSTC921SE,KRIS-TECH WIRE CO INC,921 SENECA ST PO BOX 4377,ROME,ONEIDA,NY,134424377,43.208033,-75.432923,3357,,,,,,331422,,,,,,1396105160802,COPPER,007440508,NO,NON-PBT,YES,1,NO,R,Pounds,0,0,0,0,0,0,0,0,0,0,0,0,0,0,0,0,0,0,0,0,0,0,0,0,0,0,0,0,0,0,0,0,0,0,0,200919,0,0,0,200919,0,0,0,0,0,0,0,0,0,0,0,0,0,0,0,0,0,0,0,200919,0,0,200919,0,1.13,KRIS-TECH WIRE CO. INC.,114237076
1996,14048LTCHSWILLO,EMPIRE SPECIALTY STEEL INC.,90 WILLOWBROOK AVE.,DUNKIRK,CHAUTAUQUA,NY,140480152,42.469025,-79.339067,3315,3312,3398,,,,331111,,,,,,1396105164735,HYDROGEN FLUORIDE,007664393,YES,NON-PBT,NO,0,NO,R,Pounds,266,191,0,0,0,0,0,0,0,0,0,0,457,0,0,0,0,0,0,0,0,0,5,0,0,0,0,0,0,0,0,0,0,5,0,0,0,0,0,0,0,0,0,0,0,0,0,0,0,0,462,467,0,0,0,0,0,0,114889,0,155890,0,271246,0,.88,EMPIRE SPECIALTY STEEL INC,030215529
1996,13827HDCCRBODLE,HADCO (SANMINA) CORP - OWEGO DIV,1200 TAYLOR RD,OWEGO,TIOGA,NY,13827,42.103722,-76.226861,3672,,,,,,334412,,,,,,1396105269435,AMMONIA,007664417,NO,NON-PBT,NO,0,NO,R,Pounds,1500,59000,4500,0,0,0,0,0,0,0,0,0,65000,0,2500,2500,0,0,0,0,0,0,0,0,0,0,0,0,0,0,0,0,0,0,0,0,47000,0,0,47000,0,0,0,22,0,0,1505,5,0,1532,65000,59000,0,0,0,0,0,0,0,56000,0,4000,119000,0,1.5,SANMINA-SCI CORP,798778395
1996,14210BFFLC100LE,BUFFALO COLOR CORP,100 LEE ST,BUFFALO,ERIE,NY,14210,42.865833,-78.843056,2865,,,,,,325192,,,,,,1396105287712,METHANOL,000067561,YES,NON-PBT,NO,0,NO,R,Pounds,250,14200,5,0,0,0,0,0,0,0,0,0,14455,0,93000,93000,0,0,0,0,0,0,0,0,0,0,0,0,0,0,0,0,0,0,0,0,0,0,0,0,0,0,0,0,5,0,0,0,0,5,14455,14200,0,0,0,0,0,0,4960000,0,0,92900,5067100,0,.67,LANESBOROUGH CORP,827449604
1996,10965LDRLLNORTH,WYETH PHARMACEUTICALS,401 N MIDDLETOWN RD,PEARL RIVER,ROCKLAND,NY,10965,41.075667,-74.020111,2833,2834,2836,,,,325411,,,,,,1396105436531,METHANOL,000067561,YES,NON-PBT,NO,0,NO,R,Pounds,750,11000,0,0,0,0,0,0,0,0,0,0,11750,0,30000,30000,0,0,0,0,0,0,0,0,0,0,0,0,0,0,0,0,0,0,0,0,0,0,0,0,639000,0,639000,0,0,0,0,0,0,0,11750,11000,0,0,0,0,0,639000,1000000,0,0,30000,1680000,0,.87,PFIZER INC,113480771
1996,10550SPRYL716SO,SPRAYLAT CORP,716 S COLUMBUS AVE,MOUNT VERNON,WESTCHESTER,NY,105504717,40.89529,-73.82335,2851,,,,,,325510,,,,,,1396105422695,METHYL ETHYL KETONE,000078933,NO,NON-PBT,NO,0,NO,R,Pounds,250,13227,0,0,0,0,0,0,0,0,0,0,13477,0,0,0,0,0,0,0,0,0,0,0,0,0,0,0,0,0,0,0,0,0,0,0,0,0,0,0,0,54797,54797,0,0,0,0,0,0,0,13477,13531,0,0,0,0,0,54797,0,0,0,0,68328,0,.95,SPRAYLAT CORP,NA
1996,13901TRPLC4NOWL,TRIPLE CITIES METAL FINISHING CORP.,4 NOWLAND RD.,BINGHAMTON,BROOME,NY,13901,42.148077,-75.887873,3471,,,,,,332813,,,,,,1396105140937,"HYDROCHLORIC ACID (1995 AND AFTER ""ACID AEROSOLS"" ONLY)",007647010,YES,NON-PBT,NO,0,NO,R,Pounds,250,250,0,0,0,0,0,0,0,0,0,0,500,0,0,0,0,0,0,0,0,0,0,0,0,0,0,0,0,0,0,0,0,0,0,0,0,0,0,0,0,0,0,0,0,0,0,0,0,0,500,182,0,0,0,0,0,0,0,0,0,0,182,0,1.05,NA,NA
1996,12158GNRLLNORYL,SABIC INNOVATIVE PLASTICS US LLC,ONE NORYL AVE,SELKIRK,ALBANY,NY,12158,42.575472,-73.857111,2821,2869,,,,,325211,,,,,,1396105293409,TOLUENE,000108883,YES,NON-PBT,NO,0,NO,R,Pounds,168200,75800,10,0,0,0,0,0,0,0,0,0,244010,0,0,0,0,0,0,0,0,0,370,0,0,0,0,0,0,0,0,0,0,370,0,0,0,0,0,0,32100,0,32100,0,54820,0,140,0,0,54960,244380,244400,0,0,0,0,870000,32100,0,0,39000,55000,1240500,0,1.14,SABIC INNOVATIVE PLASTICS US LLC,799533617
1996,10451SSNDS385GE,S & S IND. INC.,385 GERARD AVE.,BRONX,BRONX,NY,104515407,40.817,-73.93001,3496,,,,,,332618,,,,,,1396105292128,TETRACHLOROETHYLENE,000127184,YES,NON-PBT,NO,0,YES,R,Pounds,19400,0,0,0,0,0,0,0,0,0,0,0,19400,0,0,0,0,0,0,0,0,0,0,0,0,0,0,0,0,0,0,0,0,0,7200,0,0,0,0,7200,0,0,0,0,0,0,0,0,0,0,19400,19400,0,0,0,0,0,0,0,7200,0,0,26600,0,1.12,NA,NA
1996,11101NCTCR10014,ANACOTE CORP.,10-01 45TH AVE.,LONG ISLAND CITY,QUEENS,NY,11101,40.748255,-73.952206,3471,,,,,,332813,,,,,,1396105330308,PHOSPHORIC ACID,007664382,NO,NON-PBT,NO,0,NO,R,Pounds,0,0,0,0,0,0,0,0,0,0,0,0,0,0,5,5,0,0,0,0,0,0,0,0,0,0,0,0,0,0,0,0,0,0,0,0,0,0,0,0,0,0,0,0,0,0,0,0,0,0,0,0,0,0,0,0,0,0,0,0,31000,0,31000,0,1,NA,NA
1996,12068KYMRKRTE33,KEYMARK CORP,1188 CAYADUTTA ST RT 334,FONDA,MONTGOMERY,NY,12068,42.955611,-74.38675,3354,,,,,,331316,,,,,,1396105368296,TOLUENE,000108883,YES,NON-PBT,NO,0,NO,R,Pounds,0,50000,0,0,0,0,0,0,0,0,0,0,50000,0,0,0,0,0,0,0,0,0,0,0,0,0,0,0,0,0,0,0,0,0,0,0,0,0,0,0,0,1100,1100,0,0,0,0,0,0,0,50000,50000,0,0,0,0,0,1100,0,0,2200,0,53300,0,1.11,KEYMARK CORP,NA
1996,10977SPLYCROUTE,U.S. POLYCHEMICAL,584 CHESTNUT RIDGE RD,CHESTNUT RIDGE,ROCKLAND,NY,10977,41.095307,-74.048254,2841,,,,,,325611,,,,,,1396101001737,TETRACHLOROETHYLENE,000127184,YES,NON-PBT,NO,0,YES,A,Pounds,0,0,0,0,0,0,0,0,0,0,0,0,0,0,0,0,0,0,0,0,0,0,0,0,0,0,0,0,0,0,0,0,0,0,0,0,0,0,0,0,0,0,0,0,0,0,0,0,0,0,0,0,0,0,0,0,0,0,0,0,0,0,0,0,,NA,NA
1996,13367KRFTNUTICA,KRAFT FOODS GLOBAL INC - LOW VILLE,7388 UTICA BLVD,LOWVILLE,LEWIS,NY,13367,43.777727,-75.483272,2022,,,,,,311513,,,,,,1396105019638,NITRATE COMPOUNDS,N511,NO,NON-PBT,NO,0,NO,R,Pounds,0,0,0,0,0,0,0,0,0,0,0,0,0,0,30798,30798,0,0,0,0,0,0,0,0,0,0,0,0,0,0,0,0,0,0,0,0,0,0,0,0,0,0,0,0,0,0,0,0,0,0,0,0,0,0,0,0,0,0,0,0,0,30182,30182,0,1.1,KRAFT FOODS INC,877147228
1996,14225CPRND3101B,CAMERON COMPRESSION SYSTEMS,3101 BROADWAY,BUFFALO,ERIE,NY,14225,42.901556,-78.760611,3563,,,,,,333912,,,,,,1396105039667,NICKEL COMPOUNDS,N495,YES,NON-PBT,YES,1,NO,R,Pounds,443,0,0,0,0,0,0,0,0,0,0,0,443,0,0,0,0,0,0,0,0,0,0,0,0,0,0,0,0,0,0,0,0,0,0,1330,0,0,0,1330,0,0,0,0,0,0,0,0,0,0,443,443,0,0,0,0,0,0,0,1330,0,0,1773,0,1.21,CAMERON INTERNATIONAL CORP,879041309
1996,11590GNRLN172SP,VISHAY GENERAL SEMICONDUCTOR LLC,172 SPRUCE ST,WESTBURY,NASSAU,NY,115903220,40.755932,-73.582844,3674,,,,,,334413,,,,,,1396105102178,"HYDROCHLORIC ACID (1995 AND AFTER ""ACID AEROSOLS"" ONLY)",007647010,YES,NON-PBT,NO,0,NO,R,Pounds,0,1500,0,0,0,0,0,0,0,0,0,0,1500,0,0,0,0,0,0,0,0,0,0,0,0,0,0,0,0,0,0,0,0,0,0,0,0,0,0,0,0,0,0,0,0,0,20400,0,0,20400,1500,1500,0,0,0,0,0,0,0,0,0,20400,21900,0,.98,VISHAY INTERTECHNOLOGY,002327484
1996,12866BLLPC1ADAM,BALL METAL BEVERAGE CONTAINER CORP,11 ADAMS RD,SARATOGA SPRINGS,SARATOGA,NY,128669036,43.060515,-73.823594,3411,,,,,,332431,,,,,,1396105092439,MANGANESE,007439965,YES,NON-PBT,YES,1,NO,R,Pounds,0,0,0,0,0,0,0,0,0,0,0,0,0,66,0,66,0,0,0,0,0,0,1500,0,0,0,0,0,0,0,0,0,0,1500,0,0,162700,0,14000,176700,0,0,0,0,0,0,0,0,0,0,1566,1500,0,0,0,0,0,0,0,180000,0,66,181566,0,1.02,BALL CORP,006419147
1996,14727MPRCH4520H,EMPIRE CHEESE,4520 HASKELL RD,CUBA,ALLEGANY,NY,14727,42.200167,-78.279222,2022,,,,,,311513,,,,,,1396105211383,NITRIC ACID,007697372,NO,NON-PBT,NO,0,NO,R,Pounds,0,0,0,0,0,0,0,0,0,0,0,0,0,0,0,0,0,0,0,0,0,0,0,0,0,0,0,0,0,0,0,0,0,0,0,0,0,0,0,0,0,0,0,0,0,0,0,0,0,0,0,0,0,0,0,0,0,0,0,0,69731,0,69731,0,.86,GREAT LAKES CHEESE CO INC,018219808
1996,14225DRRCK590DU,DERRICK CORP,590 DUKE RD,CHEEKTOWAGA,ERIE,NY,14225,42.903985,-78.759215,3533,,,,,,333132,,,,,,1396105265781,MANGANESE,007439965,YES,NON-PBT,YES,1,NO,R,Pounds,250,0,0,0,0,0,0,0,0,0,0,0,250,0,0,0,0,0,0,0,0,0,0,0,0,0,0,0,0,0,0,0,0,0,0,4548,0,0,4548,9096,0,0,0,0,0,0,0,0,0,0,250,263,0,0,0,0,0,0,0,9096,0,0,9359,0,1.44,DERRICK CORP,002110864
1996,14450JSCSN820TU,JASCO HEAT TREATING INC.,75 MACEDON CENTER RD,FAIRPORT,MONROE,NY,144500188,43.103966,-77.432116,3398,,,,,,332811,,,,,,1396105376178,SODIUM NITRITE,007632000,NO,NON-PBT,YES,2,NO,R,Pounds,0,0,0,0,0,0,0,0,0,0,0,0,0,0,1200,1200,94556,0,0,0,0,0,0,0,0,0,0,0,0,0,0,0,0,94556,0,0,0,0,0,0,0,0,0,0,0,0,0,0,0,0,94556,94556,0,0,0,0,0,0,0,0,0,94556,189112,0,1.42,NA,NA
1996,12543STRNLHENRY,EASTERN ALLOYS INC,HENRY HENNING DR,MAYBROOK,ORANGE,NY,12543,41.509722,-74.202056,3341,,,,,,331491,,,,,,1396105398465,ZINC COMPOUNDS,N982,NO,NON-PBT,YES,1,NO,R,Pounds,250,250,250,0,0,0,0,0,0,0,0,0,750,0,0,0,0,0,0,0,0,0,0,0,0,0,0,0,0,0,0,0,0,0,0,263204,0,0,0,263204,0,0,0,0,0,0,0,0,0,0,750,245,0,0,0,0,0,0,0,263204,0,0,263449,0,.96,EASTERN ALLOYS INC,NA
1996,13045BCKBMKELLO,BUCKBEE-MEARS CO,30 KELLOGG RD,CORTLAND,CORTLAND,NY,130450189,42.6007,-76.171,3479,,,,,,332812,,,,,,1396105438737,NICKEL COMPOUNDS,N495,YES,NON-PBT,YES,1,NO,R,Pounds,1,0,0,0,0,0,0,0,0,0,0,0,1,73,0,73,0,101068,0,0,0,0,30,0,0,0,0,0,0,0,12346,1,0,113445,0,0,0,0,0,0,0,0,0,0,0,0,0,0,0,0,113519,100000,0,0,0,0,0,0,0,0,0,12000,112000,0,1.45,IED (USA) LLC,NA
1996,14701MRCBR402CH,SKF AEROENGINE JAMESTOWN,402 CHANDLER ST,JAMESTOWN,CHAUTAUQUA,NY,147013802,42.098028,-79.226889,3562,,,,,,332991,,,,,,1396100447135,CHROMIUM,007440473,YES,NON-PBT,YES,1,YES,R,Pounds,0,0,0,0,0,0,0,0,0,0,0,0,0,5,0,5,0,0,0,0,0,0,250,0,0,0,0,0,0,0,0,0,0,250,0,0,0,0,27450,27450,0,0,0,0,0,0,0,0,0,0,255,0,0,0,0,0,0,0,0,27450,0,377,27827,0,1.07,SKF USA INC,002297661
1996,12901CWLLCUNDER,IMPERIAL WALLCOVERINGS INC,80 UNDERWOOD AVE,PLATTSBURGH,CLINTON,NY,12901,44.681618,-73.467176,2679,,,,,,322200,,,,,,1396105005793,FORMIC ACID,000064186,NO,NON-PBT,NO,0,NO,R,Pounds,250,0,0,0,0,0,0,0,0,0,0,0,250,0,0,0,0,0,0,0,0,0,0,0,0,0,0,0,0,0,0,0,0,0,0,0,0,0,0,0,0,0,0,0,0,0,0,0,0,0,250,300,0,0,0,0,0,0,0,0,33300,0,33600,0,.81,COLLINS & AIKMAN CORP,198492514
1996,13221BRDRFTHOMP,OBERDORFER LLC,6259 THOMPSON RD,SYRACUSE,ONONDAGA,NY,132061405,43.074167,-76.09075,3365,,,,,,331524,,,,,,1396105039820,ALUMINUM (FUME OR DUST),007429905,NO,NON-PBT,YES,4,NO,R,Pounds,0,250,0,0,0,0,0,0,0,0,0,0,250,0,0,0,0,0,0,0,0,0,38000,0,0,0,0,0,0,0,0,0,0,38000,0,0,0,0,0,0,0,0,0,0,0,0,0,0,0,0,38250,38000,0,0,0,0,0,0,0,0,0,0,38000,0,1.37,NA,NA
1996,14305SKWLL3801H,GLOBE METALLURGICAL INC,3807 HIGHLAND AVE,NIAGARA FALLS,NIAGARA,NY,14305,43.12195,-79.044518,INVA,,,,,,331419,,,,,,1396105118309,ALUMINUM (FUME OR DUST),007429905,NO,NON-PBT,YES,4,NO,R,Pounds,56,113,0,0,0,0,0,0,0,0,0,0,169,0,0,0,0,0,0,0,0,0,0,0,0,0,0,0,0,0,0,0,0,0,0,0,0,0,0,0,0,0,0,0,0,0,0,0,0,0,169,170,0,0,0,0,0,0,0,0,0,0,170,0,1,GLOBE SPECIALTY METALS INC,782847391
1996,11207BLMNT330BE,BELMONT METALS INC,330 BELMONT AVE,BROOKLYN,KINGS,NY,11207,40.670312,-73.897674,3339,,,,,,331419,,,,,,1396105223667,MANGANESE,007439965,YES,NON-PBT,YES,1,NO,R,Pounds,5,0,0,0,0,0,0,0,0,0,0,0,5,0,0,0,0,0,0,0,0,0,0,0,0,0,0,0,0,0,0,0,0,0,0,0,0,0,0,0,0,0,0,0,0,0,0,0,0,0,5,2,0,0,0,0,0,0,0,0,0,0,2,0,1.04,NA,NA
1996,11735STRLC170CE,ASTRO ELECTROPLATING INC,170 CENTRAL AVE,FARMINGDALE,SUFFOLK,NY,11735,40.743003,-73.316283,3471,,,,,,332813,,,,,,1396105021859,"SULFURIC ACID (1994 AND AFTER ""ACID AEROSOLS"" ONLY)",007664939,NO,NON-PBT,NO,0,NO,R,Pounds,0,0,0,0,0,0,0,0,0,0,0,0,0,0,0,0,0,0,0,0,0,0,0,0,0,0,0,0,0,0,0,0,0,0,0,0,0,0,0,0,0,0,0,0,0,0,0,0,0,0,0,0,0,0,0,0,0,0,0,0,40000,0,40000,0,1.22,NA,NA
1996,11520CLMBC159HA,ITW TACC FREEPORT,159 HANSE AVE,FREEPORT,NASSAU,NY,11520,40.646535,-73.572188,2891,,,,,,325520,,,,,,1396105086312,DICHLOROMETHANE,000075092,YES,NON-PBT,NO,0,YES,R,Pounds,818,10679,0,0,0,0,0,0,0,0,0,0,11497,0,0,0,0,0,0,0,0,0,0,0,0,0,0,0,0,0,0,0,0,0,0,0,0,0,0,0,0,0,0,0,0,4397,0,0,0,4397,11497,11497,0,0,0,0,0,4397,0,0,0,0,15894,0,2.17,ILLINOIS TOOL WORKS INC,361258310
1996,11520CLMBC159HA,ITW TACC FREEPORT,159 HANSE AVE,FREEPORT,NASSAU,NY,11520,40.646535,-73.572188,2891,,,,,,325520,,,,,,1396105086363,"1,1,1-TRICHLOROETHANE",000071556,YES,NON-PBT,NO,0,NO,R,Pounds,250,1408,0,0,0,0,0,0,0,0,0,0,1658,0,0,0,0,0,0,0,0,0,0,0,0,0,0,0,0,0,0,0,0,0,0,0,0,0,0,0,0,0,0,0,0,7201,0,0,0,7201,1658,1602,0,0,0,0,0,7201,0,0,0,0,8803,0,.43,ILLINOIS TOOL WORKS INC,361258310
1996,12078FTGMF11711,FTG MANUFACTURING INC (DBA KORKAY SALES),117-119 BROAD ST,GLOVERSVILLE,FULTON,NY,12078,43.049316,-74.351873,2842,,,,,,325612,,,,,,1396105104893,CERTAIN GLYCOL ETHERS,N230,YES,NON-PBT,NO,0,NO,R,Pounds,5,0,0,0,0,0,0,0,0,0,0,0,5,0,250,250,0,0,0,0,0,0,0,0,0,0,0,0,0,0,0,0,0,0,0,0,0,0,0,0,0,0,0,0,0,0,0,0,0,0,5,1,0,0,0,0,0,0,0,0,0,30,31,0,.92,NA,NA
1996,13045PLLTR3643W,PALL CORP PALL TRINITY MICRO DIV,3643 NYS RT 281,CORTLANDVILLE,CORTLAND,NY,13045,42.583209,-76.214232,3569,,,,,,332999,,,,,,1396105147159,TERT-BUTYL ALCOHOL,000075650,NO,NON-PBT,NO,0,NO,R,Pounds,0,11663,0,0,0,0,0,0,0,0,0,0,11663,0,1720,1720,0,0,0,0,0,0,0,0,0,0,0,0,0,0,0,0,0,0,0,0,0,0,0,0,1645,0,1645,0,0,0,0,0,0,0,11663,11663,0,0,0,0,0,1645,0,0,0,1720,15028,0,4.6,PALL CORP,NA
1996,14020SCHRM31SWA,U S CHROME CORP OF NE W YORK,31 SWAN ST,BATAVIA,GENESEE,NY,14020,42.9942,-78.1769,3471,,,,,,332813,,,,,,1396105165423,CHROMIUM,007440473,YES,NON-PBT,YES,1,YES,R,Pounds,0,5,0,0,0,0,0,0,0,0,0,0,5,5,0,5,0,0,0,0,0,0,0,0,0,0,0,0,0,0,0,0,0,847,0,1418,0,0,0,1418,0,0,0,847,0,0,0,0,0,0,857,793,0,0,0,0,0,0,0,1418,0,793,3004,54,3.46,US CHROME CORP,037510377
1996,12866QDGRP56DUP,QUAD/GRAPHICS INC,56 DUPLAINVILLE RD,SARATOGA SPRINGS,SARATOGA,NY,12866,43.065001,-73.828801,2752,,,,,,323110,,,,,,1396105328557,METHYL ETHYL KETONE,000078933,NO,NON-PBT,NO,0,NO,R,Pounds,18000,0,0,0,0,0,0,0,0,0,0,0,18000,0,0,0,0,0,0,0,0,0,0,0,0,0,0,0,0,0,0,0,0,0,0,0,0,0,0,0,0,5500,5500,0,0,0,0,0,0,0,18000,18000,0,0,0,0,0,6000,0,0,0,0,24000,0,0,QUAD/GRAPHICS INC,055302756
1996,11804HTMC0160SW,HITEMCO,160 SWEET HOLLOW RD,OLD BETHPAGE BRANCH,NASSAU,NY,11804,40.76176,-73.44497,3470,,,,,,332812,,,,,,1396105425235,COPPER,007440508,NO,NON-PBT,YES,1,NO,R,Pounds,0,250,0,0,0,0,0,0,0,0,0,0,250,0,0,0,0,0,0,0,0,0,0,0,0,0,0,0,0,0,0,0,0,0,0,0,43194,0,0,43194,0,0,0,0,0,0,0,0,0,0,250,0,0,0,0,0,0,0,0,43194,0,0,43194,0,1.96,BARSON COMPOSITIES CORP,NA
1996,14150NWYRK3937R,IVACO STEEL PROCESSING (NEW YORK) L.L.C.,3937 RIVER RD.,TONAWANDA,ERIE,NY,14150,42.981583,-78.9345,3315,,,,,,331222,,,,,,1396105435186,PROPYLENE,000115071,NO,NON-PBT,NO,0,NO,R,Pounds,0,66,0,0,0,0,0,0,0,0,0,0,66,0,0,0,0,0,0,0,0,0,0,0,0,0,0,0,0,0,0,0,0,0,0,0,0,0,0,0,0,0,0,0,0,0,0,0,0,0,66,66,0,0,0,0,0,0,0,0,0,0,66,0,1.03,IVACO INC,205650617
1996,13440VRFLX512WE,VARFLEX CORP,512 W CT ST,ROME,ONEIDA,NY,13440,43.217776,-75.465064,3699,,,,,,335999,,,,,,1396101026060,BUTYL ACRYLATE,000141322,NO,NON-PBT,NO,0,NO,A,Pounds,0,0,0,0,0,0,0,0,0,0,0,0,0,0,0,0,0,0,0,0,0,0,0,0,0,0,0,0,0,0,0,0,0,0,0,0,0,0,0,0,0,0,0,0,0,0,0,0,0,0,0,0,0,0,0,0,0,0,0,0,0,0,0,0,,NA,NA
1996,13815SHFFLWOODS,KERRY BIO-SCIENCE,158 STATE HWY 320,NORWICH,CHENANGO,NY,13815,42.553167,-75.52225,2023,,,,,,311999,,,,,,1396101016160,"SULFURIC ACID (1994 AND AFTER ""ACID AEROSOLS"" ONLY)",007664939,NO,NON-PBT,NO,0,NO,A,Pounds,0,0,0,0,0,0,0,0,0,0,0,0,0,0,0,0,0,0,0,0,0,0,0,0,0,0,0,0,0,0,0,0,0,0,0,0,0,0,0,0,0,0,0,0,0,0,0,0,0,0,0,0,0,0,0,0,0,0,0,0,0,0,0,0,,KERRY GROUP,107517591
1996,11222CRTRS65ECK,CARTER SPRAY FINISHING CORP,65 ECKFORD ST,BROOKLYN,KINGS,NY,11222,40.722014,-73.948068,3470,,,,,,332812,,,,,,1396105002125,TRICHLOROETHYLENE,000079016,YES,NON-PBT,NO,0,YES,R,Pounds,16510,24766,0,0,0,0,0,0,0,0,0,0,41276,0,0,0,0,0,0,0,0,0,0,0,0,0,0,0,0,0,0,0,0,0,0,0,0,0,0,0,0,0,0,0,0,1924,0,0,0,1924,41276,41276,0,0,0,0,0,0,4000,0,0,0,45276,0,1.25,CARTER SPRAY FINISHING CORP.,001547397
1996,13753DLTWNROUTE,FRIESLAND CAMPINA,40196 STATE HWY 10,DELHI,DELAWARE,NY,13753,42.243464,-74.963904,2023,,,,,,311514,,,,,,1396105088987,TOLUENE,000108883,YES,NON-PBT,NO,0,NO,R,Pounds,14462,36354,0,0,0,0,0,0,0,0,0,0,50816,0,0,0,0,0,0,0,0,0,0,0,0,0,0,0,0,0,0,0,0,0,0,0,0,0,0,0,0,0,0,0,0,0,0,0,0,0,50816,50816,0,0,0,0,0,0,0,0,0,0,50816,0,.97,NA,NA
1996,13045PLLTR3643W,PALL CORP PALL TRINITY MICRO DIV,3643 NYS RT 281,CORTLANDVILLE,CORTLAND,NY,13045,42.583209,-76.214232,3569,,,,,,333999,,,,,,1396105147185,NITRIC ACID,007697372,NO,NON-PBT,NO,0,NO,R,Pounds,0,2038,0,0,0,0,0,0,0,0,0,0,2038,0,0,0,0,0,0,0,0,0,0,0,0,0,0,0,0,0,0,0,0,0,0,0,0,0,0,0,0,0,0,0,0,0,880,0,0,880,2038,2038,0,0,0,0,0,0,0,0,12700,880,15618,0,3.9,PALL CORP,NA
1996,10457CLYPR1700B,PERRIGO NY,1700 BATHGATE AVE,BRONX,BRONX,NY,10457,40.841926,-73.899795,2834,,,,,,325412,,,,,,1396105211686,ZINC COMPOUNDS,N982,NO,NON-PBT,YES,1,NO,R,Pounds,4,0,0,0,0,0,0,0,0,0,0,0,4,8,0,8,0,0,0,0,0,0,0,0,0,0,0,0,0,0,0,0,0,0,0,0,0,0,0,0,0,0,0,0,399,0,0,0,0,399,12,411,0,0,0,0,0,0,0,0,0,0,411,0,1,PERRIGO INC,006013346
1996,10974DCRTVROUTE,DECORATIVE INDUSTRIES,174 RT 17 N PO BOX 128,SLOATSBURG,ROCKLAND,NY,109740128,41.14767,-74.19154,2851,,,,,,325510,,,,,,1396105223919,TOLUENE,000108883,YES,NON-PBT,NO,0,NO,R,Pounds,0,100,0,0,0,0,0,0,0,0,0,0,100,0,0,0,0,0,0,0,0,0,0,0,0,0,0,0,0,0,0,0,0,0,0,0,0,0,0,0,0,0,0,0,0,0,0,0,0,0,100,0,0,0,0,0,0,0,0,0,0,0,0,0,,KIRKER ENTERPRISES INC,NA
1996,13142SCHLLCENTE,FELIX SCHOELLER TECHNICAL PAPERS INC,179 COUNTY RT 2A,PULASKI,OSWEGO,NY,13142,43.558111,-76.1045,2621,,,,,,322121,,,,,,1396105249472,N-BUTYL ALCOHOL,000071363,NO,NON-PBT,NO,0,NO,R,Pounds,54780,44820,1500,0,0,0,0,0,0,0,0,0,101100,0,0,0,0,0,0,0,0,0,0,0,0,0,0,0,0,0,0,0,0,0,0,0,0,0,0,0,0,0,0,0,0,0,0,0,0,0,101100,101100,0,0,0,0,0,0,0,0,31000,0,132100,0,1.05,NA,NA
1996,14810PHLPS7265R,PHILIPS LIGHTING CO,7265 RT 54,BATH,STEUBEN,NY,14810,42.353317,-77.303689,3641,,,,,,335110,,,,,,1396105318822,NITRIC ACID,007697372,NO,NON-PBT,NO,0,NO,R,Pounds,250,250,0,0,0,0,0,0,0,0,0,0,500,0,0,0,0,0,0,0,0,0,0,0,0,0,0,0,0,0,0,0,0,0,0,0,0,0,0,0,0,0,0,0,0,0,34465,0,0,34465,500,500,0,0,0,0,0,0,0,0,0,34465,34965,0,.98,PHILIPS NA,196269088
1996,13322HMGNS2395M,PRATT & WHITNEY - HMI METAL POWDERS,2395 MAIN ST,CLAYVILLE,ONEIDA,NY,13322,42.97795,-75.24902,3399,,,,,,331492,,,,,,1396105441101,ALUMINUM (FUME OR DUST),007429905,NO,NON-PBT,YES,4,NO,R,Pounds,5,250,0,0,0,0,0,0,0,0,0,0,255,0,0,0,0,0,0,0,0,0,250,0,0,0,0,0,0,0,0,0,0,250,0,0,0,0,4900,4900,0,0,0,0,0,0,0,0,0,0,505,31,0,0,0,0,0,0,0,4800,0,0,4831,0,1.1,UNITED TECHNOLOGIES CORP,001344142
1996,14652STMNK1669L,EASTMAN KODAK CO EASTMAN BUSINESS PARK,1669 LAKE AVE,ROCHESTER,MONROE,NY,146523615,43.202778,-77.655222,3861,,,,,,325992,,,,,,1396100429531,DIMETHYLAMINE,000124403,NO,NON-PBT,NO,0,NO,R,Pounds,0,0,0,0,0,0,0,0,0,0,0,0,0,0,0,0,0,0,0,0,0,0,0,0,0,0,0,0,0,0,10,0,0,10,0,0,0,0,0,0,0,0,0,0,0,0,0,0,0,0,10,10,0,0,0,0,0,0,0,0,0,0,10,0,1.1,EASTMAN KODAK CO,002206183
1996,14652STMNK1669L,EASTMAN KODAK CO EASTMAN BUSINESS PARK,1669 LAKE AVE,ROCHESTER,MONROE,NY,146523615,43.202778,-77.655222,3861,,,,,,325992,,,,,,1396100429620,2-METHOXYETHANOL,000109864,NO,NON-PBT,NO,0,NO,R,Pounds,18,8300,0,0,0,0,0,0,0,0,0,0,8318,0,0,0,0,0,0,0,0,0,0,0,0,0,0,0,0,0,1,0,0,1,0,0,0,0,160000,160000,0,0,0,0,0,0,0,0,0,0,8319,8400,0,0,0,0,0,0,0,160000,14000,0,182400,0,.95,EASTMAN KODAK CO,002206183
1996,13642CVSST8CHUR,CIVES STEEL CO NORTHERN DIV,40 FACTORY ST,GOUVERNEUR,ST LAWRENCE,NY,13642,44.338518,-75.453354,3441,,,,,,332312,,,,,,1396105046179,XYLENE (MIXED ISOMERS),001330207,YES,NON-PBT,NO,0,NO,R,Pounds,6500,0,0,0,0,0,0,0,0,0,0,0,6500,0,0,0,0,0,0,0,0,0,0,0,0,0,0,0,0,0,0,0,0,0,0,0,0,0,0,0,3900,0,3900,0,0,0,0,0,0,0,6500,6500,0,0,0,0,0,3900,0,0,0,0,10400,0,.85,CIVES CORP,046545398
1996,13902LNDRC100EL,VMR ELECTRONICS LLC,100 ELDREDGE ST,BINGHAMTON,BROOME,NY,13901,42.105378,-75.902795,2844,,,,,,325620,,,,,,1396105243430,DIETHANOLAMINE,000111422,YES,NON-PBT,NO,0,NO,R,Pounds,0,0,0,0,0,0,0,0,0,0,0,0,0,0,250,250,0,0,0,0,0,0,0,0,0,0,0,0,0,0,0,0,0,0,0,0,0,0,0,0,0,0,0,0,0,0,0,0,0,0,0,0,0,0,0,0,0,0,0,0,0,300,300,0,1.25,NA,NA
1996,12188DGSSCSCHOO,EVONIK DEGUSSA CORP,7 SCHOOLHOUSE LN,WATERFORD,SARATOGA,NY,12188,42.819334,-73.666963,2816,,,,,,325188,,,,,,1396105406944,"HYDROCHLORIC ACID (1995 AND AFTER ""ACID AEROSOLS"" ONLY)",007647010,YES,NON-PBT,NO,0,NO,R,Pounds,250,1500,0,0,0,0,0,0,0,0,0,0,1750,0,0,0,0,0,0,0,0,0,0,0,0,0,0,0,0,0,0,0,0,0,0,0,0,0,0,0,0,0,0,0,0,0,0,0,0,0,1750,1500,0,0,0,0,0,0,0,0,37000,0,38500,0,1.01,EVONIK DEGUSSA CORP,068209295
1996,14692GLSNW1000U,GLEASON WORKS,1000 UNIVERSITY AVE,ROCHESTER,MONROE,NY,146071239,43.154308,-77.575614,3541,,,,,,333512,,,,,,1396101018000,METHANOL,000067561,YES,NON-PBT,NO,0,NO,A,Pounds,0,0,0,0,0,0,0,0,0,0,0,0,0,0,0,0,0,0,0,0,0,0,0,0,0,0,0,0,0,0,0,0,0,0,0,0,0,0,0,0,0,0,0,0,0,0,0,0,0,0,0,0,0,0,0,0,0,0,0,0,0,0,0,0,,GLEASON CORP,118789825
1996,14546SBNMT1647W,SABIN METAL CORP,1647 WHEATLAND CENTER RD,SCOTTSVILLE,MONROE,NY,145460905,43.003542,-77.821413,3341,,,,,,331492,,,,,,1396101018063,NICKEL,007440020,YES,NON-PBT,YES,1,YES,A,Pounds,0,0,0,0,0,0,0,0,0,0,0,0,0,0,0,0,0,0,0,0,0,0,0,0,0,0,0,0,0,0,0,0,0,0,0,0,0,0,0,0,0,0,0,0,0,0,0,0,0,0,0,0,0,0,0,0,0,0,0,0,0,0,0,0,,SABIN METAL CORP,NA
1996,13820CSTMLBROWN,CUSTOM ELECTRONICS INC,87 BROWNE ST,ONEONTA,OTSEGO,NY,13820,42.44911,-75.110245,3675,3676,,,,,334414,,,,,,1396105054225,DICHLOROMETHANE,000075092,YES,NON-PBT,NO,0,YES,R,Pounds,0,8400,0,0,0,0,0,0,0,0,0,0,8400,0,0,0,0,0,0,0,0,0,0,0,0,0,0,0,0,0,0,0,0,0,2500,0,0,0,0,2500,0,0,0,0,0,0,0,0,0,0,8400,8400,0,0,0,0,0,0,0,2500,0,0,10900,0,1.01,NA,NA
1996,12202CRGLLCHURC,CARGILL ANIMAL NUTRITION,200 KEAN ST PORT OF ALBANY,ALBANY,ALBANY,NY,12202,42.63452,-73.75588,2048,,,,,,311119,,,,,,1396101050831,ZINC COMPOUNDS,N982,NO,NON-PBT,YES,1,NO,A,Pounds,0,0,0,0,0,0,0,0,0,0,0,0,0,0,0,0,0,0,0,0,0,0,0,0,0,0,0,0,0,0,0,0,0,0,0,0,0,0,0,0,0,0,0,0,0,0,0,0,0,0,0,0,0,0,0,0,0,0,0,0,0,0,0,0,,CARGILL INC,006249189
1996,14615MC   1999M,IMATION ENTS. CORP.,1999 MT. READ BLVD.,ROCHESTER,MONROE,NY,14615,43.19063,-77.662195,3861,,,,,,334613,,,,,,1396105183115,SILVER COMPOUNDS,N740,NO,NON-PBT,YES,1,NO,R,Pounds,0,0,0,0,0,0,0,0,0,0,0,0,0,250,0,250,0,0,0,0,0,0,0,0,0,0,0,0,0,0,0,0,0,0,0,7976,0,0,258,8234,0,0,0,0,0,0,0,0,0,0,250,0,0,0,0,0,0,0,0,8033,0,11,8044,0,.97,IMATION CORP,933588691
1996,12095RHCRW100NM,R H CROWN CO INC,100 N MARKET ST,JOHNSTOWN,FULTON,NY,12095,43.00801,-74.37282,2841,,,,,,325611,,,,,,1396105123602,ETHYLENE GLYCOL,000107211,YES,NON-PBT,NO,0,NO,R,Pounds,5,0,0,0,0,0,0,0,0,0,0,0,5,0,0,0,0,0,0,0,0,0,0,0,0,0,0,0,0,0,0,0,0,0,0,0,0,0,0,0,0,0,0,0,0,0,0,0,0,0,5,4,0,0,0,0,0,0,0,0,0,0,4,0,.42,NA,NA
1996,14213KYSTN1095N,KEYSTONE CORP.,1095 NIAGARA ST.,BUFFALO,ERIE,NY,14213,42.913168,-78.899686,3471,,,,,,332813,,,,,,1396105312779,TRICHLOROETHYLENE,000079016,YES,NON-PBT,NO,0,YES,R,Pounds,24420,0,0,0,0,0,0,0,0,0,0,0,24420,0,13,13,0,0,0,0,0,0,0,0,0,0,0,0,0,0,0,0,0,0,0,0,0,0,0,0,0,0,0,0,0,0,0,0,0,0,24420,24443,0,0,0,0,0,0,0,0,0,0,24443,0,1.01,NA,NA
1996,13057GNRLS22CEL,GENERAL SUPER PLATING CO INC,5762 CELI DR,EAST SYRACUSE,ONONDAGA,NY,13057,43.050094,-76.069469,3471,,,,,,332813,,,,,,1396105445050,CHROMIUM COMPOUNDS(EXCEPT CHROMITE ORE MINED IN THE TRANSVAAL REGION),N090,YES,NON-PBT,YES,1,NO,R,Pounds,0,0,0,0,0,0,0,0,0,0,0,0,0,49,0,49,0,0,0,0,0,0,0,0,0,0,0,0,0,0,0,0,0,0,0,12824,0,0,0,12824,0,0,0,0,0,0,0,0,0,0,49,49,0,0,0,0,0,0,21091,12824,0,0,33964,0,2.07,NA,NA
1996,11211CHRMM373WY,CHROMIUM PLATING & POLISHING CORP,373 WYTHE AVE,BROOKLYN,KINGS,NY,112115117,40.712411,-73.965984,3471,,,,,,332813,,,,,,1396105409229,NICKEL,007440020,YES,NON-PBT,YES,1,YES,R,Pounds,0,0,0,0,0,0,0,0,0,0,0,0,0,0,0,0,0,0,0,0,0,0,0,0,0,0,0,0,0,0,0,0,0,0,0,0,0,0,8480,8480,0,0,0,0,0,0,0,0,0,0,0,0,0,0,0,0,0,0,0,8480,0,0,8480,0,1.5,NA,NA
1996,10710LCTRN21GRA,ELECTRONIC DEVICES INC,21 GRAY OAKS AVE,YONKERS,WESTCHESTER,NY,10710,40.974657,-73.86794,3674,,,,,,334413,,,,,,1396100447212,PHOSPHORIC ACID,007664382,NO,NON-PBT,NO,0,NO,R,Pounds,0,250,0,0,0,0,0,0,0,0,0,0,250,0,0,0,0,0,0,0,0,0,0,0,0,0,0,0,0,0,0,0,0,0,0,0,0,0,0,0,0,0,0,0,0,0,0,0,0,0,250,250,0,0,0,0,0,0,0,0,23600,0,23850,0,1.14,ELECTRONIC DEVICES INC,NA
1996,14470DZCHM40JAC,DIAZ CHEMICAL CORP,40 JACKSON ST,HOLLEY,ORLEANS,NY,14470,43.22294,-78.02927,2865,,,,,,325100,,,,,,1396105016428,METHANOL,000067561,YES,NON-PBT,NO,0,NO,R,Pounds,750,750,0,0,0,0,0,0,0,0,0,0,1500,0,0,0,0,0,0,0,0,0,0,0,0,0,0,0,0,0,0,0,0,0,0,0,0,0,0,0,0,0,0,0,243247,0,79,0,0,243326,1500,100,0,0,0,0,0,166901,0,0,0,76425,243426,0,,NA,NA
1996,13088STRTHBURRD,STRATHMORE PRODUCTS INC,BURR DR,CLAY,ONONDAGA,NY,13041,43.118623,-76.195092,2851,,,,,,325510,,,,,,1396105061218,N-BUTYL ALCOHOL,000071363,NO,NON-PBT,NO,0,NO,R,Pounds,117,35,0,0,0,0,0,0,0,0,0,0,152,0,0,0,0,0,0,0,0,0,0,0,0,0,0,0,0,0,0,0,0,0,0,0,0,0,0,0,2341,0,2341,0,0,0,0,0,0,0,152,152,0,0,0,0,0,2341,3390,0,0,0,5883,0,.92,NA,NA
1996,13502THNDM1676L,INDIUM CORP OF AMERICA,1676 LINCOLN AVE,UTICA,ONEIDA,NY,13502,43.09314,-75.26004,3499,,,,,,332999,,,,,,1396105129480,TRICHLOROETHYLENE,000079016,YES,NON-PBT,NO,0,YES,R,Pounds,450,19350,0,0,0,0,0,0,0,0,0,0,19800,0,0,0,0,0,0,0,0,0,0,0,0,0,0,0,0,0,0,0,0,0,7260,0,0,0,0,7260,0,0,0,0,0,0,0,0,0,0,19800,19800,0,0,0,0,0,0,0,7260,0,0,27060,0,,INDIUM CORP OF AMERICA,172493504
1996,14608KLNBR600OA,KLEEN BRITE LABORATORIES INC.,600 OAK ST.,ROCHESTER,MONROE,NY,14608,43.164002,-77.630377,2841,,,,,,325611,,,,,,1396105163707,METHANOL,000067561,YES,NON-PBT,NO,0,NO,R,Pounds,4188,6323,0,0,0,0,0,0,0,0,0,0,10511,0,750,750,0,0,0,0,0,0,0,0,0,0,0,0,0,0,0,0,0,0,0,0,0,0,0,0,0,0,0,0,0,0,0,0,0,0,10511,11334,0,0,0,0,0,0,0,0,0,0,11334,0,3.7,NA,NA
1996,11101CSMPL50232,COSMOPOLITON CHEMICAL CO,"50-23, 23RD ST",LONG ISLAND CITY,QUEENS,NY,11101,40.741149,-73.94723,2899,,,,,,325199,,,,,,1396105202004,SODIUM NITRITE,007632000,NO,NON-PBT,YES,2,NO,R,Pounds,0,0,0,0,0,0,0,0,0,0,0,0,0,0,250,250,0,0,0,0,0,0,0,0,0,0,0,0,0,0,0,0,0,0,0,0,0,0,0,0,0,0,0,0,0,0,0,0,0,0,0,0,0,0,0,0,0,0,0,0,0,0,0,0,0,METRO GROUP INC,008921850
1996,13502TCCTL820NO,UTICA CUTLERY CO,820 NOYES ST,UTICA,ONEIDA,NY,13502,43.097235,-75.249566,3421,,,,,,332211,,,,,,1396105437659,CHROMIUM,007440473,YES,NON-PBT,YES,1,YES,R,Pounds,0,5,0,0,0,0,0,0,0,0,0,0,5,5,0,5,0,0,0,0,0,0,750,0,0,0,0,0,0,0,0,0,0,750,0,0,0,0,44590,44590,0,0,0,0,0,0,0,0,0,0,760,681,0,0,0,0,0,0,0,44590,0,0,45271,0,1.06,NA,NA
1996,12302DRNDC701CO,ADIRONDACK BEVERAGES,701 CORPORATIONS PARK,SCOTIA,SCHENECTADY,NY,12302,42.8387,-73.97852,2086,,,,,,312111,,,,,,1396101005623,PHOSPHORIC ACID,007664382,NO,NON-PBT,NO,0,NO,A,Pounds,0,0,0,0,0,0,0,0,0,0,0,0,0,0,0,0,0,0,0,0,0,0,0,0,0,0,0,0,0,0,0,0,0,0,0,0,0,0,0,0,0,0,0,0,0,0,0,0,0,0,0,0,0,0,0,0,0,0,0,0,0,0,0,0,,ADIRONDACK BEVERAGES,037366788
1996,14141PRLSS172EA,PEERLESS-WINSMITH INC,172 EATON ST,SPRINGVILLE,ERIE,NY,14141,42.513703,-78.672014,3566,,,,,,333612,,,,,,1396105141497,AMMONIA,007664417,NO,NON-PBT,NO,0,NO,R,Pounds,250,2745,0,0,0,0,0,0,0,0,0,0,2995,0,0,0,0,0,0,0,0,0,0,0,0,0,0,0,0,0,0,0,0,0,0,0,0,0,0,0,0,0,0,0,0,0,0,0,0,0,2995,2745,0,0,0,0,0,0,0,0,0,0,2745,0,1.07,HBD INDUSTRIES INC,184808053
1996,14701BLCKS1111A,TITANX ENGINE COOLING INC,2258 ALLEN ST,JAMESTOWN,CHAUTAUQUA,NY,14701,42.113056,-79.207472,3714,,,,,,336399,,,,,,1396105141547,COPPER,007440508,NO,NON-PBT,YES,1,NO,R,Pounds,5,250,250,0,0,0,0,0,0,0,0,0,505,0,0,0,0,0,0,0,0,0,1371,0,0,0,0,0,0,0,0,0,0,1371,0,1329,0,0,143849,145178,0,0,0,0,0,0,0,0,0,0,1876,1455,0,0,0,0,0,0,0,145178,0,0,146633,0,.91,NA,NA
1996,10940RVRSMRD2BA,REVERE SMELTING & REFINING CORP,65 BALLARD RD,MIDDLETOWN,ORANGE,NY,10941,41.462343,-74.361761,3341,,,,,,331492,,,,,,1396105237236,ARSENIC COMPOUNDS,N020,YES,NON-PBT,YES,1,NO,R,Pounds,0,8,0,0,0,0,0,0,0,0,0,0,8,1,0,1,0,0,0,0,0,0,2830,0,0,0,0,0,0,0,0,0,0,2830,0,230,0,0,0,230,0,0,0,0,0,0,0,0,0,0,2839,2800,0,0,0,0,0,0,33000,230,0,0,36030,6,1.06,RSR CORP,058678527
1996,12533BM   EASTF,IBM CORP,E FISHKILL FACILITY 2070 RT 52,HOPEWELL JUNCTION,DUTCHESS,NY,125333507,41.54025,-73.824028,3674,,,,,,334413,,,,,,1396105245296,AMMONIA,007664417,NO,NON-PBT,NO,0,NO,R,Pounds,0,3500,51,0,0,0,0,0,0,0,0,0,3551,0,0,0,0,0,0,0,0,0,0,0,0,0,0,0,0,0,0,0,0,0,0,0,0,0,0,0,0,0,0,0,0,0,0,0,0,0,3551,3551,0,0,0,0,0,0,0,0,5200,0,8751,0,.98,IBM CORP,001368083
1996,12158GNRLLNORYL,SABIC INNOVATIVE PLASTICS US LLC,ONE NORYL AVE,SELKIRK,ALBANY,NY,12158,42.575472,-73.857111,2821,2869,,,,,325211,,,,,,1396105293233,ACRYLONITRILE,000107131,YES,NON-PBT,NO,0,YES,R,Pounds,500,95,5,0,0,0,0,0,0,0,0,0,600,0,0,0,0,0,0,0,0,0,10,0,0,0,0,0,0,0,0,0,0,10,0,0,0,0,0,0,0,0,0,0,270,0,0,0,0,270,610,610,0,0,0,0,0,0,0,0,3460,270,4340,0,1.15,SABIC INNOVATIVE PLASTICS US LLC,799533617
1996,14611DVNPR167AM,DAVENPORT MACHINE,167 AMES ST.,ROCHESTER,MONROE,NY,14611,43.153512,-77.643944,3541,,,,,,333512,,,,,,1396105389555,MANGANESE,007439965,YES,NON-PBT,YES,1,NO,R,Pounds,5,0,0,0,0,0,0,0,0,0,0,0,5,0,0,0,0,0,0,0,0,0,0,0,0,0,0,0,0,0,0,0,0,0,0,2300,0,0,0,2300,0,0,0,0,0,0,0,0,0,0,5,5,0,0,0,0,0,0,0,2300,0,0,2305,0,1.07,DOVER INDUSTRIES INC,NA
1996,13466KRFTNCOUNT,KRAFT FOODS GLOBAL INC,BOX 669 COUNTY RD 25,NEW BERLIN,CHENANGO,NY,134119502,42.684611,-75.320417,2022,,,,,,311513,,,,,,1396105038525,PHOSPHORIC ACID,007664382,NO,NON-PBT,NO,0,NO,R,Pounds,0,0,0,0,0,0,0,0,0,0,0,0,0,0,0,0,0,0,0,0,0,0,0,0,0,0,0,0,0,0,0,0,0,0,0,0,0,0,0,0,0,0,0,0,0,0,0,0,0,0,0,0,0,0,0,0,0,0,0,0,31000,0,31000,0,,KRAFT FOODS INC,877147228
1996,14831CRNNGTIOGB,CORNING INC GENERAL MACH SHOP METAL SHOP,TY-MS-O1,CORNING,STEUBEN,NY,14831,42.145683,-77.057358,3499,,,,,,335000,,,,,,1396105016733,HYDROGEN FLUORIDE,007664393,YES,NON-PBT,NO,0,NO,R,Pounds,0,500,0,0,0,0,0,0,0,0,0,0,500,0,0,0,0,0,0,0,0,0,0,0,0,0,0,0,0,0,0,0,0,0,0,0,0,0,0,0,0,0,0,0,0,0,0,0,1000,1000,500,500,0,0,0,0,0,0,0,0,0,1500,2000,0,,CORNING INC,001307735
1996,14437FSTRWRTE36,FOSTER WHEELER ENERGY CORP,9431 FOSTER WHEELER RD,DANSVILLE,LIVINGSTON,NY,14437,42.574722,-77.727611,3443,,,,,,332313,,,,,,1396105137727,ALUMINUM OXIDE (FIBROUS FORMS),001344281,NO,NON-PBT,YES,2,NO,R,Pounds,250,0,0,0,0,0,0,0,0,0,0,0,250,0,0,0,0,0,0,0,0,0,0,0,0,0,0,0,0,0,0,0,0,0,0,117,0,0,0,117,0,0,0,0,0,0,0,0,0,0,250,12,0,0,0,0,0,0,0,0,0,0,12,0,.4,FOSTER WHEELER CORP,001339456
1996,11222JSHLW420MO,JOSH LOWENSTEIN & SONS INC,420 MORGAN AVE,BROOKLYN,KINGS,NY,11222,40.71878,-73.93724,2865,,,,,,325132,,,,,,1396105136004,CHROMIUM COMPOUNDS(EXCEPT CHROMITE ORE MINED IN THE TRANSVAAL REGION),N090,YES,NON-PBT,YES,1,NO,R,Pounds,0,0,0,0,0,0,0,0,0,0,0,0,0,5,0,5,0,0,0,0,0,0,0,0,0,0,0,0,0,0,0,0,0,0,0,0,0,0,0,0,0,0,0,0,0,1,0,0,0,1,5,2,0,0,0,0,0,0,0,0,0,2,4,0,.66,NA,NA
1996,11236NDSTR82040,INDUSTRIAL FINISHING PRODUCTS REMSEN AVE,820-840 REMSEN AVE,BROOKLYN,KINGS,NY,11236,40.64758,-73.91415,2851,,,,,,325510,,,,,,1396105206181,XYLENE (MIXED ISOMERS),001330207,YES,NON-PBT,NO,0,NO,R,Pounds,114,0,0,0,0,0,0,0,0,0,0,0,114,0,0,0,0,0,0,0,0,0,0,0,0,0,0,0,0,0,0,0,0,0,0,0,0,0,0,0,0,0,0,0,0,0,0,0,0,0,114,114,0,0,0,0,0,0,0,0,0,0,114,0,1,INDUSTRIAL FINISHING PRODUCTS,NA
1996,13032DMLDNRASBA,DIEMOLDING CORP,125 RASBACH ST,CANASTOTA,MADISON,NY,13032,43.07276,-75.75222,3089,,,,,,326199,,,,,,1396105266959,PHENOL,000108952,YES,NON-PBT,NO,0,NO,R,Pounds,4188,26,0,0,0,0,0,0,0,0,0,0,4214,0,0,0,0,0,0,0,0,0,23,0,0,0,0,0,0,0,0,0,0,23,0,0,0,0,0,0,0,0,0,0,0,0,0,0,0,0,4237,4237,0,0,0,0,0,0,0,0,0,0,4237,0,1.35,NIAGARA PISTON,249876673
1996,13340NNFRK253EA,UNIONTOOLS INC.,253 E. MAIN ST.,FRANKFORT,HERKIMER,NY,133400124,43.035944,-75.06075,3423,,,,,,332212,,,,,,1396105305181,NICKEL,007440020,YES,NON-PBT,YES,1,YES,R,Pounds,250,5,5,0,0,0,0,0,0,0,0,0,260,5,0,5,0,0,0,0,0,0,250,0,0,0,0,0,0,0,0,0,0,250,0,1522,0,0,0,1522,0,0,0,0,0,0,0,0,0,0,515,161,0,0,0,0,0,0,0,1522,0,0,1683,0,3,ACORN PRODUCTS,NA
1996,14227CRNZR80FRE,AMERICAN NATIONAL RUBBER CO BUFFALO DIV.,80 FRENCH RD.,CHEEKTOWAGA,ERIE,NY,14227,42.867238,-78.751693,3053,3069,,,,,339991,,,,,,1396105357180,ZINC COMPOUNDS,N982,NO,NON-PBT,YES,1,NO,R,Pounds,0,0,0,0,0,0,0,0,0,0,0,0,0,0,0,0,0,0,0,0,0,0,13778,0,0,0,0,0,0,0,0,0,0,13778,0,0,0,0,0,0,0,0,0,0,0,0,0,0,0,0,13778,18915,0,0,0,0,0,0,0,0,0,0,18915,0,.97,AMERICAN NATIONAL RUBBER CO,005008552
1996,11101SCHWR50012,SCHWARTZ CHEMICAL CO. INC.,50-01 SECOND ST.,LONG ISLAND CITY,QUEENS,NY,11101,40.74356,-73.95839,2851,,,,,,325510,,,,,,1396105373233,METHANOL,000067561,YES,NON-PBT,NO,0,NO,R,Pounds,70,0,0,0,0,0,0,0,0,0,0,0,70,0,0,0,0,0,0,0,0,0,0,0,0,0,0,0,0,0,0,0,0,0,0,0,0,0,0,0,0,0,0,0,0,0,0,0,0,0,70,70,0,0,0,0,0,0,0,0,0,0,70,0,.73,NA,NA
1996,10926NPRNCROUTE,RUTHERFORD CHEMICALS LLC NEPERA DIV,41 ARDEN HOUSE RD,HARRIMAN,ORANGE,NY,10926,41.309528,-74.139111,2865,2833,2869,,,,325192,,,,,,1396105403632,PYRIDINE,000110861,NO,NON-PBT,NO,0,NO,R,Pounds,11942,823,0,0,0,0,0,0,0,0,0,0,12765,0,0,0,0,0,0,0,0,0,0,0,0,0,0,0,0,0,0,0,0,0,0,0,0,0,0,0,0,0,0,0,2440,0,0,0,0,2440,12765,12765,0,0,0,0,712502,0,0,0,0,2440,727707,1,1.07,RUTHERFORD CHEMICALS LLC,029260833
1996,13669NVRSL30MAI,SUPREMA SPECIALTIES INC.,30 MAIN ST.,OGDENSBURG,ST LAWRENCE,NY,13669,44.694174,-75.496729,2022,,,,,,311513,,,,,,1396105429714,NITRATE COMPOUNDS,N511,NO,NON-PBT,NO,0,NO,R,Pounds,0,0,0,0,0,0,0,0,0,0,0,0,0,0,25454,25454,0,0,0,0,0,0,0,0,0,0,0,0,0,0,0,0,0,0,0,0,0,0,0,0,0,0,0,0,0,0,0,0,0,0,0,0,0,0,0,0,0,0,0,0,0,25454,25454,0,,SUPREMA SPECIALTIES INC,153506324
1996,11801PRKNL220MI,SULZER METCO (US) INC.,220 MILLER PL,HICKSVILLE,NASSAU,NY,11801,40.785253,-73.515016,3399,,,,,,332117,,,,,,1396105111633,ALUMINUM (FUME OR DUST),007429905,NO,NON-PBT,YES,4,NO,R,Pounds,0,5,0,0,0,0,0,0,0,0,0,0,5,0,0,0,0,0,0,0,0,0,0,0,0,0,0,0,0,0,0,0,0,0,0,5700,0,0,0,5700,0,0,0,0,0,0,0,0,0,0,5,0,0,0,0,0,0,0,0,570,0,0,570,0,1,SULZER US INDUSTRIES HOLDING INC,001826957
1996,14831CRNNGSTEUB,WORLD KITCHEN LLC PRESSWARE PLANT,ONE STEUBEN ST,CORNING,STEUBEN,NY,14830,42.145167,-77.042417,3229,,,,,,327212,,,,,,1396105149672,ZINC COMPOUNDS,N982,NO,NON-PBT,YES,1,NO,R,Pounds,5,5,190,0,0,0,0,0,0,0,0,0,200,0,0,0,0,0,0,0,0,0,487,0,0,0,0,0,0,0,0,0,0,487,0,0,0,0,0,0,0,0,0,0,0,0,0,0,0,0,687,690,0,0,0,0,0,0,0,0,0,0,690,0,1.1,WKI HOLDING CO,012935800
1996,12144STRLN33RIV,AMRI RENSSELAER INC,33 RIVERSIDE AVE,RENSSELAER,RENSSELAER,NY,12144,42.633056,-73.749722,2833,,,,,,325411,,,,,,1396105298929,PHOSPHORIC ACID,007664382,NO,NON-PBT,NO,0,NO,R,Pounds,0,0,0,0,0,0,0,0,0,0,0,0,0,0,0,0,0,0,0,0,0,0,0,0,0,0,0,0,0,0,0,0,0,0,0,0,0,0,0,0,0,0,0,0,0,0,0,0,0,0,0,0,0,0,0,0,0,0,0,0,17760,0,17760,0,,NA,NA
1996,13662LMNMCPARKA,ALCOA INC,PARK AVE E,MASSENA,ST LAWRENCE,NY,13662,44.939389,-74.873528,3334,3354,3355,,,,331312,,,,,,1396105359564,CHLORINE,007782505,YES,NON-PBT,NO,0,NO,R,Pounds,220,2200,0,0,0,0,0,0,0,0,0,0,2420,0,0,0,0,0,0,0,0,0,0,0,0,0,0,0,0,0,0,0,0,0,0,0,0,0,0,0,0,0,0,0,0,0,0,0,0,0,2420,2500,0,0,0,0,0,0,0,0,0,0,2500,0,.9,ALCOA INC,001339472
1996,13662LMNMCPARKA,ALCOA INC,PARK AVE E,MASSENA,ST LAWRENCE,NY,13662,44.939389,-74.873528,3334,3354,3355,,,,331312,,,,,,1396105359626,NICKEL,007440020,YES,NON-PBT,YES,1,YES,R,Pounds,1,12,140,0,0,0,0,0,0,0,0,0,153,0,0,0,0,0,0,0,0,0,298,0,0,0,0,0,0,0,0,0,0,298,0,0,0,0,0,0,0,0,0,0,0,0,0,0,0,0,451,460,0,0,0,0,0,0,36000,0,0,0,36460,0,1.31,ALCOA INC,001339472
1996,11747LTNNC60BAY,NYCOMED US INC,60 BAYLIS RD,MELVILLE,SUFFOLK,NY,11747,40.7712,-73.41852,2834,,,,,,325412,,,,,,1396105363651,PROPYLENE OXIDE,000075569,YES,NON-PBT,NO,0,YES,R,Pounds,250,1150,0,0,0,0,0,0,0,0,0,0,1400,0,750,750,0,0,0,0,0,0,0,0,0,0,0,0,0,0,0,0,0,0,0,0,0,0,0,0,0,0,0,0,0,0,0,0,0,0,1400,1150,0,0,0,0,0,0,0,0,0,488,1638,0,1.06,NA,NA
1996,11101STNDR3718N,STANDARD MOTOR PRODUCTS INC,37-18 NORTHERN BLVD,LONG ISLAND CITY,QUEENS,NY,111011616,40.752085,-73.925894,3694,,,,,,336322,,,,,,1396105375430,COPPER,007440508,NO,NON-PBT,YES,1,NO,R,Pounds,0,63,0,0,0,0,0,0,0,0,0,0,63,0,0,0,0,0,0,0,0,0,0,0,0,0,0,0,0,0,0,0,0,0,0,0,0,0,566376,566376,0,0,0,0,0,0,0,1067,0,1067,63,63,0,0,0,0,0,0,0,566376,0,1067,567506,0,.99,NA,NA
1996,14227TTSTN175ST,ITT HEAT TRANSFER,175 STANDARD PKWY,CHEEKTOWAGA,ERIE,NY,14227,42.888697,-78.772356,3443,,,,,,332410,,,,,,1396105341376,MANGANESE,007439965,YES,NON-PBT,YES,1,NO,R,Pounds,73,0,0,0,0,0,0,0,0,0,0,0,73,0,0,0,0,0,0,0,0,0,77,0,0,0,0,0,0,0,0,0,0,77,0,12775,0,0,0,12775,0,0,0,0,0,0,0,0,0,0,150,77,0,0,0,0,0,0,0,12775,0,0,12852,0,1.06,ITT CORP,001216845
1996,12095BMCJHUNION,BENJAMIN MOORE & CO JOHNSTOWN,UNION AVE EXTENSION,JOHNSTOWN,FULTON,NY,12095,42.993056,-74.391111,2851,,,,,,325510,,,,,,1396101025411,BUTYL ACRYLATE,000141322,NO,NON-PBT,NO,0,NO,A,Pounds,0,0,0,0,0,0,0,0,0,0,0,0,0,0,0,0,0,0,0,0,0,0,0,0,0,0,0,0,0,0,0,0,0,0,0,0,0,0,0,0,0,0,0,0,0,0,0,0,0,0,0,0,0,0,0,0,0,0,0,0,0,0,0,0,,BERKSHIRE HATHAWAY,001210715
1996,12095BMCJHUNION,BENJAMIN MOORE & CO JOHNSTOWN,UNION AVE EXTENSION,JOHNSTOWN,FULTON,NY,12095,42.993056,-74.391111,2851,,,,,,325510,,,,,,1396101025447,ZINC COMPOUNDS,N982,NO,NON-PBT,YES,1,NO,A,Pounds,0,0,0,0,0,0,0,0,0,0,0,0,0,0,0,0,0,0,0,0,0,0,0,0,0,0,0,0,0,0,0,0,0,0,0,0,0,0,0,0,0,0,0,0,0,0,0,0,0,0,0,0,0,0,0,0,0,0,0,0,0,0,0,0,,BERKSHIRE HATHAWAY,001210715
1996,13350HMQCK220PR,HM QUACKENBUSH INC,220 N PROSPECT ST,HERKIMER,HERKIMER,NY,13350,43.026129,-74.988794,3471,3429,,,,,332813,,,,,,1396105105427,CADMIUM,007440439,YES,NON-PBT,YES,1,YES,R,Pounds,0,0,0,0,0,0,0,0,0,0,0,0,0,250,0,250,0,0,0,0,0,0,0,0,0,0,0,0,0,0,0,0,0,0,0,8109,0,0,0,8109,0,0,0,0,0,0,0,0,0,0,250,37,0,0,0,0,0,0,0,8109,0,0,8146,0,1.8,NA,NA
1996,13357DPNTRCLARK,REMINGTON ARMS CO INC,CLARK ST,ILION,HERKIMER,NY,13357,43.015139,-75.035,3484,,,,,,332994,,,,,,1396105233199,CHROMIUM,007440473,YES,NON-PBT,YES,1,YES,R,Pounds,0,0,0,0,0,0,0,0,0,0,0,0,0,0,0,0,0,0,0,0,0,0,58,0,0,0,0,0,0,0,30,0,0,88,0,0,0,0,0,0,0,0,0,0,0,0,0,0,0,0,88,88,0,0,0,0,0,0,0,0,0,0,88,0,.85,REMINGTON ARMS CO INC,001453216
1996,13090GGNND7856G,GOGUEN INDUSTRIES INC,7856 GOGUEN DR,LIVERPOOL,ONONDAGA,NY,130902515,43.148745,-76.195627,3677,,,,,,334416,,,,,,1396105267278,ANTIMONY,007440360,YES,NON-PBT,YES,1,NO,R,Pounds,0,0,0,0,0,0,0,0,0,0,0,0,0,0,0,0,0,0,0,0,0,0,0,0,0,0,0,0,0,0,0,0,0,0,0,0,0,0,0,0,0,0,0,0,0,0,0,0,0,0,0,0,0,0,0,0,0,0,0,0,0,0,0,0,.01,NA,NA
1996,12328GNRLL381UP,GENERAL ELECTRIC CO CPQP,381 BROADWAY,FORT EDWARD,WASHINGTON,NY,12828,43.285833,-73.588528,3629,,,,,,335999,,,,,,1396105317869,COPPER,007440508,NO,NON-PBT,YES,1,NO,R,Pounds,5,5,0,0,0,0,0,0,0,0,0,0,10,0,0,0,0,0,0,0,0,0,0,0,0,0,0,0,0,0,0,0,0,0,0,0,0,0,0,0,0,0,0,0,0,0,0,0,0,0,10,6,0,0,0,0,0,0,0,0,0,0,6,0,.86,GENERAL ELECTRIC CO (GE CO),001367960
1996,12306NSLTNONECA,VON ROLL USA INC,200 VON ROLL DR,SCHENECTADY,SCHENECTADY,NY,123062442,42.806556,-73.984694,3299,2295,2821,2851,,,327999,,,,,,1396105339764,XYLENE (MIXED ISOMERS),001330207,YES,NON-PBT,NO,0,NO,R,Pounds,6100,26000,0,0,0,0,0,0,0,0,0,0,32100,0,0,0,0,0,0,0,0,0,0,0,0,0,0,0,0,0,0,0,0,0,0,0,0,0,0,0,1200,33250,34450,0,1500,0,0,0,0,1500,32100,32000,0,0,0,0,0,35000,0,0,204000,1500,272500,180,.95,VON ROLL AG,NA
1996,10926NPRNCROUTE,RUTHERFORD CHEMICALS LLC NEPERA DIV,41 ARDEN HOUSE RD,HARRIMAN,ORANGE,NY,10926,41.309528,-74.139111,2865,2833,2869,,,,325192,,,,,,1396105403669,BENZENE,000071432,YES,NON-PBT,NO,0,YES,R,Pounds,4751,59,5,0,0,0,0,0,0,0,0,0,4815,0,1,1,0,0,0,0,0,0,0,0,0,0,0,0,0,0,0,0,0,0,0,0,0,0,0,0,0,0,0,0,2773,0,0,0,0,2773,4815,4810,0,0,0,0,956667,0,0,0,0,2774,964251,1,1.05,RUTHERFORD CHEMICALS LLC,029260833
1996,13323NDMCR23ROB,INDIUM CORP OF AMERICA,36 ROBINSON RD,CLINTON,ONEIDA,NY,13323,43.063537,-75.367759,3499,,,,,,332000,,,,,,1396105434207,LEAD COMPOUNDS,N420,YES,PBT,YES,1,NO,R,Pounds,0,117,0,0,0,0,0,0,0,0,0,0,117,5,0,5,0,0,0,0,0,0,0,0,0,0,0,0,0,0,0,0,0,0,0,0,0,0,14477,14477,0,0,0,0,0,0,0,0,0,0,122,117,0,0,0,0,0,0,0,14477,0,0,14594,0,.94,INDIUM CORP OF AMERICA,782042949
1996,14814GWYNC2883H,AGWAY INC.,2883 HAMMOND ST.,BIG FLATS,CHEMUNG,NY,14814,42.138849,-76.932503,2875,,,,,,325314,,,,,,1396106003181,PHOSPHORIC ACID,007664382,NO,NON-PBT,NO,0,NO,A,Pounds,0,0,0,0,0,0,0,0,0,0,0,0,0,0,0,0,0,0,0,0,0,0,0,0,0,0,0,0,0,0,0,0,0,0,0,0,0,0,0,0,0,0,0,0,0,0,0,0,0,0,0,0,0,0,0,0,0,0,0,0,0,0,0,0,,AGWAY INC,002249159
1996,13905GWYNC4450M,AGWAY INC BINGHAMTON FEED MILL,44-50 MONTOMERY ST,BINGHAMTON,BROOME,NY,13901,42.110053,-75.895129,2048,,,,,,311211,,,,,,1396106046168,MANGANESE COMPOUNDS,N450,YES,NON-PBT,YES,1,NO,A,Pounds,0,0,0,0,0,0,0,0,0,0,0,0,0,0,0,0,0,0,0,0,0,0,0,0,0,0,0,0,0,0,0,0,0,0,0,0,0,0,0,0,0,0,0,0,0,0,0,0,0,0,0,0,0,0,0,0,0,0,0,0,0,0,0,0,,AGWAY INC,002249159
1996,14621RCHST333HO,ROCHESTER MIDLAND CORP,333 HOLLENBECK ST,ROCHESTER,MONROE,NY,14621,43.184739,-77.617194,2841,2842,,,,,325611,,,,,,1396106023474,SODIUM DIMETHYLDITHIOCARBAMATE,000128041,NO,NON-PBT,NO,0,NO,A,Pounds,0,0,0,0,0,0,0,0,0,0,0,0,0,0,0,0,0,0,0,0,0,0,0,0,0,0,0,0,0,0,0,0,0,0,0,0,0,0,0,0,0,0,0,0,0,0,0,0,0,0,0,0,0,0,0,0,0,0,0,0,0,0,0,0,,ROCHESTER MIDLAND CORP,NA
1996,13021GLDSP1GOUL,ITT CORP,1 GOULDS DR,AUBURN,CAYUGA,NY,13021,42.9255,-76.59143,3561,,,,,,333911,,,,,,1396106036799,CHROMIUM,007440473,YES,NON-PBT,YES,1,YES,A,Pounds,0,0,0,0,0,0,0,0,0,0,0,0,0,0,0,0,0,0,0,0,0,0,0,0,0,0,0,0,0,0,0,0,0,0,0,0,0,0,0,0,0,0,0,0,0,0,0,0,0,0,0,0,0,0,0,0,0,0,0,0,0,0,0,0,,ITT CORP,002225100
1996,14225BBTTL2400W,HOSPIRA INC,2400 WALDEN AVE,BUFFALO,ERIE,NY,14225,42.907764,-78.747911,3089,,,,,,326199,,,,,,1396106017510,DI(2-ETHYLHEXYL) PHTHALATE,000117817,YES,NON-PBT,NO,0,YES,A,Pounds,0,0,0,0,0,0,0,0,0,0,0,0,0,0,0,0,0,0,0,0,0,0,0,0,0,0,0,0,0,0,0,0,0,0,0,0,0,0,0,0,0,0,0,0,0,0,0,0,0,0,0,0,0,0,0,0,0,0,0,0,0,0,0,0,,HOSPIRA INC,NA
1996,14747GWYNCCLARK,AGWAY INC JAMESTOWN FEED MILL,1029 POLAND CENTER RD,KENNEDY,CHAUTAUQUA,NY,14747,42.134447,-79.121671,2048,,,,,,311119,,,,,,1396106050584,MANGANESE COMPOUNDS,N450,YES,NON-PBT,YES,1,NO,A,Pounds,0,0,0,0,0,0,0,0,0,0,0,0,0,0,0,0,0,0,0,0,0,0,0,0,0,0,0,0,0,0,0,0,0,0,0,0,0,0,0,0,0,0,0,0,0,0,0,0,0,0,0,0,0,0,0,0,0,0,0,0,0,0,0,0,,AGWAY INC,002249159
1996,14608KLNBR600OA,KLEEN BRITE LABORATORIES INC.,600 OAK ST.,ROCHESTER,MONROE,NY,14608,43.164002,-77.630377,2841,,,,,,325611,,,,,,1396106024286,CHLORINE,007782505,YES,NON-PBT,NO,0,NO,A,Pounds,0,0,0,0,0,0,0,0,0,0,0,0,0,0,0,0,0,0,0,0,0,0,0,0,0,0,0,0,0,0,0,0,0,0,0,0,0,0,0,0,0,0,0,0,0,0,0,0,0,0,0,0,0,0,0,0,0,0,0,0,0,0,0,0,,NA,NA
1996,12085GWYNCBUILD,AGWAY INC GUILDERLAND FEED MILL,NORTHEASTERN INDL. PARK,GUILDERLAND CENTER,ALBANY,NY,12085,42.6891,-74.0113,2048,,,,,,311119,,,,,,1396106051081,MANGANESE COMPOUNDS,N450,YES,NON-PBT,YES,1,NO,A,Pounds,0,0,0,0,0,0,0,0,0,0,0,0,0,0,0,0,0,0,0,0,0,0,0,0,0,0,0,0,0,0,0,0,0,0,0,0,0,0,0,0,0,0,0,0,0,0,0,0,0,0,0,0,0,0,0,0,0,0,0,0,0,0,0,0,,AGWAY INC,002249159
1996,11106LBRSS14333,L. B. RUSSELL CHEMICALS INC.,14-33 31ST AVE.,LONG ISLAND CITY,QUEENS,NY,11106,40.767956,-73.931318,3861,,,,,,325992,,,,,,1396106014956,NITRATE COMPOUNDS,N511,NO,NON-PBT,NO,0,NO,A,Pounds,0,0,0,0,0,0,0,0,0,0,0,0,0,0,0,0,0,0,0,0,0,0,0,0,0,0,0,0,0,0,0,0,0,0,0,0,0,0,0,0,0,0,0,0,0,0,0,0,0,0,0,0,0,0,0,0,0,0,0,0,0,0,0,0,,NA,NA
1996,12883NTRNTSHORE,INTERNATIONAL PAPER,568 SHORE AIRPORT RD,TICONDEROGA,ESSEX,NY,12883,43.916944,-73.416472,2621,2611,,,,,322121,,,,,,1396106039946,PHOSPHORIC ACID,007664382,NO,NON-PBT,NO,0,NO,A,Pounds,0,0,0,0,0,0,0,0,0,0,0,0,0,0,0,0,0,0,0,0,0,0,0,0,0,0,0,0,0,0,0,0,0,0,0,0,0,0,0,0,0,0,0,0,0,0,0,0,0,0,0,0,0,0,0,0,0,0,0,0,0,0,0,0,,INTERNATIONAL PAPER CO,001316561
1996,13221BRSTLTHOMP,BRISTOL-MYERS SQUIBB CO,6000 THOMPSON RD,EAST SYRACUSE,ONONDAGA,NY,13057,43.065722,-76.087,2834,2833,,,,,325412,,,,,,1396106052222,CHROMIUM,007440473,YES,NON-PBT,YES,1,YES,A,Pounds,0,0,0,0,0,0,0,0,0,0,0,0,0,0,0,0,0,0,0,0,0,0,0,0,0,0,0,0,0,0,0,0,0,0,0,0,0,0,0,0,0,0,0,0,0,0,0,0,0,0,0,0,0,0,0,0,0,0,0,0,0,0,0,0,,BRISTOL-MYERS SQUIBB CO,NA
1996,13502THNDM1676L,INDIUM CORP OF AMERICA,1676 LINCOLN AVE,UTICA,ONEIDA,NY,13502,43.09314,-75.26004,3499,,,,,,332999,,,,,,1396106020706,LEAD,007439921,YES,PBT,YES,1,YES,A,Pounds,0,0,0,0,0,0,0,0,0,0,0,0,0,0,0,0,0,0,0,0,0,0,0,0,0,0,0,0,0,0,0,0,0,0,0,0,0,0,0,0,0,0,0,0,0,0,0,0,0,0,0,0,0,0,0,0,0,0,0,0,0,0,0,0,,INDIUM CORP OF AMERICA,172493504
