REPORTING YEAR	TITLE OF CERTIFYING OFFICIAL	NAME OF CERTIFYING OFFICIAL	TRIFID	FACILITY NAME	FACILITY STREET	FACILITY CITY	FACILITY COUNTY	FACILITY STATE	FACILITY ZIP CODE	MAILING NAME	MAILING STREET	MAILING CITY	MAILING STATE	MAILING PROVINCE	MAILING ZIP CODE	ENTIRE FACILITY IND	PARTIAL FACILITY IND	FEDERAL FACILITY IND	GOCO FACILITY IND	PUBLIC CONTACT NAME	PUBLIC CONTACT PHONE	PRIMARY SIC CODE	SIC CODE 2	SIC CODE 3	SIC CODE 4	SIC CODE 5	SIC CODE 6	NAICS ORIGIN	PRIMARY NAICS CODE	NAICS CODE 2	NAICS CODE 3	NAICS CODE 4	NAICS CODE 5	NAICS CODE 6	LATITUDE	LONGITUDE	DB NR A	DB NR B	RCRA NR A	RCRA NR B	NPDES NR A	NPDES NR B	UIC NR A	UIC NR B	PARENT COMPANY NAME	PARENT COMPANY DB NR	ASSIGNED FED. FACILITY FLAG	PUBLIC CONTACT EMAIL	
1999	PRESIDENT	KENNETH W. LANDRUM	32204FBRGL825NM	A A FIBERGLASS INC	825 N MYRTLE AVE	JACKSONVILLE	DUVAL	FL	32204	A A FIBERGLASS INC	825 N MYRTLE AVE	JACKSONVILLE	FL		32204	YES	NO	NO		KENNETH W LANDRUM	9043534368	3999							339999						30.335921	-81.676068	188553457		FLD982109274								NO		
2005	PRESIDENT,CEO	MR.JOHN COLEMAN	33010WTSCN1800W	A-1 COMPONENTS CORP	625 W 18TH ST	HIALEAH	MIAMI-DADE	FL	33010	A-1 COMPONENTS CORP	625 W 18TH ST	HIALEAH	FL		33010	YES	NO	NO	NO	PEDRO LOPEZ	3058851911	3585							333415						25.837559	-80.294869	804832087		FLD004123576								NO		
2007	OWNER	OLYMPIA PAGANO	33556SPRRN2426S	A1 SUPERIOR	2426 SUCCESS DR	ODESSA	PASCO	FL	33556	A1 SUPERIOR	2426 SUCCESS DR	ODESSA	FL		33556	YES	NO	NO	NO	OLYMPIA PAGANO	8138541109	3999							INVALD						28.181795	-82.580737	198396970										NO	ASUPERIOR@TAMPABAY.RR.COM	
2007	GENERAL MANAGER	PASTOR LOPEZ	33178RLNDN9371N	AAR LANDING GEAR SERVICES	9371 NW 100 ST	MIAMI	MIAMI-DADE	FL	33178	AAR LANDING GEAR SERVICES	9371 NW 100 ST	MIAMI	FL		33178	YES	NO	NO	NO	CESAR BENDEK	3058874027	3728							811310						25.862703	-80.349369	005425814								AAR CORP	005425814	NO	CBENDEK@AARCORP.COM	
1989	V. P. ENVIRONMENTAL AFFAIRS	MEL ROSHANRAVAN	32446RNSTH1001D	AARON SOUTH	1001 DAVEY ST.	MARIANNA	JACKSON	FL	32446	AARON SOUTH	1001 DAVEY ST.	MARIANNA	FL		32446	YES	NO	NO		MEL ROSHANRAVAN	2146382223	2077							311000						30.773184	-85.219502									DARLING INTERNATIONAL INC.	005092358	NO		
2006	SENIOR VP & GENERAL MGR. PPMV	JOSEPH W. BAKER JR.	32746BBPWR655CE	ABB INC.	655 CENTURY POINT	LAKE MARY	SEMINOLE	FL	327462137	ABB INC.	655 CENTURY POINT	LAKE MARY	FL		32746-2137	YES	NO	NO	NO	LINDA LOPEZ	4077322106	3613							335313						28.776337	-81.352734	609774435								ABB LTD	011885969	NO		
2007	MANAGING DIRECTOR	PATRICK WILKINSON	33065WSTNG4300C	ABB INC.	4300 CORAL RIDGE DR	CORAL SPRINGS	BROWARD	FL	33065	ABB INC.	4300 CORAL RIDGE DR	CORAL SPRINGS	FL		33065	YES	NO	NO	NO	PATRICK WILKINSON	9548250638	3625							335314						26.28354	-80.282439	011885969										NO	PAT.WILKINSON@US.ABB.COM	
1999	VICE PRESIDENT & GENERAL MANAGER	NORBERT J. HAGENHOFF	32771BBPWR201HI	ABB POWER T&D CO. INC.	201 HICKMAN DR.	SANFORD	SEMINOLE	FL	327718201	ABB POWER T&D CO. INC.	655 CENTURY POINT	LAKE MARY	FL		32746	YES	NO	NO		JAMES TREFFINGER	4077322105	3613							335313						28.815157	-81.332857	609774435		FLD099694572		FLR05B623		N/A		ASEA BROWN BOVERI INC.	011885969	NO		
2004	PLANT MANAGER	KAI TESTORF	33487MRCNB6650P	ABC SUPERABRASIVES	6650 PARK OF COMMERCE BLVD	BOCA RATON	PALM BEACH	FL	33487	ABC SUPERABRASIVES	6650 PARK OF COMMERCE BLVD	BOCA RATON	FL		33487	YES	NO	NO	NO	KAI TESTORF	5619957900	3291							327910						26.407671	-80.096912	001247493		FL0000855221						SAINT-GOBAIN CERAMICS & PLASTICS	879702090	NO		
2004	VICE PRESIDENT	THEO KATSULOS	34689CMSPN855EP	ACME SPONGE & CHAMOIS CO INC	855 E PINE ST	TARPON SPRINGS	PINELLAS	FL	34689	ACME SPONGE & CHAMOIS CO INC	855 E PINE ST	TARPON SPRINGS	FL		34689	YES	NO	NO	NO	GEORGE M CANTONIS	7279373222	3111							316110						28.150865	-82.741312	001952159										NO		
2007	PRESIDENT	GREGORY ACOPIAN	32904CPNTC2001W	ACOPIAN TECHNICAL CO	2001 W NASA BLVD	MELBOURNE	BREVARD	FL	32904	ACOPIAN TECHNICAL CO	PO BOX 2109	MELBOURNE	FL		32902	NO	NO	NO	NO	KIRK CASTEEL	3217271172	3679							335999						28.0958	-80.6583	002388098		FLD059931352								NO		
2007	VICE PRESIDENT	EDWARD WOLF	33312CRLCT5757R	ACR ELECTRONICS INC	5757 RAVENSWOOD RD	FORT LAUDERDALE	BROWARD	FL	333126603	ACR ELECTRONICS INC	5757 RAVENSWOOD RD	FORT LAUDERDALE	FL		33312-6603	YES	NO	NO	NO	EDWARD A. WOLF	9549813333	3648	3663						334220	335129					26.050912	-80.168221	080170350								CHELTON AVIONICS	019079925	NO	EWOLF@ACRELECTRONICS.COM	
1991	PRESIDENT	CHRIS CURTIN	32772MRCLM1451K	ACRYL GROUP INC (DBA MIRACLE MARBLE)	1451 KASTNER PL #101	SANFORD	SEMINOLE	FL	32772	ACRYL GROUP INC (DBA MIRACLE MARBLE)	1451 KASTNER PL #101	SANFORD	FL		32772	YES	NO	NO		CHRIS CURTIN	4073217370	3999							339999						28.830898	-81.327424	147705040										NO		
2005	PRESIDENT	PAUL GUARD	33909CTNCR2603A	ACTION CRAFT INC	2603 ANDALUSIA BLVD	CAPE CORAL	LEE	FL	33909	ACTION CRAFT INC	2603 ANDALUSIA BLVD	CAPE CORAL	FL		33909	YES	NO	NO	NO	PAUL GUARD	2395747008	3732	3089						336612						26.699235	-81.95662	151719358										NO		
1991	PRESIDENT	DANIEL L. PEPPLE	33054CTNPL1220A	ACTION PLATING CORP	1220 ALI BABA AVE	OPA LOCKA	DADE	FL	33054	ACTION PLATING CORP	1220 ALI BABA AVE	OPA LOCKA	FL		33054	YES	NO	NO		LARRY C BAIN	3056856313	3471							332813						25.903342	-80.246727	085022291		FLD085022291								NO		
2007	PLANT MANAGER	JERRY MURPHY	32205DCMWR925NO	ADCOM WIRE CO	925 N LANE AVE	JACKSONVILLE	DUVAL	FL	32254	ADCOM WIRE CO	925 N LANE AVE	JACKSONVILLE	FL		32254	YES	NO	NO	NO	JERRY D. MURPHY	9047860750	3315							331222						30.334253	-81.752061	007140064		FLD053105821		FLR05F352				LEGGETT & PLATT INC	007140064	NO	JERRY.MURPHY@LEGGETT.COM	
2002	VICE PRESIDENT OF OPERATIONS	JIM WHALEN	33777DVLTN7340B	ADVA-LITE INC	7340 BRYAN DAIRY RD	LARGO	PINELLAS	FL	337771506	ADVA-LITE INC	7340 BRYAN DAIRY RD	LARGO	FL		33777-1506	YES	NO	NO	NO	UNITED STATES COMPLIANCE CORP	9522523000	3648							335129						27.872114	-82.740384	556287076		FLR000048785								NO		
1998	V.P. OPERATIONS	JAMES WHALEN	34647DVLTN8145B	ADVA-LITE INC.	8145 BRYAN DAIRY RD.	LARGO	PINELLAS	FL	33777	ADVA-LITE INC.	P.O. BOX 10674	LARGO	FL		33773	YES	NO	NO		JAMES WHALEN	8133979633	3466							332115						27.872147	-82.752424	556287076		FLD982154197								NO		
2007	PLANT MANAGER	LOUIS DAVIS	32533DVNCD604CH	ADVANCED ELASTOMER SYSTEMS LP	604 CHEMSTRAND RD	CANTONMENT	ESCAMBIA	FL	32533	ADVANCED ELASTOMER SYSTEMS LP	604 CHEMSTRAND RD	CANTONMENT	FL		32533	YES	NO	NO	NO	RANDALL MCGILBERRY	8509683936	2822							325212						30.569382	-87.261169	622012300								EXXON MOBIL CORP	001213214	NO	RANDALL.K.MCGILBERRY@EXXONMOBIL.COM	
2007	DIRECTOR OF REGULATORY AFFAIRS AND COMPLIANCE	JEFFERY SMITH	32904RCCMN4317J	AERCCOM INC	4317-J FORTUNE PL	WEST MELBOURNE	BREVARD	FL	32904	AERCCOM INC	4317-J FORTUNE PL	WEST MELBOURNE	FL		32904	YES	NO	NO	NO	TRACY DEPAOLA	3219521516	2819	4953						325188	562211					28.09482	-80.697614	801247099								AERC.COM INC	801247099	NO	TDEPAOLA@AERCRECYCLING.COM	
1987	SUPPORT DIVISION MANAGER	ROY GORMAN	32548RTCHN630AN	AERO TECHNICAL SERVICES	630 ANCHORS ST.	FORT WALTON BEACH	OKALOOSA	FL	32548	AERO TECHNICAL SERVICES	630 ANCHORS ST.	FORT WALTON BEACH	FL		32548	YES	NO	NO		ROY GORMAN	9042447684	7699													30.422221	-86.654358	011957438		FLD097373542						SEQUA CORP.	011957438	NO		
1995	V.P. ENGINEERING	D.R. HODGSON	33152RTHRS5300N	AEROTHRUST CORP.	5300 N.W. 36TH ST.	MIAMI	DADE	FL	33152	AEROTHRUST CORP.	P.O. BOX 522236	MIAMI	FL		33152	YES	NO	NO		SAMUEL HENSHEY	3055267326	3724							336412						25.807498	-80.281433	007777048		FLD080182744						CELSIUS INC.		NO		
1988		JOHN W. SATES	32203TNSTL5007N	AETNA STEEL CO.	5007 NEW KINGS RD.	JACKSONVILLE	DUVAL	FL	32203	AETNA STEEL CO.	5007 NEW KINGS RD.	JACKSONVILLE	FL		32203	YES	NO	NO		JOHN W. GATES	9047652625	3499							332999						30.361914	-81.715538	007973662		168521333								NO		
2005	TECHNICAL MANAGER	HARRIET S. LITRENTA	32819TTMCR9333S	AGERE SYSTEMS	9333 S JOHN YOUNG PKWY	ORLANDO	ORANGE	FL	32819	AGERE SYSTEMS	9333 S JOHN YOUNG PKWY	ORLANDO	FL		32819	YES	NO	NO	NO	CHARLIE HARTLEY	6107121728	3674							334413						28.4367	-81.4197									AGERE SYSTEMS	177863862	NO		
1993	PRODUCTION MANAGER	M. A. MCGRATH	32809RPRDC8300E	AIR PRODUCTS & CHEMICALS INC. ORLANDO FL FACILITY	8300 EXCHANGE DR.	ORLANDO	ORANGE	FL	32809	AIR PRODUCTS & CHEMICALS INC. ORLANDO FL FACILITY	8300 EXCHANGE DR.	ORLANDO	FL		32809	YES	NO	NO		G. CENTRETTO	4078595141	2813							325120						28.445881	-81.413526	183308998		FLD981003726		FLR00A623				AIR PRODUCTS & CHEMICALS INC	003001070	NO		
1995		GEORGE L. KING	33142RCPLT3650N	AIRCO PLATING CO INC	3650 NW 46TH ST	MIAMI	DADE	FL	33142	AIRCO PLATING CO INC	3650 NW 46TH ST	MIAMI	FL		33142	YES	NO	NO		MICHAEL KING	3056332476	3471							332813						25.8152	-80.2559	004145140										NO		
2001	MANAGER QUALITY ENGINEERING	ALEX VALDERREY	33142RCRFT4000N	AIRCRAFT MODULAR PRIDUCTS B/E AEROSPACE INC.	4000 N.W. 36TH ST.	MIAMI	DADE	FL	33142	AIRCRAFT MODULAR PRIDUCTS B/E AEROSPACE INC.	4000 N.W. 36TH ST.	MIAMI	FL		33142	YES	NO	NO		ALEX VALDERREY	3054597000	3364							331522						25.811082	-80.254903	044127439										NO		
2007	SAFETY DIRECTOR	GREG BARNETT	32254RPRDS5837W	AIRGAS SOUTH INC	5837 W FIFTH ST	JACKSONVILLE	DUVAL	FL	32254	AIRGAS SOUTH INC	125 TOWNPARK DR NW SUITE 400	KENNESAW	GA		30144	YES	NO	NO	NO	GREG BARNETT	7702368013	5169							424690						30.34304	-81.749109	131902699								AIRGAS SOUTH INC.	003297942	NO	GREG.BARNETT2@AIRGAS.COM	
2007	PLANT MANAGER	ROBERT CLARK	33815LBMMT133PI	ALABAMA METAL INDUSTRIES CORP	1033 PINE CHASE AVE	LAKELAND	POLK	FL	33815	ALABAMA METAL INDUSTRIES CORP	1033 PINE CHASE AVE	LAKELAND	FL		33815	YES	NO	NO	NO	ROBERT CLARK	8635810371	3449							332323						28.029167	-82.052778											NO	ROBERTC@AMICO-US.COM	
2006	PRESIDENT	MR. JEFF ARONSON	33069LBRPR171BL	ALBAR PRECIOUS METAL REFINING INC	1701 BLOUNT RD BAY A	POMPANO BEACH	BROWARD	FL	33069	ALBAR PRECIOUS METAL REFINING INC	1701 BLOUNT RD BAY A	POMPANO BEACH	FL		33069	YES	NO	NO	NO	ENRIQUE SAEZ P.E.	3053612984								331492						26.25047	-80.163898											NO		
2001	ENVIRONMENTAL MANAGER	BILL NIGRO	33841LMNMCHWY63	ALCOA WORLD ALUMINA LLC FORT MEADE WORKS	HWY. 630	FORT MEADE	POLK	FL	33841	ALCOA WORLD ALUMINA LLC FORT MEADE WORKS	P.O. BOX 896	FORT MEADE	FL		33841	YES	NO	NO	NO	BILL NIGRO	2253822421	2819							325188						27.7497	-81.8444	055201131		FLD055201131						ALCOA INC	001339472	NO		
2007	SECRETARY BOARD OF DIRECTORS	MATHEW J. MISSAD	33178LJMLM10300	ALJOMA LUMBER INC.	10300 NW 121 WAY	MEDLEY	MIAMI-DADE	FL	33178	ALJOMA LUMBER INC.	2801 E BELTLINE AVE NE	GRAND RAPIDS	MI		49525	YES	NO	NO	NO	LYNN AFENDOULIS	6163651502	2491							321114						25.879486	-80.367062	017104670								UNIVERSAL FOREST PRODUCTS INC.	017104670	NO	LAFENDOULIS@UFPI.COM	
2007	SECRETARY/ OWNER	BETTY M. LABARBERA	32206LLBRT2204H	ALL-BRITE SALES CO	2204 HAINES ST	JACKSONVILLE	DUVAL	FL	32206	ALL-BRITE SALES CO	2204 HAINES ST	JACKSONVILLE	FL		32206	YES	NO	NO	NO	RANDY LABARBERA	9043544687	2841							325611						30.350523	-81.637245	004079604										NO	RANDY@ALL-BRITESALES.COM	
1987	PRESIDENT	E. V. RIPPINGILLE	33142LLNND3235N	ALLEN INDUSTRIAL PRODUCTS	3235 N.W. 37 ST.	MIAMI	DADE	FL	331425080	ALLEN INDUSTRIAL PRODUCTS	3235 N.W. 37 ST.	MIAMI	FL		33142-5080	YES	NO	NO		E.V. RIPPINGILLE	3056330627	2841	2851												25.809196	-80.249488					IW2005387				ALLEN INDUSTRIAL PRODUCTS		NO		
2006	PLANT MANAGER	TODD KAUL	32446NMC  3595I	ALLIANCE LAUNDRY SYSTEMS LLC	3595 INDUSTRIAL PARK DR	MARIANNA	JACKSON	FL	324469458	ALLIANCE LAUNDRY SYSTEMS LLC	PO BOX 990	RIPON	WI		549710990	YES	NO	NO	NO	CHRIS CAMPELL	9207481699	3582							335224						30.835881	-85.180854	018575498										NO		
2007	PRESIDENT	LARRY FOX	34221LLDFB11451	ALLIED MOLDED PRODUCTS INC	1145 13TH AVE E	PALMETTO	MANATEE	FL	34221	ALLIED MOLDED PRODUCTS INC	PO BOX 186	PALMETTO	FL		34220	YES	NO	NO	NO	LARRY FOX	9417233072	3089							326199						27.523273	-82.551067											NO	ALLIED@ACUN.COM	
2007	VICE PRESIDENT	JEFFERY ROSE	33020LLDPH2040L	ALLIED PHOTO OFFSET SUPPLY	2040 LEE ST	HOLLYWOOD	BROWARD	FL	33020	ALLIED PHOTO OFFSET SUPPLY CO (DBA ALLIED PRESSROOM CHEMISTRY)	2040 LEE ST	HOLLYWOOD	FL		33020	NO	NO	NO	NO	NA	NA	2899							325998						26.030745	-80.148329			FL0004120804								NO		
2007	REGULATORY AFFAIRS MANAGER	ROBIN BOLTE	34987LLDNV9549R	ALLIED UNIVERSAL CORP	9549 RANGELINE RD	FORT PIERCE	ST LUCIE	FL	34987	ALLIED UNIVERSAL CORP	ATTN: ROBIN EDDY BOLTE 3901 NW 115TH AVE	MIAMI	FL		33178	YES	NO	NO	NO	ROBIN EDDY BOLTE	3058882623	2819							325188	424690					27.293194	-80.481694	004134623										NO	ROBINE@ALLIEDUNIVERSAL.COM	
2007	REGULATORY AFFAIRS MANAGER	ROBIN BOLTE	33166LLDNV8350N	ALLIED UNIVERSAL CORP	8350 NW 93RD ST	MIAMI	MIAMI-DADE	FL	33166	ALLIED UNIVERSAL CORP	ATTN: ROBIN BOLTE3901 NW 115TH AVE	MIAMI	FL		33178	YES	NO	NO	NO	ROBIN BOLTE	3058882623	2819							325188	424690					25.8575	-80.33111	004134623										NO	ROBIINE@ALLIEDUNIVERSAL.COM	
1998	CORPORATE ENVIRONMENTAL MANAGER	CHARLES WIGHT	32747LLDNV2330C	ALLIED UNIVERSAL CORP.	2320 CARVER DR.	LEESBURG	LAKE	FL	347484137	ALLIED UNIVERSAL CORP.	2320 CARVER DR.	LEESBURG	FL		34748-4137	YES	NO	NO		CHARLES WIGHT	3058882623	2812							325181						28.820773	-81.902495	004134623		FLD984180919								NO		
1993	MANAGER ENVIRONMENTAL COMPLIANCE	RAY WHITE	33309LLDSG2150N	ALLIED-SIGNAL AEROSPACE CO.	2150 N.W. 62ND ST.	FORT LAUDERDALE	BROWARD	FL	33309	ALLIED-SIGNAL AEROSPACE CONTROLS & ACCESSORIES	717 N. BENDIX DR.	SOUTH BEND	IN		46620	YES	NO	NO		RAY WHITE	2192313412	3728							336413						26.203607	-80.200352	020431136		FLD981928955						ALLIED-SIGNAL INC.	048794986	NO		
1987	PLANT MANAGER	JOHN CARSON	33942LLDSG3581M	ALLIED-SIGNAL AEROSPACE CO. BENDIX ENGINE CONTROLS DIV.	3581 MERCANTILE AVE.	NAPLES	COLLIER	FL	34104	ALLIED-SIGNAL AEROSPACE CO. BENDIX ENGINE CONTROLS DIV.	3581 MERCANTILE AVE.	NAPLES	FL		34104	YES	NO	NO		PAUL AMATO	9047394313	3724	3728												26.1662	-81.7631	129691877		FLD040985756						ALLIED-SIGNAL INC.	048794986	NO		
1996	DIR. OF MFG.	BOB DALY	33309BNDXK2100N	ALLIED-SIGNAL INC. COMMERCIAL AVIONICS SYS.	2100 N.W. 62ND ST.	FORT LAUDERDALE	BROWARD	FL	33309	ALLIED-SIGNAL INC. COMMERCIAL AVIONICS SYS.	2100 N.W. 62ND ST.	FORT LAUDERDALE	FL		33309	YES	NO	NO		MARCIA SOAS-BUCKNOR	9549282239	3812							334511						26.201667	-80.170278	005569405		FLD005569405						ALLIED-SIGNAL INC.	139691877	NO		
2007	CO-OWNER	PAUL J. SUPPA	33870LPHSP1578A	ALPHA GENERAL	1578 ALPHA RD	SEBRING	HIGHLANDS	FL	33870	ALPHA GENERAL SERVICES INC	PO BOX 3331	SEBRING	FL		33871	YES	NO	NO	NO	PAUL J. SUPPA "DOC"	8633821544	3089							326199						27.4889	-81.4178	097835748										NO	DOC@ALPHAGENERAL.COM	
1999	HR  DIRECTOR	M.  LOPEZ	33014CDMDC14600	ALTHIN MEDICAL INC.	14620 N.W. 60TH AVE.	MIAMI LAKES	DADE	FL	33014	ALTHIN MEDICAL INC.	14620 N.W. 60TH AVE.	MIAMI LAKES	FL		33014	YES	NO	NO		SAM GARCIA	3058255311	3999							339999						25.906036	-80.29966	066941303		FLD066941303						ALTHIN MEDICAL AB		NO		
2006	GENERAL MANAGER	ANTHONY T. SKIBA	32207STLLP3389P	ALTIVITY PACKAGING	3389 POWERS AVE	JACKSONVILLE	DUVAL	FL	32207	ALTIVITY PACKAGING	4500 BEECH ST	CINCINNATI	OH		45212	YES	NO	NO	NO	BRENT PETERSON	5133965627	2754							323111						30.267135	-81.624677									BLUEGRASS LABELS CO	092533678	NO		
2003	PLANT MANAGER	DAVID ORTH	32114LMSHL405FE	ALUMA SHIELD INDUSTRIES INC	405 FENTRESS BLVD	DAYTONA BEACH	VOLUSIA	FL	32114	ALUMA SHIELD INDUSTRIES INC	405 FENTRESS BLVD	DAYTONA BEACH	FL		32114	YES	NO	NO	NO	JAMISON BRADDOCK	3867380640	3442							332321						29.196148	-81.080208	067856211		FLD980839955								NO		
1989	V.P. OPERATIONS	MICHAEL S. MCCURRY	32347LMNMF300IN	ALUMINUM FABRICATED PRODS. INC.	300 INDUSTRIAL PARK DR.	PERRY	TAYLOR	FL	32347	ALUMINUM FABRICATED PRODS. INC.	300 INDUSTRIAL PARK DR.	PERRY	FL		32347	YES	NO	NO		ROBERT KIPLEY	9045846898	3443							332322						30.0788	-83.5723	045982089		FLD982169500						KYSOR INDUSTRIAL CORP.	006021141	NO		
1988	VICE PRESIDENT	LEE J. ALLISON	32805MMTLF2117S	AM METAL FINISHING	2117 S DIVISION AVE	ORLANDO	ORANGE	FL	32805	AM METAL FINISHING	2117 S DIVISION AVE	ORLANDO	FL		32805	YES	NO	NO		LEE ALLISON	4078430182	3479							332812						28.518	-81.3849			FLD981924863								NO		
1990		JAMES CRUMPLER	33142MCSTR4000N	AMCAST AEROSPACE PRODUCTS MIAMI DIV.	4000 N.W. 28TH ST.	MIAMI	DADE	FL	33142	AMCAST AEROSPACE PRODUCTS MIAMI DIV.	4000 N.W. 28TH ST.	MIAMI	FL		33142	YES	NO	NO		JAMES CRUMPLER	3058715600	3999							336399						25.801033	-80.261716	004277208		FLD981920689						AMCAST INDUSTRIAL CORP.	004277208	NO		
2005	PRESIDENT/C.E.O.	ANDRES F. FERNANDEZ	33147MRCNM3545N	AMERICAN AMMUNITION INC	3545 NW 71 ST	MIAMI	MIAMI-DADE	FL	33147	AMERICAN AMMUNITION INC	3545 NW 71 ST	MIAMI	FL		33147	YES	NO	NO	NO	ANDRES F FERNANDEZ	3058357400	3482							332992						25.838222	-80.254873	602352569										NO		
2007	VICE PRESIDENT	RENEE WAMBOLD	32773MRCNB1650E	AMERICAN BRONZE FOUNDRY INC.	1650 E LAKE MARY BLVD	SANFORD	SEMINOLE	FL	32773	AMERICAN BRONZE FOUNDRY INC.	1650 E LAKE MARY BLVD	SANFORD	FL		32773	YES	NO	NO	NO	RENEE WAMBOLD	4073288090	3366							331528						28.758958	-81.277104	790889133										NO	RENEE@AMERICANBRONZE.COM	
2007	PRESIDENT	RONNIE WALKER	32696MRCNCRTE4B	AMERICAN COMPOSITES ENGINEERING INC.	20653 NE HWY 27	WILLISTON	LEVY	FL	32696	AMERICAN COMPOSITES ENGINEERING INC.	20653 NE HWY 27	WILLISTON	FL		32696	YES	NO	NO	NO	RONNIE WALKER	3525285007	3089							326199						29.3863	-82.4263											NO	NA	
2007	PRESIDENT	KIRK SULLIVAN	33801SNJNF2302L	AMERICAN ENVIRONMENTAL CONTAINER CORP	2302 LASSO LN	LAKELAND	POLK	FL	33801	AMERICAN ENVIRONMENTAL CONTAINER CORP	2302 LASSO LN	LAKELAND	FL		33801	YES	NO	NO	NO	KIRK SULLIVAN	8636663020	3089							326130						28.017125	-81.878854											NO	NA	
1989	VICE PRESIDENT ENVIRONMENTAL AFFAIRS	BILLIE W. WILLIAMS	33010MRCNL990W2	AMERICAN FINISHES INC	990 W 23RD ST	HIALEAH	DADE	FL	33010	AMERICAN FINISHES INC	990 W 23RD ST	HIALEAH	FL		33010	YES	NO	NO		BILLIE W WILLIAMS	8132365594	2851							325510						25.842225	-80.302209	002353308		FLA002353316								NO		
1988	ENVIRONMENTAL AFFAIRS	BILLIE W. WILLIAMS	33610MRCNL990WE	AMERICAN LACQUER & SOLVENTS CO	990 W 23RD ST	TAMPA	HILLSBOROUGH	FL	33610	AMERICAN LACQUER & SOLVENTS CO	2601 E HENRY AVE	TAMPA	FL		33610	YES	NO	NO		BILLIE W WILLIAMS	8132365594	2851							325510						28.498889	-82.430833	002353308		FLA002353308								NO		
2001	GENERAL MANAGER	PETER LIAKOS	33442MRCNM1498N	AMERICAN MANUFACTURING SERVICES FLORIDA DIV	1498 NW 3RD ST	DEERFIELD BEACH	BROWARD	FL	33442	AMERICAN MANUFACTURING SERVICES FLORIDA DIV	1498 NW 3RD ST	DEERFIELD BEACH	FL		33442	YES	NO	NO	NO	PETER LIAKOS	9543607200	3672							334412						26.321328	-80.124368	101666829		FLD089617088								NO		
1998	OWNER	ROBERT A. HOLECHEK	33311MRCNM725NO	AMERICAN MARBLE INC	725 NW 8TH AVE	FORT LAUDERDALE	BROWARD	FL	33311	AMERICAN MARBLE INC	PO BOX 1101	BOYNTON BEACH	FL		33425	YES	NO	NO		ROBERT HOLECHEK	5617374322	3089							326199						26.131693	-80.152701											NO		
2005	PRESIDENT	ROBERT HOLECHEK	33426MRCNM1420N	AMERICAN MARBLE INC	1420 NEPTUNE DR	BOYNTON BEACH	PALM BEACH	FL	33426	AMERICAN MARBLE INC	PO BOX 1101	BOYNTON BEACH	FL		33425	YES	NO	NO	NO	ROBERT HOLECHEK	5617374322	3089							327991						26.489585	-80.086953											NO		
1996	MGR.	GEOFFREY A. WORTELY	32205MRCNN3331W	AMERICAN NATIONAL CAN CO JACKSONVILLE FACILITY	3331 W. 12TH ST.	JACKSONVILLE	DUVAL	FL	32205	AMERICAN NATIONAL CAN CO JACKSONVILLE FL FACILITY	8770 W. BRYN MAWR AVE., MAIL CODE 11M	CHICAGO	IL		60631-3504	YES	NO	NO		CAROL CONSTANTINE	7733993786	3411							332431						30.350994	-81.725716	005105366		FLD050769090						AMERICAN NATIONAL CAN CO	005105366	NO		
2007	EXECUTIVE VICE PRESIDENT	HARMON S. LEWIS	34472MRCNP5800S	AMERICAN PANEL CORP	5800 SE 78TH ST	OCALA	MARION	FL	34472	AMERICAN PANEL CORP	5800 SE 78TH ST	OCALA	FL		34472	YES	NO	NO	NO	HARMON S. LEWIS	3522457055	3585							333415						29.109723	-82.053552	004134466										NO	HARMON@AMERICANPANEL.COM	
1999	MANAGER	GENE BORDINGER	32137MRCNR32HAR	AMERICAN RADIONIC CO INC	32 HARGROVE GRADE	PALM COAST	FLAGLER	FL	32137	AMERICAN RADIONIC CO INC	PO BOX 352919	PALM COAST	FL		32135-2919	YES	NO	NO		GENE BORDINGER	9044456000	3675							334414						29.555546	-81.269052	001177070										NO		
1990	V.P. MAN	RONALD J. GOBLE	32738MRCNS301EN	AMERICAN SKIER	301 ENTERPRISE DR	OCOEE	ORANGE	FL	34761	AMERICAN SKIER	PO BOX 150189	CAPE CORAL	FL		33915-0189	YES	NO	NO		R J GOBLE	4066363332	3730							336612						28.562575	-81.550491	060941888										NO		
1994	VICE PRESIDENT	MICHAEL C. CARLTON	32674TRNDS1510S	AMERICAN TECHNOLOGIES & RESEARCH INDUSTRIES INC	1510 SW 17TH ST	OCALA	MARION	FL	34474	AMERICAN TECHNOLOGIES & RESEARCH INDUSTRIES INC	730 OLD WILSON HILL RD	GREENEVILLE	TN		37745	YES	NO	NO		MICHAEL C CARLTON	9046224242	3999							339999						29.171559	-82.151654	050457183		FLD050457183								NO		
2007	VICE PRESIDENT OF OPERATIONS	THOMAS KEUP	33054MRCNT4851N	AMERICAN THERMOPLASTIC EXTRUSION CO	4851 N W 128TH ST RD	OPA LOCKA	MIAMI-DADE	FL	33054	AMERICAN THERMOPLASTIC EXTRUSION CO	4851 N W 128TH ST RD	OPA LOCKA	FL		33054	YES	NO	NO	NO	THOMAS G. KEUP	3057699566	3089							326199						25.8934	-80.2774	004124863										NO	TKEUP@ATECOV.COM	
2006	CFO	TONY RICKETTS	33020MRCNW3050N	AMERICAN WHIRLPOOL PRODUCTS INC.	3050 N.29TH CT	HOLLYWOOD	BROWARD	FL	33020	THE PRAXIS COS LLC.	435 INDUSTRIAL RD	SAVANNAH	TN		38372	YES	NO	NO	NO	CARLOS GONZALES	9549854416	3089							326191						26.037002	-80.166813	018238829								THE PRAXIS COS LLC.	018238829	NO		
2002	PRESIDENT	SALLY J. MIXON	32904MRTRN7800T	AMERTRON INC	7800 TECHNOLOGY DRIVE	WEST MELBOURNE	BREVARD	FL	32904	AMERTRON INC	PO BOX 458	MELBOURNE	FL		32902	YES	NO	NO	NO	SALLY J MIXON	3217237308	3621							335312						28.098064	-80.686395	067865162										NO		
1998	TERMINAL MANAGER	WANDA MULLIS	32226MCLC02054H	AMOCO OIL CO.	2054 HECKSCHER DR.	JACKSONVILLE	DUVAL	FL	322262364	AMOCO OIL CO.	2054 HECKSCHER DR.	JACKSONVILLE	FL		32226-2364	YES	NO	NO		JAY SCRIVNER	7705169017	5171							424710						30.412806	-81.607806			FLD055346134						AMOCO CORP.	001344258	NO		
2004	VP OF SAFETY AND ENVIRONMENTAL	A. MONTE MCCALL	32205PTRCH2910W	AMREP AUTOMOTIVE PRODUCTS GROUP	2910 W BEAVER ST	JACKSONVILLE	DUVAL	FL	32254	AMREP AUTOMOTIVE PRODUCTS GROUP	2910 W BEAVER ST	JACKSONVILLE	FL		32254	YES	NO	NO	NO	DARRAN CHASE	7704222071	2899							325998						30.329722	-81.71777	051010429		FLD020982716		FLR05A798				AMREP INC.	051010429	NO		
1992	PLANT MGR.	KENNETH R. TROUP	32205NCHRG2121H	ANCHOR GLASS CONTAINER CORP.	2121 HURON ST.	JACKSONVILLE	DUVAL	FL	32254	ANCHOR GLASS CONTAINER CORP.	2121 HURON ST.	JACKSONVILLE	FL		32254	YES	NO	NO		RAY R. COATS	9047861010	3221							327213						30.349724	-81.714115	004059861		FLD004059861						VITRO S.A.		NO		
2007	PRESIDENT	GERRIT WALSH	33147NGLRB74NW3	ANGLER BOAT CORP	7400 NW 37TH AVE	MIAMI	MIAMI-DADE	FL	33147	ANGLER BOAT CORP	7400 NW 37TH AVE	MIAMI	FL		33147	YES	NO	NO	NO	GERRIT WALSH	3056919975	3732							336612						25.841478	-80.257971	065670135										NO		
1999	PRESIDENT	GERRITT WALSH	33054NGLRB4450N	ANGLER BOAT CORP	4450 NW 128TH ST	OPA LOCKA	DADE	FL	33054	ANGLER BOAT CORP	4450 NW 128TH ST	OPA LOCKA	FL		33054	YES	NO	NO		GARRITT WALSH	3055528040	3732							336612						25.8897	-80.2722	065670135		FLD984253906								NO		
1995	PLANT MANAGER	RENAUL ABEL	33612NHSRB3000E	ANHEUSER-BUSCH INC	3000 E. BUSCH BLVD.	TAMPA	HILLSBOROUGH	FL	33612	ANHEUSER-BUSCH INC.	P.O. BOX 9245	TAMPA	FL		33674	YES	NO	NO		RENAUL ABEL	3145897837	2082							312120						28.03264	-82.425825	006288799		FLD000409409						ANHEUSER-BUSCH COS INC	098630254	NO		
2007	PLANT MANAGER	MR. STEVE MCDANIEL	32218NHSRB111BU	ANHEUSER-BUSCH, INC.	111 BUSCH DR	JACKSONVILLE	DUVAL	FL	322185595	ANHEUSER-BUSCH, INC.	111 BUSCH DR	JACKSONVILLE	FL		322185595	YES	NO	NO	NO	KEN WILKEY	9047518080	2082							312120						30.448917	-81.647056	006288799								ANHEUSER-BUSCH COS INC.	098630254	NO	KEN.WILKEY@ANHEUSER-BUSCH.COM	
2005	C.E.O.	RONALD S. POSNER	34472NTNNS35CYP	ANTENNAS FOR COMMUNICATIONS	350 CYPRESS RD	OCALA	MARION	FL	34472	ANTENNAS FOR COMMUNICATIONS	350 CYPRESS RD	OCALA	FL		34472	YES	NO	NO	NO	STEVE SPIVEY	3526874121	3661							334220						29.087553	-82.007847	059710772		FLD982085037								NO		
2007	PRESIDENT	CLYDE GARVER	34641NVLPN1255S	ANVIL PAINTS & COATINGS INC.	1255 STARKEY RD	LARGO	PINELLAS	FL	33771	ANVIL PAINTS & COATINGS INC.	1255 STARKEY RD	LARGO	FL		33771	YES	NO	NO	NO	CLYDE GARVER	7275351411	2851							325510						27.904676	-82.762331											NO	CGARVER@ANVILPAINTS.COM	
2007	PLANT MANAGER	CHRISTOPHER DYE	33805LPHRS4620N	AOC LLC	4620 N GALLOWAY RD	LAKELAND	POLK	FL	33810	AOC LLC	4620 N GALLOWAY RD	LAKELAND	FL		33810	YES	NO	NO	NO	CHRISTOPHER M. DYE	8638155026	2821							325211						28.10083	-82.00971	876314329								THE ALPHA CORP	007037765	NO	CDYE@AOC-RESINS.COM	
2003	PRODUCTION MANAGER	LINDA SHEPPARD	33178PCMMS12201	APAC - MIAMI ASPHALT PLANT	12201 NW 41ST ST	MIAMI	MIAMI-DADE	FL	33178	APAC- SOUTHEAST INC	PO BOX 2579	SARASOTA	FL		34230	YES	NO	NO	NO	DAVID A. SONOFRIO, PRESIDENT	9413557178	2951	1422						324121						25.811651	-80.39308	039195045								ASHLAND INC	005003264	NO		
2007		TODD PFEIFFER	34744PCKSS733ED	APAC KISSIMMEE PLANT	733 E DUNCAN AVE	KISSIMMEE	OSCEOLA	FL	34744	APAC SOUTHEAST INC CENTRAL FLORIDA	4636 SCARBOROUGH DR	LUTZ	FL		33559	YES	NO	NO	NO	TODD PFEIFFER	8139732888								324121						28.321927	-81.396359	112758800								APAC HOLDINGS INC.		NO	TMPFEIFFER@APAC.COM	
2007		TODD PFEIFFER	32910PCMLB621NU	APAC MELBOURNE PLANT	6210 N US 1	MELBOURNE	BREVARD	FL	32910	APAC - SOUTHEAST INC CENTRAL FLORIDA	4636 SCARBOROUGH DR	LUTZ	FL		33559	YES	NO	NO	NO	TODD PFEIFFER	8139732888								324121						28.21234	-80.665451	112758800								APAC HOLDINGS INC.		NO	TMPFEIFFER@APAC.COM	
2000	EHS DIRECTOR	MICHAEL LYTTLE	33166PCPNM8000N	APAC PAN AMERICAN CONSTRUCTION	8000 N.W. 74TH ST.	MEDLEY	MIAMI-DADE	FL	33166	APAC PAN AMERICAN CONSTRUCTION	8000 N.W. 74TH ST.	MEDLEY	FL		33166	YES	NO	NO		MICHAEL LYTTLE		2951							324121						25.840674	-80.326541	039919504		025001001A0		IW001399				ASHLAND INC.	005003264	NO		
2007		TODD PFEIFFER	33605PCFLR4101M	APAC PORT OF TAMPA PLANT	4101 MARITIME BLVD	TAMPA	HILLSBOROUGH	FL	33605	APAC - SOUTHEAST INC CENTRAL FLORIDA	4636 SCARBOROUGH DR	LUTZ	FL		33559	YES	NO	NO	NO	TODD PREIFFER	8139732888								324121						27.914071	-82.437679	112758800				FLR05C551				APAC HOLDINGS INC.		NO	TMPFEIFFER@APAC.COM	
2003	DIVISION PRESIDENT APAC S.E. GULF COAST	JIMMY STRAIN	32503PCSTH4375M	APAC SOUTHEAST GULF COAST DIV	4375 MCCOY DR	PENSACOLA	ESCAMBIA	FL	32503	APAC SE GC DIV (NEW MCCOY PLANT)	4375 MCCOY DR	PENSACOLA	FL		32503	YES	NO	NO	NO	KENDRICK BLANTON	8504333001	2951							324121						30.45902	-87.226865	090013405								ASHLAND INC	005003264	NO		
2007		TODD PFEIFFER	33610PCFLR6701E	APAC SOUTHEAST INC TAMPA ASPHALT PLANT	6701 E HANNA AVE	TAMPA	HILLSBOROUGH	FL	33610	APAC-SOUTHEAST INC CENTRAL FLORIDA	4636 SCARBOROUGH DR	LUTZ	FL		33559	YES	NO	NO	NO	TODD PFEIFFER	8139732888	2951							324121						28.003386	-82.379581	112758800				FLR05C506				APAC HOLDINGS INC.		NO	TMPFEIFFER@APAC.COM	
2007		TODD PFEIFFER	33881PCSTH14454	APAC-SOUTHEAST INC WINTER HAVEN ASPHALT PLANT	1445 42ND ST NW	WINTER HAVEN	POLK	FL	33881	APAC-SOUTHEAST INC CENTRAL FLORIDA	4636 SCARBOROUGH DR	LUTZ	FL		33559	YES	NO	NO	NO	TODD PFEIFFER	8139732888	2951							324121						28.039463	-81.776111	112758800								APAC HOLDINGS INC.		NO	TMPFEIFFER@APAC.COM	
2007		TODD PFEIFFER	32708PCSTH655SR	APAC-SOUTHEAST INC-WINTER SPRINGS ASPHALT PLANT	655 SR 419	WINTER SPRINGS	SEMINOLE	FL	32708	A-AC-SOUTHEAST INC CENTRAL FLORIDA	4636 SCARBOROUGH DR	LUTZ	FL		33559	YES	NO	NO	NO	TODD PFEIFFER	8139732888	2951							324121						28.711111	-81.3	112758800								APAC HOLDINGS INC.		NO	TMPFEIFFER@APAC.COM	
2003	GENERAL MANAGER	J.T. RYAN	33144DYPLS1020S	APACHE PRODUCTS CO	1020 SW 69TH AVE	MIAMI	MIAMI-DADE	FL	331440488	APACHE PRODUCTS CO	12501 NW 38 AVE	MIAMI	FL		33054	YES	NO	NO	NO	JACK RYAN	3059210106	3086							325211						25.760079	-80.307629	124636036								JASPER CORP	186886784	NO		
2007	GENERAL MANAGER	KENNY SPARKS	32321PLCHPHIGHW	APALACHEE POLE CO	HWY 12 S	BRISTOL	LIBERTY	FL	32321	APALACHEE POLE CO	PO BOX 610	BRISTOL	FL		32321	NO	YES	NO	NO	DAVID POWELL	8506432121	2491	2421						321113						30.3465	-84.9927	154445172	618858641	FLD981920929		FLR05B652						NO	DPOWELL@APALACHEEPOLE.NET	
1996	ENVIRONMENTAL DIR.	GORDON MUNSELL	32117FMPLS1845H	APOGEE PLASTIC TECHS. INC.	1845 HOLSONBACK DR.	DAYTONA BEACH	VOLUSIA	FL	32117	APOGEE PLASTIC TECHS. INC.	1845 HOLSONBACK DR.	DAYTONA BEACH	FL		32117	YES	NO	NO		GORDON MUNSELL	9042742222	3087							325991						29.213723	-81.076002	612923292		FLD982106775								NO		
1987	OPERATIONS MANAGER	GERALD A. ROUCH	32205PPRSN2903S	APPERSON CHEMICALS INC	2903 STRICKLAND ST	JACKSONVILLE	DUVAL	FL	32254	APPERSON CHEMICALS INC	2903 STRICKLAND ST	JACKSONVILLE	FL		32254	YES	NO	NO				5169													30.330561	-81.702033	102971785		FLO000596866								NO		
1987	OPERATIONS MANAGER	GERALD A. ROUCH	33069PPRSN101NW	APPERSON CHEMICALS INC.	101 N. W. 13TH. AVE.	POMPANO BEACH	BROWARD	FL	33069	APPERSON CHEMICALS INC.	101 N. W. 13TH. AVE.	POMPANO BEACH	FL		33069	YES	NO	NO		JOHN FOSTER	3057818990	5169													26.23444	-80.142322	004079380								ELLIS & EVERARD		NO		
2005	PRESIDENT / GENERAL MANAGER	JOHN ACKERMAN	32955PPLDM550GU	APPLIED MANUFACTURING CONCEPTS INC	550 GUS HIPP BLVD	ROCKLEDGE	BREVARD	FL	32955	APPLIED MANUFACTURING CONCEPTS INC	550 GUS HIPP BLVD	ROCKLEDGE	FL		32955	YES	NO	NO	NO	ANNE HATTAWAY	3216313315	3679							334000						28.304104	-80.71781	606294692										NO		
2003	PRESIDENT/OWNER	WILLIAM A. KENT	33713QCLNC27372	AQUACAL INC	2737 24TH ST N	SAINT PETERSBURG	PINELLAS	FL	33713	AQUACAL INC	2737 24TH ST N	SAINT PETERSBURG	FL		33713	NO	NO	NO	NO	JEFFERY A. TAWNEY	7278235642	3585							333415						27.796836	-82.665201	793510751								HORNERXPRESS SOUTH FLORIDA	046029518	NO		
2006	DIRECTOR OF MIRROR OPERATIONS	ANTHONY S. LAWSON	34954RCHMR7413C	ARCH MIRROR SOUTH	7413 COMMERCIAL CIR	FORT PIERCE	ST LUCIE	FL	34951	ARCH MIRROR SOUTH	7413 COMMERCIAL CIR	FORT PIERCE	FL		34951	YES	NO	NO	NO	KURT CARLSON	7724680460	3231							327215						27.475	-80.4059	091463414								ARCH ALUMINUM & GLASS LLC	091463414	NO		
1998	PLANT MANAGER	BRADLEY K JACKSON	32721RDMRF1915N	ARDMORE FARMS INC	1915 N WOODLAND BLVD	DE LAND	VOLUSIA	FL	327200183	ARDMORE FARMS INC	1915 N WOODLAND BLVD	DE LAND	FL		32720-0183	YES	NO	NO		DAVID BLAIR	3307533217	2037							311411						29.067538	-81.30477	013829387		FLD982112245		FLR05B586				COUNTRY PURE FOODS INC	079295010	NO		
2007	PLANT MANAGER	MIKE BRANTLEY	32456SYLVCPOBOX	ARIZONA CHEMICAL	345 KENNY MILL RD	PORT SAINT JOE	GULF	FL	32456	ARIZONA CHEMICAL	345 KENNY MILL RD	PORT SAINT JOE	FL		32456	YES	NO	NO	NO	MIKE BRANTLEY	8502298271	2861							325191						29.825355	-85.303418	061899944								ARIZONA CHEMICAL	001316561	NO	MICHAEL.BRANTLEY@AZCHEM.COM	
2007	PLANT MANAGER	HAROLD BEYER	32402RZNCHEVERE	ARIZONA CHEMICAL	2 S EVERITT AVE	PANAMA CITY	BAY	FL	32401	ARIZONA CHEMICAL	2 S EVERITT AVE	PANAMA CITY	FL		32401	YES	NO	NO	NO	DAVID COWFER	9049288860	2861	2821	2869	2899				325191	325199	325211				30.145513	-85.621106	004065926								ARIZONA CHEMICAL CO LLC	001316561	NO	DAVID.CAWFER@AZCHEM.COM	
2007	PLANT MANAGER	HAROLD BEYER	32501RZNCH411SO	ARIZONA CHEMICAL CO LLC	411 S PACE BLVD	PENSACOLA	ESCAMBIA	FL	32501	ARIZONA CHEMICAL CO LLC	411 S PACE BLVD	PENSACOLA	FL		32501	YES	NO	NO	NO	HAROLD BEYER	8509148308	2821							325211						30.408032	-87.24177	139305197										NO	HAL.BEYER1@AZCHEM.COM	
1993	OWNER	ROBERT COTTRELL	34641RJYND2020W	ARJAY INDUSTRIES INC	2020 WILD ACRES RD	LARGO	PINELLAS	FL	34641	ARJAY INDUSTRIES INC	2020 WILD ACRES RD	LARGO	FL		34641	YES	NO	NO		ROBERT COTTRELL	8135355531	3732							336612						27.898098	-82.754006											NO		
2007	PLANT MANAGER	JOHN T. BERTZ	32501RMSTR300SO	ARMSTRONG WORLD INDUSTRIES INC.	300 S MYRICK ST	PENSACOLA	ESCAMBIA	FL	32505	ARMSTRONG WORLD INDUSTRIES INC.	300 S MYRICK ST	PENSACOLA	FL		32505	YES	NO	NO	NO	GREG B. PINNEY	8504352274	3999							339999						30.4087	-87.2502	008163776								ARMSTRONG WORLD INDUSTRIES INC.	001307792	NO	GBPINNEY@ARMSTRONG.COM	
2007	PRESIDENT	J CHRIS JERNIGAN	32425RNLDL3185T	ARNOLD LUMBER CO INC.	3185 THOMAS DR	BONIFAY	HOLMES	FL	32425	ARNOLD LUMBER CO INC.	3185 THOMAS DR	BONIFAY	FL		32425	YES	NO	NO	NO	J CHRIS JERNIGAN	8505475733	2491							321114						30.759154	-85.684382											NO	CJERNIGAN@GSWP.NET	
1989	EXECUTIVE VICE PRES & CHIEF OPERATING OFFICER	MURRAY R. WHITE	33257RNLDP20400	ARNOLD PACKAGING CORP.	20400 S.W. 112 AVE.	MIAMI	DADE	FL	332570370	ARNOLD PACKAGING CORP.	20400 S.W. 112 AVE.	MIAMI	FL		33257-0370	YES	NO	NO		ARTHUR F. BIAGIOTTI	3052385961	2671	3081						322221						25.626098	-80.37418	004119251		FLD004119251						HP PACKAGING HOLDINGS INC.	131754178	NO		
2005	PRESIDENT	GLEN VARNADOE	33880RRMZP621SN	ARR-MAZ CUSTOM CHEMICALS	621 SNIVELY AVE	WINTER HAVEN	POLK	FL	33880	ARR-MAZ CUSTOM CHEMICALS	621 SNIVELY AVE	WINTER HAVEN	FL		33880	YES	NO	NO	NO	STEVE PASARAB	8635781206	2869							325998						27.990953	-81.734837	092983139		FLR000041319		FLR05C406				ARR-MAZ CUSTOM CHEMICALS	593264193	NO		
2007	CORP. ENV. SAFETY & HL DIRECTOR	STEVE BASARAB	33860WSTVCPOBOX	ARR-MAZ CUSTOM CHEMICALS	4800 STATE RD 60 E	MULBERRY	POLK	FL	33860	ARR-MAZ CUSTOM CHEMICALS	4800 STATE RD 60 E	MULBERRY	FL		33860	YES	NO	NO	NO	STEVE BASARAB	8635781230	2869							325199						27.8933	-81.9315	092983139										NO	SBASARAB@AM-CC.COM	
1987	ASST. SECRETARY	E. R. JONES	33430SGRWF425NW	ASGROW FLORIDA CO.	425 N.W. AVE. L	BELLE GLADE	PALM BEACH	FL	334300280	ASGROW FLORIDA CO.	4144 HWY 39 NORTH	PLANT CITY	FL		33565	YES	NO	NO		SIMMIE MCNEAL	8187521177	2879													26.69642	-80.671832	006923510		FLD032179178	FLD006923510					UPJOHN CO.	005320742	NO		
1988	DIRECTOR, ADMIN. SERVICES & ASST. SEC.	E. R.  JONES	33566SGRWF4144H	ASGROW FLORIDA CO.	4144 HWY. 39 N.	PLANT CITY	HILLSBOROUGH	FL	33566	ASGROW FLORIDA CO.	4144 HWY. 39 N.	PLANT CITY	FL		33566	YES	NO	NO		SIMMIE MCNEAL JR.	8137521177	2879							325320						28.0605	-82.118333	006923510		FLD006923510						UPJOHN CO.	005320742	NO		
2007	FACILITY MANAGER	HAROLD HAMILTON	33634SHLND5125W	ASHLAND DISTRIBUTION CO	5125 W HANNA AVE	TAMPA	HILLSBOROUGH	FL	33634	ASHLAND INC	5200 BLAZER PKWY DS-4	DUBLIN	OH		43017	YES	NO	NO	NO	JIM VITAK	6147903517	5169							424690						28.003568	-82.52941	063499917								ASHLAND INC	005003264	NO	JEVITAK@ASHLAND.COM	
2007	PLANT MANAGER	JUAN DE LA CRUZ	33162SHLND200NE	ASHLAND DISTRIBUTION CO	200 NE 181ST ST	MIAMI	MIAMI-DADE	FL	33162	ASHLAND INC	5200 BLAZER PARKWAYDS-4	DUBLIN	OH		43017	YES	NO	NO	NO	JIM VITAK	6147903715	5169							424690						25.939795	-80.195348	059861344								ASHLAND INC	005003264	NO	JEVITAK@ASHLAND.COM	
1998	PLANT MANAGER	DEAN HAMILTON	33616SHLND5600C	ASHLAND DISTRIBUTION CO.	5600 COMMERCE ST.	TAMPA	HILLSBOROUGH	FL	33616	ASHLAND DISTRIBUTION CO.	5600 COMMERCE ST.	TAMPA	FL		33616	YES	NO	NO		JIM VITAK	6147903715	5169							424690						27.862083	-82.539717	884640210		FLD000649095		FL0039110				ASHLAND INC.	005003264	NO		
2007	PLANT MANAGER	MICHAEL LEWIS	33830RSTCHSOUTH	ASHLAND INC	2801 STATE RD 60 W	BARTOW	POLK	FL	33830	ASHLAND INC	PO BOX 2130	BARTOW	FL		33831	YES	NO	NO	NO	JIM VITAK	6147903715	3087							325991						27.8972	-81.8985	128456936								ASHLAND INC	005003264	NO	JEVITAK@ASHLAND.COM	
2007	VP OPERATIONS	SAMUEL CANNON	33619MRNSP5201C	ASSOCIATED ASPHALT TAMPA LLC	5201 CAUSEWAY BLVD	TAMPA	HILLSBOROUGH	FL	33619	ASSOCIATED ASPHALT TAMPA LLC	PO BOX 75437	TAMPA	FL		33675	YES	NO	NO	NO	SAM CANNON, JR.	5403458867	2951							324121						27.92288	-82.397549	023938426								ASSCOCIATED ASPHALT INC	023938426	NO	SCANNON@ASSOCIATEDASPHALT.COM	
2001	VICE PRESIDENT OF FOOD SERVICE DIVISION	JON ESPING	32641TKNST1855N	ATKINS TECHNICAL INC	1855 NE 12TH AVE	GAINESVILLE	ALACHUA	FL	32641	ATKINS TECHNICAL INC	1855 NE 12TH AVE	GAINESVILLE	FL		32641	YES	NO	NO	NO	MIKE KRZEMINSKI	3523817943	3823							334513						29.663952	-82.303717	004426813		FLD982143018						COOPER INSTRUMENT CORP	001145507	NO		
1989	GENERAL MANAGER	JON C. SCUSSEL	33309TLNTC5307N	ATLANTIC BACKPLANE CO.	5307 N.W. 35TH TERRACE	FORT LAUDERDALE	BROWARD	FL	33309	ATLANTIC BACKPLANE CO.	5307 N.W. 35TH TERRACE	FORT LAUDERDALE	FL		33309	YES	NO	NO		BRIAN M. VAN DAM SR.	2036842746	3679							334417						26.189798	-80.198185	001023472		FLD982138687						TYCO INTL. (US) INC.	001023472	NO		
1992	GENERAL MANAGER	PATRICK T. CROWLEY	33064TLNTC2681N	ATLANTIC COAST ELECTRONICS	2681 N.E. 4TH AVE.	POMPANO BEACH	BROWARD	FL	33064	ATLANTIC COAST ELECTRONICS	2681 N.E. 4TH AVE.	POMPANO BEACH	FL		33064	YES	NO	NO		PATRICK T. CROWLEY	3059437300	3672							334412						26.264558	-80.115766	051335115		FLD051335115						TYCO INTERNATIONAL (US) INC	001023472	NO		
2005	ENVIRONMENTAL/SAFETY DIRECTOR	WAYNE S. HOLT	32226TLNTC8500A	ATLANTIC DRY DOCK CORP	8500 HECKSCHER DR	JACKSONVILLE	DUVAL	FL	32226	ATLANTIC DRY DOCK CORP	8500 HECKSCHER DR	JACKSONVILLE	FL		32226	NO	YES	NO	NO	WAYNE S. HOLT	9042511582	3731							336611						30.389083	-81.457833	050765684		FLD050765684		FL0040592				ATLANTIC MARINE HOLDING CO	194634457	NO		
2007	ENVIRONMENTAL DIRECTOR	WAYNE S. HOLT	32226TLNTC8500H	ATLANTIC MARINE FLORIDA LLC	8500 HECKSCHER DR	JACKSONVILLE	DUVAL	FL	32226	ATLANTIC MARINE FLORIDA LLC	8500 HECKSCHER DR	JACKSONVILLE	FL		32226	YES	NO	NO	NO	WAYNE S. HOLT	9042513111	3731							336611						30.389083	-81.457833	050765684								ATLANTIC MARINE HOLDING CO	194634457	NO	WHOLT@ATLANTICMARINE.COM	
1994	VICE-PRESIDENT & GENERAL MANAGER	JOHN FANJUL	33430TLNTC15MIL	ATLANTIC SUGAR ASSOCIATION INC	ST RD 880 15 MILES E OF BELLE GLADE	BELLE GLADE	PALM BEACH	FL	33430	ATLANTIC SUGAR ASSOCIATION INC	PO BOX 1570	BELLE GLADE	FL		33430	YES	NO	NO		ERNESTO PRIEDE	5619966541	2061							311311						26.674	-80.6436			FLD004147187								NO		
1992	PRODUCTION MGR.	JIM BENZEL	32708TLNTCCOMFO	ATLANTIC YACHT CORP	COMFORT RD ST JOHNS RIVER BARGE PORT	PALATKA	PUTNAM	FL	32177	ATLANTIC YACHT CORP	COMFORT RD ST JOHNS RIVER BARGE PORT	PALATKA	FL		32177	YES	NO	NO		JIM BENZEL	9043288348	3732							336612						29.6871	-81.6539	038501649		FLD038501649								NO		
1999	VP OPERATIONS	THERMACELL TECHNOLOGIES, INC - JOHN DUFF	33166TLSCH4801N	ATLAS CHEMICAL CO.	4801 N.W. 77TH AVE.	MIAMI	DADE	FL	33166	ATLAS CHEMICAL CO.	4801 N.W. 77TH AVE.	MIAMI	FL		33166	YES	NO	NO		JOHN DUFF	3055923500	2851							325510						25.81732	-80.32131	004128625		FL0004128625						THERMACELL TECHS. INC.	878215615	NO		
1991	PRESIDENT	REMBERTO BASTANZURI	33013TLSPP3725E	ATLAS PAPER MILLS LTD	3725 E 10TH CT	HIALEAH	DADE	FL	33013	ATLAS PAPER MILLS LTD	3725 E 10TH CT	HIALEAH	FL		33013	YES	NO	NO		ROBERTO GONZALEZ	3058358046	2621							322121						25.857642	-80.260692											NO		
2006	GENERAL MANAGER	ROBERT CALLERY	33823BRNDL1501W	AUBURNDALE ENERGY COMPLEX	1501 W DERBY AVE	AUBURNDALE	POLK	FL	33823	AUBURNDALE ENERGY COMPLEX	1501 W DERBY AVE	AUBURNDALE	FL		33823	YES	NO	NO	NO	ROBERT CALLERY	8635514660	4911							221112						28.055174	-81.803772	015836380								CALPINE CORP		NO		
1987	VICE-PRESIDENT, MANUFACTURING	JAMES D. FOLKERTS	33823BRNDLMCKEA	AUBURNDALE FREEZER	MCKEAN ST.	AUBURNDALE	POLK	FL	33823	AUBURNDALE FREEZER	P.O. BOX 247	AUBURNDALE	FL		33823	YES	NO	NO				3551													28.056603	-81.796704	UNKNOWN								AUBURNDALE FREEZER		NO		
1995	PRESIDENT	JAMES R. HOLCOMBE	34237TMTVL1312N	AUTOMOTIVE ELECTRONICS INC	1312 N LIME AVE	SARASOTA	SARASOTA	FL	34237	AUTOMOTIVE ELECTRONICS INC	1055 ARDEN AVE SW	ATLANTA	GA		30310	YES	NO	NO		JERRY K MOBLEY	4047587421	3714							336000						27.349259	-82.524227											NO		
2002	GENERAL MANAGER	CHRIS WEAVER	33309WCDT 6788N	AWI/CDT	6788 N.W. 17TH AVE.	FORT LAUDERDALE	BROWARD	FL	33309	AWI/CDT	6788 N.W. 17TH AVE.	FORT LAUDERDALE	FL		33309	YES	NO	NO	NO	ROBERT BAZZONE	9549795696	3678							334417						26.2083	-80.1683	039261295		FLD002172351						CABLE DESIGN TECHS. CORP.	009178666	NO		
2007	ENVIRONMENTAL MNGR	MICHAEL DENAPOLI	33619XNCRC424WA	AXON CIRCUIT INC	424 WARE BLVD	TAMPA	HILLSBOROUGH	FL	33619	AXON CIRCUIT INC	424 WARE BLVD	TAMPA	FL		33619	YES	NO	NO	NO	SCOTT E. STEWART	8136235200	3672							334412						27.946187	-82.347407	609441845										NO	SSTEWART@AXONCIRCUIT.COM	
2007	ENVIRONMENTAL MNGR	MICHAEL DENAPOLI	32750XNCRC155NA	AXON CIRCUIT INC LONGWOOD FACILITY	155 NATIONAL PL SUITE 105	LONGWOOD	SEMINOLE	FL	32750	AXON CIRCUIT INC LONGWOOD FACILITY	155 NATIONAL PL SUITE 105	LONGWOOD	FL		32750	YES	NO	NO	NO	SCOTT E. STEWART	8136235200	3672							334412						28.688191	-81.347699	609441845										NO	SSTEWART@AXONCIRCUIT.COM	
2007	MANAGER	BRYAN BROCK	33010BBCHM87520	B & B TRITECH INC	875 W 20TH ST	HIALEAH	MIAMI-DADE	FL	33010	B & B TRITECH INC	BOX 660-776	MIAMI SPRINGS	FL		33166	NO	NO	NO	NO	BRYAN BROCK	3058885247								325612						25.83958	-80.30013			FLD04574190								NO		
2007	VP AND GEN MGR	DAVID GILES	33178BRSPC91NW1	B/E AEROSPACE MEDLEY	9100 NW 105 CIR	MEDLEY	MIAMI-DADE	FL	33178	B/E AEROSPACE MEDLEY	9100 NW 105 CIR	MEDLEY	FL		33178	YES	NO	NO	NO	WALTER ALFARO	3054597000								336413						25.86688	-80.345911	044127439								B/E AEROSPACE INC	116169616	NO	WALTER_ALFARO@BEAEROSPACE.COM	
1993	OWNER/OPERATOR	W. H. BILL STUART JR.	33880BGLYB4000R	BAGLEY BAIT CO	4000 RECKER HWY	WINTER HAVEN	POLK	FL	33880	BAGLEY BAIT CO	PO BOX 810	WINTER HAVEN	FL		33882	YES	NO	NO		CHARLES STANKIEWICZ	9412944271	3949							339920						28.022233	-81.770996	194329454		FLD004094751								NO		
2007	PRESIDENT	KENNETH A. NALL	32066FRPNDHWY51	BAHA CRUISER BOATS INC.	668 N FLETCHER AVE	MAYO	LAFAYETTE	FL	32066	BAHA CRUISER BOATS INC.	PO BOX 1387	MAYO	FL		32066	YES	NO	NO	NO	KENNETH NALL	3862942447	3732							336612						30.0536	-83.1906											NO	NA	
1997	PRESIDENT	TIMOTHY P. CAULO	32811BKRMN4300L	BAKER MANUFACTURING INC	4300 L B MCLEOD RD	ORLANDO	ORANGE	FL	32811	BAKER MANUFACTURING INC	4300 L B MCLEOD RD	ORLANDO	FL		32811	YES	NO	NO		TIMOTHY P CAULO	4078169559	3088							326191						28.508717	-81.431393	789509395		FLD984245217								NO		
2007	PRESIDENT	TIMOTHY P. CAULO	32809BKRMN7460C	BAKER MANUFACTURING INC.	7460 CHANCELLOR DR	ORLANDO	ORANGE	FL	328096214	BAKER MANUFACTURING INC.	7460 CHANCELLOR DR	ORLANDO	FL		32809-6214	YES	NO	NO	NO	TIMOTHY P. CAULO	4078169559	3088							326191						28.461056	-81.412259	789509395										NO	TIMC@SPILLWAYSPAS.COM	
2007	SAFETY AND ENVIRONMENTAL HEALTH MANAGER	KIP FISHER	32072BKRPNUS90E	BAKER PAINT MANUFACTURING	21104 E US HWY 90	SANDERSON	BAKER	FL	32087	PRIDE ENTERPRISES	12425 28TH ST N	ST. PETERSBURG	FL		33716	YES	NO	NO	NO	KIP FISHER	7276391276	2851							325510						30.2159	-82.3725									PRIDE ENTERPRISES	076949346	NO	KFISHER@PRIDE-ENTERPRISES.COM	
2007	EHS MANAGER	TIM CASE	33617BLLPC4700W	BALL METAL BEVERAGE CONTAINER CORP	4700 WHITEWAY DR	TAMPA	HILLSBOROUGH	FL	33617	BALL CORP	9300 W 108TH CIR	BROOMFIELD	CO		80021	YES	NO	NO	NO	SCOTT MCCARTY	3034602103	3411							332431						28.047229	-82.406758	197312929								BALL CORP	006419147	NO	SMCCARTY@BALL.COM	
2000	DIRECTOR, ENVIRONMENTAL SERVICES	JOETTE BAILEY-KEOWN	33612RYNLD10420	BALL METAL BEVERAGE CONTAINER CORP.	10420 MALCOLM MCKINLEY DR.	TAMPA	HILLSBOROUGH	FL	336126409	BALL METAL BEVERAGE CONTAINER CORP.	9300 W. 108TH CIRCLE	BROOMFIELD	CO		80021-3682	YES	NO	NO	NO	SCOTT MCCARTY	3034602103	3411							332431						28.04279	-82.416312	021715826		FLD001893734		FLR05B675				BALL CORP.	006419147	NO		
1995	PRESIDENT/CEO	THOMAS M. BARNHARDT III	32678BRNHR4600N	BARNHARDT MANUFACTURING CO	4600 N.W. STATE RD. 326	OCALA	MARION	FL	34482	BARNHARDT MANUFACTURING CO	1100 HAWTHORNE LN.	CHARLOTTE	NC		28205	YES	NO	NO		CHUCK MARTIN	9043687840	2269							313310						29.266911	-82.201113	001348285								BARNHARDT MANUFACTURING CO	001348285	NO		
1990	CHIEF EXECUTIVE OFFICER	KURT J. WASSERMAN	32204BRRRN2433H	BARRIER INDUSTRIES INC BARRIER S. DIV.	2433 HARPER ST.	JACKSONVILLE	DUVAL	FL	32204	BARRIER INDUSTRIES INC BARRIER S. DIV.	2433 HARPER ST.	JACKSONVILLE	FL		32204	YES	NO	NO		KURT J. WASSERMAN	9148566633	2842							325612						30.330855	-81.690222	150550085								BARRIER SCIENCE & TECHNOLOGY INC	002014546	NO		
1994	PRES.	R. P. BASSO	32207BSTCH3211P	BASTECH INC	3211 POWERS AVE	JACKSONVILLE	DUVAL	FL	32207	BASTECH INC	3211 POWERS AVE	JACKSONVILLE	FL		32207	YES	NO	NO		RAYMOND P BASSO	9047371722	2899							325191						30.267582	-81.62534	042393694										NO		
2004	VICE PRESIDENT	MARK E. MERCIER	34619STRZP21PAR	BAUSCH & LOMB INC	21 PARK PL BLVD N	CLEARWATER	PINELLAS	FL	33759	BAUSCH & LOMB INC	21 PARK PL BLVD N	CLEARWATER	FL		33759	YES	NO	NO	NO	MARK E. MERCIER	7277246600	3851							325414						27.9623	-82.7261	835424813		FLR000045492						BAUSCH & LOMB	807927280	NO		
1999	DIRECTOR OF OPERATIONS	DENNIS O'BRIEN	34243BSCHL2040W	BAUSCH & LOMB INC	2040 WHITFIELD AVE	SARASOTA	MANATEE	FL	34243	BAUSCH & LOMB INC	2040 WHITFIELD AVE	SARASOTA	FL		34243	YES	NO	NO		BARBARA M KELLEY	7163385386	3851							339115						27.418197	-82.538835	097837009		FLD097837009								NO		
2007	PLANT MANAGER	STEVE WOODWARD	34643BXTRH75111	BAXTER HEALTHCARE CORP	7511-114TH AVE N	LARGO	PINELLAS	FL	33773	BAXTER HEALTHCARE CORP	PO BOX 1230	PINELLAS PARK	FL		33780	YES	NO	NO	NO	HERBERT WEIDA	7275482827	3841	3845						339112						27.87591	-82.743222	005146311								BAXTER HEALTHCARE CORP	005146311	NO	HERB_WEIDA@BAXTER.COM	
1989		JAY A. DAME	32060BYLNR140PA	BAYLINER MARINE CORP.	140 PALM AVE.	LIVE OAK	SUWANNEE	FL	32060	BAYLINER MARINE CORP.	140 PALM AVE.	LIVE OAK	FL		32060	YES	NO	NO		THOM RIS	2064355571	3732							336612						30.305814	-82.977268			FLD980803712						U.S. MARINE		NO		
2007	VICE PRESIDENT	DON CARLTON	33315BCDCN6TERM	BCAD CONSOLIDATED AUTO RENTAL	600 TERMINAL DR	FORT LAUDERDALE	BROWARD	FL	33315	PORT CONSOLIDATED INC	PO BOX 350430	FT LAUDERDALE	FL		33335	YES	NO	NO	NO	DON CARLTON	8773451098	5171							424720						26.070208	-80.141072											NO	NA	
2007	OPERATIONS MANAGER	NEIL BYCE, III	32608BRRCH46SW4	BEAR ARCHERY INC. DBA ESCALAD E SPORTS	4600 SW 41ST BLVD	GAINESVILLE	ALACHUA	FL	32608	BEAR ARCHERY INC. DBA ESCALAD E SPORTS	4600 SW 41ST BLVD	GAINESVILLE	FL		32608	YES	NO	NO	NO	NEIL BYCE, III	3523762327	3949							339920						29.61009	-82.380963	058312877								ESCALADE SPORTS INC.	058312877	NO	NA	
2004	CORPORATE MANAGER, EHS	KEVIN FENTON	33196BCKMN118SW	BECKMAN COULTER INC.	11800 SW 147TH AVE	MIAMI	MIAMI-DADE	FL	33196	BECKMAN COULTER INC.	PO BOX 169015, (M/C 32-B12)	MIAMI	FL		331169015	YES	NO	NO	NO	KEVIN FENTON	3053803568	3845	3826						334516						25.655989	-80.431725	091551650		FLD984257097						BECKMAN COULTER INC.	008254708	NO		
2005	CORPORATE MANAGER, EHS	KEVIN FENTON	33054CLTRC13165	BECKMAN COULTER INC.	13165 NW 47TH AVE	OPA LOCKA	MIAMI-DADE	FL	330544300	BECKMAN COULTER INC.	PO BOX 169015, (M/C 32-B12)	MIAMI	FL		331169015	YES	NO	NO	NO	KEVIN FENTON	3053803568	3845	3826						334516						25.893338	-80.275803	132919762								BECKMAN COULTER INC.	008254708	NO		
2001	CORPORATE MANAGER, EHS	KEVIN FENTON	33010CLTRC560W2	BECKMAN COULTER INC.	560 W. 20TH ST.	HIALEAH	MIAMI-DADE	FL	330102428	BECKMAN COULTER INC.	P.O. BOX 169015  MC 32-B12	MIAMI	FL		33116-9015	YES	NO	NO	NO	KEVIN FENTON	3053803568	3845	2835						334510						25.839824	-80.295216	960635670		FLR000008961						BECKMAN COULTER INC.	008254708	NO		
2007	GROUP MANAGER, EHS	KEVIN FENTON	33010BCKMN651W2	BECKMAN COULTER INC.	651 W 20TH ST	HIALEAH	MIAMI-DADE	FL	33010	BECKMAN COULTER INC.	11800 SW 147TH AVE (M/C 32-B12)	MIAMI	FL		33196	YES	NO	NO	NO	KEVIN FENTON	3053803568	3845	3826						334516						25.839824	-80.295216	011282790								BECKMAN COULTER INC.	008254708	NO		
2006	FACILITIES SUPERVISOR	LINDSEY F. MCDONALD	33773BCKWT61901	BECKWITH ELECTRIC CO INC	6190 118TH AVE N	LARGO	PINELLAS	FL	33773	BECKWITH ELECTRIC CO INC	6190 118TH AVE N	LARGO	FL		33773	YES	NO	NO	NO	LINDSEY F. MCDONALD	7275442326	3625	8711						INVALD	INVALD					27.879161	-82.721907	073198921										NO		
2003	SECRETARY	BRUCE MADEWELL	32043PRCBRBLDG1	BEETLE FLORIDA INC	BLDG 19 REYNOLDS INDUSTRIAL PARK	GREEN COVE SPRINGS	CLAY	FL	32043	BEETLE FLORIDA INC	PO DRAWER 1470	GREEN COVE SPRINGS	FL		32043	YES	NO	NO	NO	BRUCE MADEWELL	9096279822	3084							326122						29.979562	-81.653106			FLD079561514								NO		
1998	PRES.	JOHN C CERVO	32750BLLCH1340B	BELL ADDITIVES INC	1340 BENNETT DR	LONGWOOD	SEMINOLE	FL	32750	BELL ADDITIVES INC	1340 BENNETT DR	LONGWOOD	FL		32750	YES	NO	NO		JOHN C CERVO	4073392355	5169							424690						28.685364	-81.352112	792868705										NO		
1989	PRESIDENT	DAVID COLLINS	33811BLLCH4600D	BELL CHEMICAL CO	4600 DRANEFIELD RD	LAKELAND	POLK	FL	33811	BELL CHEMICAL CO	4600 DRANEFIELD RD	LAKELAND	FL		33811	YES	NO	NO		EMANUEL COLLINS	8136445700	5087							325612						27.996555	-82.041191	040222507										NO		
1987	PRESIDENT	DAVID COLLINS	33811BLLCH3511C	BELL CHEMICAL CO	3511 CENTURY BLVD	LAKELAND	POLK	FL	33811	BELL CHEMICAL CO	3511 CENTURY BLVD	LAKELAND	FL		33811	YES	NO	NO		DALE COLLINS	3136445700	5087													27.999441	-82.011387	040222507										NO		
2007	PRESIDENT	MONTE FRIEDKIN	33166BNDLM8800N	BENADA ALUMINUM OF FLORIDA	8800 NW 79TH AVE	MEDLEY	MIAMI-DADE	FL	33166	BENADA ALUMINUM OF FLORIDA	PO BOX 126100	HIALEAH	FL		33012	YES	NO	NO	NO	MONTE FRIEDKIN	3058831317	3354							331316						25.851555	-80.325573	799747324										NO		
2000	MFG. MGR.	SCOTT HAYNES	32219BMCJC4831B	BENJAMIN MOORE & CO.	4831 BULLS BAY HWY.	JACKSONVILLE	DUVAL	FL	32219	BENJAMIN MOORE & CO.	4831 BULLS BAY HWY.	JACKSONVILLE	FL		32219	YES	NO	NO	NO	RAYNA LAIOSA	9732522654	2851							325510						30.381201	-81.787735	181837238		FLR000006213						BENJAMIN MOORE & CO.	001210715	NO		
1995	PLANT MANAGER	SCOTT HAYNES	32202BNJMN1436E	BENJAMIN MOORE & CO. JACKSONVILLE	1436 E. ADAMS ST.	JACKSONVILLE	DUVAL	FL	32202	BENJAMIN MOORE & CO. JACKSONVILLE	4831 BULLS BAY HWY.	JACKSONVILLE	FL		32219	YES	NO	NO		RICHARD C. WHITING	9047869141	2851							325510						30.322606	-81.636182	004061099		FLD004061099						BENJAMIN MOORE & CO.	001210715	NO		
2007	MANAGER FACILITIES, SAFETY & ENV AFFAIRS	HANS KUX	33142BRTRM3663N	BERTRAM YACHT INC.	3663 NW 21ST ST	MIAMI	MIAMI-DADE	FL	33142	BERTRAM YACHT INC.	3663 NW 21ST ST	MIAMI	FL		33142	YES	NO	NO	NO	HANS KUX	3056638011	3732							336612						25.794698	-80.255348	794685883										NO	HANS.KUX@BERTRAM.COM	
1998	ASSISTANT DIR. OF OPS.	ENRIQUE RIVERA	33167BVRGC3550N	BEVERAGE CANNERS INTERNATIONAL CORP	3550 NW 110 ST	MIAMI	DADE	FL	33167	BEVERAGE CANNERS INTERNATIONAL CORP	PO BOX 680280	MIAMI	FL		33168-0280	YES	NO	NO		JOHN GOOD	3057147123	2086							312110						25.873681	-80.257137	004143574				592311443						NO		
1998	DIRECTOR OF OPERATIONS	KEITH HAGERICH	33122CLVLN6445N	BFGOODRICH AEROSPACE LANDING GEAR SERVICES DIV.	6445 N.W. 25TH ST.	MIAMI	DADE	FL	33122	BFGOODRICH AEROSPACE LANDING GEAR SERVICES DIV.	3201 N.W. 167TH ST.	MIAMI	FL		33056-4253	YES	NO	NO		KEITH HAGERICH	3056224500	3728							336413						25.797105	-80.301252	555945120		FLD991279928						BFGOODRICH CO.	004467452	NO		
1994	PLANT ENGINEERING MGR.	JOSEPH P. DODGE	34620BCCRP14421	BIC CORP. SPECIAL MARKETS DIV.	14421 MYERLAKE CIR.	CLEARWATER	PINELLAS	FL	34620	BIC CORP. SPECIAL MARKETS DIV.	P.O. BOX 23088	TAMPA	FL		INVALID-2088	YES	NO	NO		JOSEPH P. DODGE	8135367895	2759	3951	3993					339941						27.90326	-82.711494	094611043		FLD094611043						BIC CORP.	001166586	NO		
1990	OPERATIONS MANAGER	RALPH MARATIN	33309BLCKF1899S	BLACKFIN YACHT CORP.	1899 S.W. 31ST AVE.	PEMBROKE PARK	BROWARD	FL	33309	BLACKFIN YACHT CORP.	P.O. BOX 22982	FORT LAUDERDALE	FL		33335	YES	NO	NO		RALPH MARTIN	3055256314								332813						25.995113	-80.168742			FLD982124828						WESMAR PARTNERS		NO		
2000	VICE PRESIDENT	KEITH CRAFT	32514BLZRB3325A	BLAZER BOATS INC	3325 ADDISON DR	PENSACOLA	ESCAMBIA	FL	32514	BLAZER BOATS INC	3325 ADDISON DR	PENSACOLA	FL		32514	YES	NO	NO	NO	KEITH CRAFT	8504782290	3732							336612						30.530854	-87.193332	039564612		FLD982115750								NO		
2007	VICE PRESIDENT	KEITH CRAFT	32514BLZRB3300M	BLAZER BOATS INC	3300 METZGER LN	PENSACOLA	ESCAMBIA	FL	32514	BLAZER BOATS INC	3300 METZGER LN	PENSACOLA	FL		32514	YES	NO	NO	NO	KEITH CRAFT	8504782290	3732							336612						30.523124	-87.187353	039564612										NO	KCRAFT@BLAZERBOATS.COM	
1999	CORPORATE SAFETY AND ENVIRONMENTAL MANAGER	PATRICK J. ROSS	32254BLRRW5244E	BLUE ARROW PRODS. INC.	5244 EDGEWOOD CT.	JACKSONVILLE	DUVAL	FL	32254	BLUE ARROW PRODS. INC.	5244 EDGEWOOD CT.	JACKSONVILLE	FL		32254	YES	NO	NO		MICKEY CLERC	9047835000	2841							325611						30.325136	-81.735503	006921902				FLR05C204				WINN-DIXIE STORES  INC.	006921902	NO		
2007	PRESIDENT	ROGER ERDELAC	34641BLDLP20553	BLUE HAWAIIAN PRODUCTS INC	2055 BLUE HAWAIIAN DR	LARGO	PINELLAS	FL	33771	BLUE HAWAIIAN PRODUCTS INC	2055 BLUE HAWAIIAN DR	LARGO	FL		33771	YES	NO	NO	NO	ROGER ERDELAC	7275355677	3999							339999						27.896669	-82.752668											NO	ROGERE@BLUEHAWAIIANFIBERGLASSPOOLS.COM	
2003		PAUL SKILOWITZ	34946BLWTR291IN	BLUEWATER SPORTFISHIM BOATS INC	2901 INDUSTRIAL AVE 3	FORT PIERCE	ST LUCIE	FL	34946	BLUEWATER SPORTFISHIM BOATS INC	2901 INDUSTRIAL AVE 3	FORT PIERCE	FL		34946	YES	NO	NO	NO	PAUL SKILOWITZ	7724643735	3732							336612						27.493682	-80.353748											NO		
2006	PRESIDENT	TIM MITCHELL	33912PLYMR2129A	BOLD, INC DBA CORINTHIAN MARBLE	15835 BROTHERS CT	FORT MYERS	LEE	FL	33912	BOLD, INC DBA CORINTHIAN MARBLE	15835 BROTHERS CT	FORT MYERS	FL		33912	YES	NO	NO	NO	TIM MITCHELL	2394822800	3089							326121						26.512232	-81.858157	607141322										NO		
1989	TERMINAL MGR.	PAUL C. WIELATZ	33619BLDNC4118P	BOLIDEN CHEMICALS INC	4118 PENDOLA POINT RD	TAMPA	HILLSBOROUGH	FL	336199786	BOLIDEN CHEMICALS INC	4118 PENDOLA POINT RD	TAMPA	FL		33619-9786	YES	NO	NO		PAUL C WIELATZ	8132475063	5169							424690						27.901106	-82.413859	601212004										NO		
2007	DIRECTOR RISK MANAGEMENT	JOHN COVER	33610BNSLM5545N	BONSAL AMERICAN INC	5455 N 59TH ST	TAMPA	HILLSBOROUGH	FL	33610	BONSAL AMERICAN INC	5455 N 59TH ST	TAMPA	FL		33610	YES	NO	NO	NO	JACK COVER	7045294207	3272							327390						27.996237	-82.389621	003149457								OLDCASTLE INC	037176591	NO	JACK.COVER@OLDCASTLEAPG.COM	
2007	DIRECTOR RISK MANAGEMENT	JOHN COVER	33069BNSLM1200N	BONSAL AMERICAN INC	1200 NW 18TH ST	POMPANO BEACH	BROWARD	FL	33069	BONSAL AMERICAN INC	1200 NW 18TH ST	POMPANO BEACH	FL		33069	YES	NO	NO	NO	JACK COVER	7045294207	3272							327390						26.26	-80.135833	003149457								OLDCASTLE INC	037176591	NO	JACK.COVER@OLDCASTLEAPG.COM	
2007	DIRECTOR RISK MANAGEMENT	JOHN COVER	32514LDCST15ELI	BONSAL AMERICAN INC	150 E OLIVE RD	PENSACOLA	ESCAMBIA	FL	32514	BONSAL AMERICAN INC	150 E OLIVE RD	PENSACOLA	FL		32514	YES	NO	NO	NO	JACK COVER	7045294207	3272							327390						30.523333	-87.253056	003149457								OLDCASTLE ARCHITECTURAL INC.	037176591	NO	JACK.COVER@OLDCASTLEAPG.COM	
2007	DIRECTOR RISK MANAGEMENT	JOHN COVER	32254BNSLM6659H	BONSAL AMERICAN INC	6659 HWY AVE	JACKSONVILLE	DUVAL	FL	32254	BONSAL AMERICAN INC	6659 HWY AVE	JACKSONVILLE	FL		32254	YES	NO	NO	NO	JACK COVER	7045294207	3272							327390						30.523333	-87.253056	003149457								OLDCASTLE INC	037176591	NO	JACK.COVER@OLDCASTLEAPG.COM	
2001	PRESIDENT	ROBERT P. KEPFORD	33823BRLMT227PE	BORAL MATERIAL TECHNOLOGIES INC	227 PEARL ST.	AUBURNDALE	POLK	FL	33823	BORAL MATERIAL TECHNOLOGIES INC	227 PEARL ST.	AUBURNDALE	FL		33823	NO	NO	NO	NO	MARY ANN KEON	7706454529	2899							325998						28.063486	-81.801009	051283018								BORAL INDUSTRIES INC	026389254	NO		
1988	GEN. MGR.	JAMES A. WOLF	32805BRDNN1600W	BORDEN INC. DAIRY DIV.	1600 W. GORE ST.	ORLANDO	ORANGE	FL	32805	BORDEN INC. DAIRY DIV.	1600 W. GORE ST.	ORLANDO	FL		32805	YES	NO	NO		BILL JOHNSON	4074239300	2024							311520						28.531107	-81.401395	004062808								BORDEN INC.	001338797	NO		
1987	GENERAL MANAGER	MR. JERRY PIPPIN	32503BRDNN3501N	BORDEN INC. DAIRY DIV.	3501 N. ALCNAIZ ST.	PENSACOLA	ESCAMBIA	FL	32503	BORDEN INC. DAIRY DIV.	3501 N. ALCNAIZ ST.	PENSACOLA	FL		32503	YES	NO	NO		JERRY PIPPIN	9044338361	2026													30.449207	-87.217262	007854409		FL0007854409						BORDEN INC.	001338797	NO		
1992	PLANT MGR.	KEITH E. PARDUE	33169BRDNN17707	BORDEN INC. GROCERY & SPECIALTY PRODUCTS	17707 N.W. MIAMI CT.	MIAMI	DADE	FL	33169	BORDEN INC. GROCERY & SPECIALTY PRODUCTS	17707 N.W. MIAMI CT.	MIAMI	FL		33169	YES	NO	NO		KEITH E. PARDUE	3056524411	2026	2024						311510						25.937034	-80.200112	077279107		FLD984180463		MSP016889				BORDEN INC.	001338797	NO		
1989	PRESIDENT	ROBERT F. COSTON	33880BRDCT650AV	BORDO CITRUS PRODUCTS, COOPERATIVE	650 AVE. R. S.W.	WINTER HAVEN	POLK	FL	33880	BORDO CITRUS PRODUCTS, COOPERATIVE	650 AVE. R. S.W.	WINTER HAVEN	FL		33880	YES	NO	NO		ROBERT F. COSTON	8132945951	2033	2037						311421						28.003637	-81.734586	59000188L		FLO049588000		FL0027243						NO		
2007	DIRECTOR OF MANUFACTURING AND PLANT OPERATION	REBECCA CREWS	32141BSTNW4121U	BOSTON WHALER INC	100 WHALER WAY	EDGEWATER	VOLUSIA	FL	32141	BOSTON WHALER INC	100 WHALER WAY	EDGEWATER	FL		32141	YES	NO	NO	NO	CHRIS CARVER	3864280057	3732							336612						28.9228	-80.8682	001012079								BRUNSWICK CORPORATOIN	001307636	NO	CHRIS.CARVER@WHALER.COM	
2001	GENERAL MANAGER	JOHN CAMERON	33487BCRSR1377C	BOUNDLESS MANUFACTURING SERIVES FLORIDA	1377 CLINT MOORE RD	BOCA RATON	PALM BEACH	FL	33487	BOUNDLESS MANUFACTURING SERIVES FLORIDA	1377 CLINT MOORE RD	BOCA RATON	FL		33487	YES	NO	NO	NO	JOHN CAMERON	5619810000	3672							334412						26.408248	-80.109519			FL0000935569								NO		
1989	DIVISION PRESIDENT	HANS M. ROHR	34622BWMRN46401	BOWMAR INSTRUMENT CORP., DATA ENTRY DIV.	4640 126TH AVE. N.	CLEARWATER	PINELLAS	FL	346224796	BOWMAR INSTRUMENT CORP., DATA ENTRY DIV.	4640 126TH AVE. N.	CLEARWATER	FL		34622-4796	YES	NO	NO		ALAN E. WERNER	8135732525	3679							334000						27.886361	-82.69601	097384416		FLD097384416						BOWMAR INSTRUMENT CORP.	097384416	NO		
2007	TERMINAL MANAGER	DONNA KING	32226BPXPL2101H	BP PRODUCTS NA INC. - JACKSONVILLE TERMINAL	2101 HECKSCHER DR	JACKSONVILLE	DUVAL	FL	32226	BP PRODUCTS NA INC. - JACKSONVILLE TERMINAL	2101 HECKSCHER DR	JACKSONVILLE	FL		32226	YES	NO	NO	NO	RADFORD MURPHY	9047574650	5171							424710						30.414209	-81.604687									BP AMERICA INC.	039596507	NO		
2007	TERMINAL MANAGER	KEVIN HESS	33605MCLC0848MC	BP PRODUCTS NORTH AMERICA INC TAMPA TERMINAL	848 MCCLOSKEY BLVD	TAMPA	HILLSBOROUGH	FL	33605	BP PRODUCTS NORTH AMERICA INC TAMPA TERMINAL	848 MCCLOSKEY BLVD	TAMPA	FL		33605	YES	NO	NO	NO	RADFORD MURPHY	9047574650	5171							424710						27.93227	-82.442106	133527614								BP AMERICA INC.	039596507	NO	RADFORD.MURPHY@BP.COM	
2007	TERMINAL MANAGER	GUY D'AMICO	33316MCLC01180S	BP PRODUCTS NORTH AMERICA INC. PORT EVERGLADES TERMINAL	1180 SPANGLER BLVD	FORT LAUDERDALE	BROWARD	FL	33316	BP PRODUCTS NORTH AMERICA INC. - PORT EVERGLADES TERMINAL	PO BOX 22510	FORT LAUDERDALE	FL		33335-2510	YES	NO	NO	NO	RADFORD MURPHY	9047574650	5171							424710						26.091417	-80.12975									BP AMERICA INC.	039596507	NO	RAFORD.MURPHY@BP.COM	
2007	PLANT MANAGER	JEFF YOUNG	32218BRDDC14600	BRADDOCKMETALLURGICAL, INC.	14600 DUVAL PL W	JACKSONVILLE	DUVAL	FL	32218	BRADDOCKMETALLURGICAL, INC.	14600 DUVAL PL W	JACKSONVILLE	FL		32218	YES	NO	NO	NO	JEFF YOUNG	9047414777	3398							332811						30.476722	-81.646888	152667952										NO	JYOUNG@BRADDOCKMT.COM	
2007	TECHNICAL CONTACT	DR. WILLIAM F. MOORE	33155BRNPW4470S	BRAIN POWER INC	4470 SW 74TH AVE	MIAMI	MIAMI-DADE	FL	331554408	BRAIN POWER INC	4470 SW 74TH AVE	MIAMI	FL		33155-4408	YES	NO	NO	NO	JEAN S. BRILL	3052644465	2865							325132	334519	325998				25.728414	-80.31492	063599492										NO	JEAN@CALLBPI.COM	
2002	V.P. PRODUCTION	RICHARD DESIMONE	32670BRNCH335NE	BRANCH PROPERTIES INC.	335 N.E. WATULA AVE.	OCALA	MARION	FL	34470	BRANCH PROPERTIES INC.	335 N.E. WATULA AVE.	OCALA	FL		34470	YES	NO	NO	NO	RICHARD DESIMONE	3527324143	2048							311119						29.189713	-82.133218					FLR05C030						NO		
2000	PLANT MANAGER	JAMES W. BAYER	33807BRDTM5300O	BREED AUTOMOTIVE OF FLORIDA	5300 ALLEN K BREED HWY	LAKELAND	POLK	FL	33811	BREED AUTOMOTIVE OF FLORIDA	PO BOX 33050	LAKELAND	FL		33807-3050	YES	NO	NO	NO	CHRISTA KERLIN	8636686749	3714							336399						28.025749	-82.054672	180656753		FLD063288245		FLR05B897						NO		
2007	VICE PRESIDEN OF OPERATIONS	KEN W. JONES	34625CLRWT1575S	BRENNTAG MID-SOUTH INC.	1575 SUNSHINE DR	CLEARWATER	PINELLAS	FL	33758	BRENNTAG MID-SOUTH INC.	1405 HWY 136 W	HENDERSON	KY		42420	YES	NO	NO	NO	DAVID LEIGH	2708301303	5169							424690						27.981111	-82.74916	041167107								BRENNTAG NA		NO	DLEIGH@BRENNTAG.COM	
2007	VICE PRESIDENT OF OPERATIONS	KENNETH W. JONES	32824PBSCH250CE	BRENNTAG MID-SOUTH INC.	250 CENTRAL FLORIDA PKWY	ORLANDO	ORANGE	FL	32824	BRENNTAG MID-SOUTH INC.	1405 HWY 136 W	HENDERSON	KY		42420	YES	NO	NO	NO	DAVID LEIGH	2708301303	5169							424690						28.4073	-81.379	041167107								BRENNTAG NA		NO	DLEIGH@BRENNTAG.COM	
2001	VICE PRESIDENT OF OPERATIONS	DAVID B. GARNER	33147HCNDL8700N	BRENNTAG MID-SOUTH INC.	8700 N.W. 36TH AVE.	MIAMI	DADE	FL	33147	BRENNTAG MID-SOUTH INC.	1405 HWY. 136 W.	HENDERSON	KY		42420	YES	NO	NO	NO	DAVID LEIGH	2708301303	5169							424690						25.852065	-80.256473	041167107		FLD984187377						BRENNTAG USA		NO		
2007	VICE PRESIDENT OF OPERATIONS	KENNETH W. JONES	33605HCNDL3520A	BRENNTAG MID-SOUTH INC.	3520 ADAMO DR	TAMPA	HILLSBOROUGH	FL	33605	BRENNTAG MID-SOUTH INC.	1405 HWY 136 W	HENDERSON	KY		42420	YES	NO	NO	NO	DAVID LEIGH	2708301303	5169							424690						27.956167	-82.42063	041167107								BRENNTAG NA		NO	DLEIGH@BRENNTAG.COM	
1996	COMPLIANCE MGR.	JOSEPH BUKOWSKI	33907BRNTW1086T	BRENTWOOD INDUSTRIES INC	108 6TH ST. S.E.	FORT MYERS	LEE	FL	33907	BRENTWOOD INDS. INC.	P.O. BOX 605	READING	PA		19603	YES	NO	NO		JOSEPH BUKOWSKI	6103745109	3089							326199						26.578026	-81.856456	050507144		NOT ASSIGNES						BRENTWOOD INDUSTRIES INC	050507144	NO		
1998	DIRECTOR OF OPERATIONS	KATHIE NUZA	33069BRNNG100SW	BRUNING PAINT CO	100 SW 12TH AVE	POMPANO BEACH	BROWARD	FL	33069	BRUNING PAINT CO	100 SW 12TH AVE	POMPANO BEACH	FL		33069	YES	NO	NO		KATHIE NUZA	9413710015	2851							325510						26.230413	-80.139359	095430948		FLD063619902								NO		
1994	PRESIDENT	B.E. BAIDEN	33714BRNNL44006	BRUNNEL PRODS. OF FLORIDA INC.	4400 60TH AVE. N.	SAINT PETERSBURG	PINELLAS	FL	33714	BRUNNEL PRODS. OF FLORIDA INC.	4400 60TH AVE. N.	SAINT PETERSBURG	FL		33714	YES	NO	NO		B.E. BAIDEN	8135223233														27.826069	-82.693833									AQUA AIR MFG. INC.		NO		
2007	OPERATION MANAGER	JOHN RATTO	32132BRNSW42MEG	BRUNSWICK COMMERCIAL & GOVERNMENT PRODUCTS INC	420 MEGAN Z AVE	EDGEWATER	VOLUSIA	FL	32132	BRUNSWICK COMMERCIAL & GOVERNMENT PRODUCTS INC	420 MEGAN Z AVE	EDGEWATER	FL		32132	YES	NO	NO	NO	ERIC CAPLAN	3864232900	3732							336612						28.983611	-80.910556	015602878										NO	ECAPLAN@WHALER.COM	
2007	VICE PRESIDENT, WOOD CELLULOSE MFG.	HOWARD DREW	32347BCKYCROUTE	BUCKEYE FLORIDA   LP	ONE BUCKEYE DR	PERRY	TAYLOR	FL	323487702	BUCKEYE FLORIDA   LP	ONE BUCKEYE DR	PERRY	FL		32348-7702	YES	NO	NO	NO	H. DAN SIMMONS	8505841275	2611							322110						30.067444	-83.529472	802878645								BUCKEYE TECHNOLOGIES INC	798318028	NO	DAN_SIMMONS@BKITECH.COM	
2007	PLANT MANAGER	CRAIG BEST	33619BLDNG5138M	BUILDING MATERIALS MANUFACTURING CORP	5138 MADISON AVE	TAMPA	HILLSBOROUGH	FL	33619	BUILDING MATERIALS MANUFACTURING CORP	5138 MADISON AVE	TAMPA	FL		33619	YES	NO	NO	NO	JE COMPLIANCE SERVICES, INC.	9094833000	2952							324122						27.901002	-82.399243									BUILDING MATERIALS CORP OF AMERICA	001294172	NO	NA	
2007			32935DCTPH3900W	BULOVA TECHNOLOGIES EMS LLC	3900 W SARNO RD	MELBOURNE	BREVARD	FL	32934	BULOVA TECHNOLOGIES EMS LLC	3900 W SARNO RD	MELBOURNE	FL		32935	YES	NO	NO	NO	SANDY SMITH	3213088466	3669							334119						28.1218	-80.6886	616460890								BULOVA TECHNOLOGIES EMS LLC	616460890	NO	SSMITH@BULOVATECH.COM	
2002	PLANT ENGINEER	MICHAEL SULLIVAN	32824BRRSR10900	BURRIS REFRIGERATED LOGISTICS ORLANDO AIRPORT	10900 CENTRAL PORT DR.	ORLANDO	ORANGE	FL	32824	BURRIS REFRIGERATED LOGISTICS ORLANDO AIRPORT	10900 CENTRAL PORT DR.	ORLANDO	FL		32824	NO	NO	NO	YES	MICHAEL SULLIVAN	3216891702	5140													28.347167	-81.2225	007547993		100000176356						BURRIS LOGISTICS INC.	007547993	NO		
2007	PRESIDENT	CELIO CARRIEGO	33309CCMRB2801N	C & C MARBLE INC	2801 N 55TH CT BAY #4	FORT LAUDERDALE	BROWARD	FL	33309	C & C MARBLE INC	2801 N 55TH CT BAY #4	FORT LAUDERDALE	FL		33309	YES	NO	NO	NO	CELIO CARRIEGO	9547398288	3089							325991						26.194263	-80.181											NO	DRBELADI@GMAIL.COM	
2005	ENVIRONMENTAL ENGINEER	NGOC DO	33407NRTHR1601H	C-MAC MICROCIRCUIT USA INC/SOLECTRON	1601 HILL AVE	WEST PALM BEACH	PALM BEACH	FL	33407	C-MAC MICROCIRCUIT USA INC/SOLECTRON	1601 HILL AVE	WEST PALM BEACH	FL		33407	YES	NO	NO	NO	NGOC DO	7045098759	3679	3694						334000						26.7639	-80.0744	145181520		FLD984238386						SOLECTRON CORP.	087011003	NO		
2007	MANAGER OF ENGINEERING	TIMOTHY BACHAND	33805CDMCN3030E	C.D. MCINTOSH JR. POWER PLANT	3030 E LAKE PARKER DR	LAKELAND	POLK	FL	33805	LAKELAND ELECTRIC	501 E LEMON ST	LAKELAND	FL		33801	YES	NO	NO	NO	DOUGLAS DOERR	8638346169	4911							221112						28.081194	-81.922639	131207032								CITY OF  LAKELAND LAKELAND ELECTRIC	131207032	NO	DOUG.DOERR@LAKELANDELECTRIC.COM	
2005	DIVISION MANAGER	RON BLAND	34474CMRNH3030S	CAMERON FLORIDA	3030 SW SILVER SPRINGS BLVD	OCALA	MARION	FL	34474	CAMERON FLORIDA	PO BOX 2168	OCALA	FL		34478	NO	NO	NO	NO	MICHAEL J. WOLTER	5742946521	2451							321991						29.183333	-82.175	061975082				FLR05B753				SKYLINE CORP	005070669	NO		
1990	DIR. OF ENG. CANDLE CORP. OF AMERICA	DAVID KLINE	33010CMPNR700WE	CAMPANA ART PRODUCTS	700 W. 27TH ST.	HIALEAH	DADE	FL	33010	CAMPANA ART PRODUCTS	700 W. 27TH ST.	HIALEAH	FL		33010	YES	NO	NO		DAVID KLINE	3127538900	3079							326199						25.846	-80.2965	002332063		FLD981924699						BLYTH INDL. INC.	096800578	NO		
2007	VP AND GENERAL MANAGER	RUSS ROCCO	32254CNMST140SO	CANAM STEEL CORP JACKSONVILLE PLANT	140 S ELLIS RD	JACKSONVILLE	DUVAL	FL	32254	BRIGITTE LALIBERTE	270 CHEMIN DU TREMBLAY	BOUCHERVILLE		QUEBEC	J4B5X9	YES	NO	NO	NO	BRIGITTE LALIBERTE	4506414000	3441							332312						30.3125	-81.755	045911658								CANAM GROUP INC		NO	BRIGITTE.LALIBERTE@CANAM.WS	
2004	DIRECTOR OF OPERATIONS	BRYCE KELLY	34981CRGLL3798S	CARGILL JUICE NORTH AMERICA INC	3798 SELVITZ RD	FORT PIERCE	ST LUCIE	FL	34981	CARGILL JUICE NORTH AMERICA INC	PO BOX 2000	FROSTPROOF	FL		33843	YES	NO	NO	NO	TOM ABRAHAMSON	8636358014	2037							311411						27.395683	-80.366231	002319321		FLD048865109		FLR05C119				CARGILL INC	006249189	NO		
2007	ENVIRONMENTAL HEALTH AND SAFETY MANAGER	LARRY HADDEN	33825CRGLL1552S	CARGILL JUICE NORTH AMERICA INC	1552 SUN PURE RD	AVON PARK	HIGHLANDS	FL	33825	CARGILL JUICE NORTH AMERICA INC	PO BOX 2000	FROSTPROOF	FL		33843	YES	NO	NO	NO	TOM ABRAHAMSON	9527422329	2037							311411						27.6431	-81.5225	024958568								CARGILL INC	006249189	NO	NA	
2007	ENVIRONMENTAL HEALTH AND SAFETY MANAGER	LARRY HADDEN	33843THCTR100E6	CARGILL JUICE NORTH AMERICA INC	100 E 6TH ST	FROSTPROOF	POLK	FL	33843	CARGILL JUICE NORTH AMERICA INC	PO BOX 2000	FROSTPROOF	FL		33843	YES	NO	NO	NO	TOM ABRAHAMSON	9527422329	2037							311411						27.738616	-81.530479	177919524								CARGILL INC	006249189	NO	NA	
2007	PRESIDENT	CIRILO PADRON	33166CRBBN5445N	CARIBBEAN FIBERGLASS PRODUCTS INC.	5445 N.W. 72ND AVE.	MIAMI	MIAMI-DADE	FL	33166	CARIBBEAN FIBERGLASS PRODUCTS INC.	5445 N.W. 72ND AVE.	MIAMI	FL		33166	NO	NO	NO	NO	CIRILO PADRON	3058880774	3088							325991						25.823177	-80.313547											NO		
1998	OPERATION MANAGER	SANDY FREEMAN	32043CRLSL4035R	CARLISLE CONTAINER MFG. CORP.	4035 REYNOLDS BLVD.	GREEN COVE SPRINGS	CLAY	FL	32043	CARLISLE CONTAINER MFG. CORP.	4035 REYNOLDS BLVD.	GREEN COVE SPRINGS	FL		32043	YES	NO	NO		SANDY FREEMAN	9042846911	3799	3715						324122						29.983292	-81.656066	003005766		FLD984238907						CARLISLE CORP.	152867602	NO		
2007	GENERAL MANAGER	PETER MUNIZ	33815CRPNT5150F	CARPENTER CO.	5150 FRONTAGE RD S	LAKELAND	POLK	FL	33815	CARPENTER CO.	5150 FRONTAGE RD S	LAKELAND	FL		33815	YES	NO	NO	NO	PETER MUNIZ	8636822188	3086							326150						28.034884	-82.05036	003019444										NO		
1990	SECRETARY/TREASURER	WILLIAM EL HAUSMANN	32651CRRLL2461E	CARROLL CONTRACTING & READY MIX INC	2461 E GULF TO LAKE HWY	INVERNESS	CITRUS	FL	344531659	CARROLL CONTRACTING & READY MIX INC	PO BOX1659	INVERNESS	FL		34453	YES	NO	NO		LAWRENCE J PFAU	9047261071	2951	3271	3272	3273				324121						28.8564	-82.3927	005818752		FLD005818752								NO		
1990	SECRETARY/TREASURER	WILLIAM E. HAUSMANN	32676CRRLL9765S	CARROLL CONTRACTING & READY MIX INC	9765 SW STATE RD 200	OCALA	MARION	FL	344817717	CARROLL CONTRACTING & READY MIX INC	9765 SW STATE RD 200	OCALA	FL		34481-7717	YES	NO	NO		LAWRENCE J PFAU	9047261071	2951							324121						29.0563	-82.2839	005818752		FLD981921976								NO		
1998	VICE PRESIDENT AND GENERAL MANAGER	FELIPE LOPEZ	32218CSTLT12200	CASTLETON BEVERAGE CORP.	12200 N. MAIN ST.	JACKSONVILLE	DUVAL	FL	322183861	CASTLETON BEVERAGE CORP.	P.O. BOX 26368	JACKSONVILLE	FL		32226-0368	YES	NO	NO		FELIPE LOPEZ	9047571290	2085							312140						30.461593	-81.634579	061916110		FLD982143117						CASTLETON HOLDING INC.	154472278	NO		
2007	GENERAL MANAGER	DINA KOSTAKIS	33716RPSCH2725S	CATALENT PHARMA SOLUTIONS	2725 SCHERER DR N	SAINT PETERSBURG	PINELLAS	FL	33716	CATALENT PHARMA SOLUTIONS	2725 SCHERER DR N	SAINT PETERSBURG	FL		33716	YES	NO	NO	NO	DINA KOSTAKIS	7278032123	2834							325412						27.885583	-82.670242	796436181										NO	NA	
2007	PLANT MANAGER	MICHAEL R. QUINN	34647CTRNY7200B	CATALINA YACHTS MORGAN DIV	7200 BRYAN DAIRY RD	LARGO	PINELLAS	FL	33777	CATALINA YACHTS MORGAN DIV	7200 BRYAN DAIRY RD	LARGO	FL		33777	YES	NO	NO	NO	MICHAEL QUINN	7275446881	3732							336612						27.872079	-82.738475	053873071								CATALINA YACHTS	053873071	NO	NA	
2007	FACILITY MANAGER	DAVID EDEN	32254CTRPL5801H	CATERPILLAR WORK TOOLS	5801 HWY AVE	JACKSONVILLE	DUVAL	FL	32254	CATERPILLAR WORK TOOLS	5801 HWY AVE	JACKSONVILLE	FL		32254	YES	NO	NO	NO	TERRIAL CAMPBELL	7854566318	3531							333120						30.321329	-81.747876									CATERPILLAR INC	005070479	NO	CAMPBELL_TERRIAL@CAT.COM	
2002	PLANT MANAGER	TRINA R. COGGINS	32643DNNNN7100N	CCDA WATERS L L C	7100 N E COUNTY RD 340	HIGH SPRINGS	GILCHRIST	FL	32643	CCDA WATERS L L C	7100 N E COUNTY RD 340	HIGH SPRINGS	FL		32643	YES	NO	NO	NO	TRINA COGGINS	3864545900														29.600833	-82.616111									COCA-COLA N A	003296175	NO		
2007	VICE PRESIDENT - ENGINEERING	ALBERT KAEDING	32178CDRSYAIRPO	CDR SYSTEMS CORP	2 KAY LARKIN CIRCLE	PALATKA	PUTNAM	FL	32177	CDR SYSTEMS CORP	146 S ATLANTIC AVE	ORMOND BEACH	FL		32176	YES	NO	NO	NO	BUD MCGRANE	3866159510	3089							326199						29.653931	-81.691856											NO	SALES@CDRSYSTEMS.COM	
2007	GENERAL MANAGER	TRACY PATTERSON	32218CDRBY9640E	CEDAR BAY GENERATING CO	9640 EASTPORT RD	JACKSONVILLE	DUVAL	FL	32218	CEDAR BAY GENERATING CO	PO BOX 26324	JACKSONVILLE	FL		32226	YES	NO	NO	NO	TRACY PATTERSON	9047514000	4911							221112						30.421417	-81.606972	790551998								COGENTRIX ENERGY LLC	131411837	NO		
2007	PLANT MANAGER	ROBERT ROGERS	33182CSRMR1200N	CEMEX MIAMI	1200 NW 137 AVE	MIAMI	MIAMI-DADE	FL	33182	CEMEX MIAMI	1200 NW 137 AVE	MIAMI	FL		33182	YES	NO	NO	NO	LILLIAN DEPRIMO	7137225981	3241							327310						25.782401	-80.417459	189840945								CEMEX INC	189840945	NO	LILLIANF.DEPRIMO@CEMEX.COM	
2007	PLANT MANAGER	JIMMY L. RABON	34614STHDW16301	CEMEX, INC.	16301 PONCE DE LEON BLVD	BROOKSVILLE	HERNANDO	FL	34614	CEMEX, INC.	16301 PONCE DE LEON BLVD	BROOKSVILLE	FL		34614	YES	NO	NO	NO	LILLIAN DEPRIMO	7137225981	3241							327310						28.657009	-82.456574	189840945								CEMEX, INC.	189840945	NO	LILLIANF.DEPRIMO@CEMEX.COM	
1999	SECRETARY	LINDA GUSTAFSON	32808CNTRL4170M	CENTRAL FLORIDA MARBLE	4170 MERCY INDUSTRIAL COURT	ORLANDO	ORANGE	FL	32808	CENTRAL FLORIDA MARBLE	4170 MERCY INDUSTRIAL COURT	ORLANDO	FL		32808	YES	NO	NO		LINDA GUSTAFSON	4072983065	3999							339999						28.57992	-81.434165									GUSTAFSON CHIPPING CO. INC.		NO		
1992	PRESIDENT	MICHAEL J. BURDULIS	33821CNTRL211WE	CENTRAL MOLONEY TRANSFORMER	211 W PALMETTO ST	ARCADIA	DESOTO	FL	34266	CENTRAL MOLONEY TRANSFORMER	211 W PALMETTO ST	ARCADIA	FL		34266	YES	NO	NO		FRANCIS A NELDON	5015345332	3612							335311						27.210517	-81.863509			FLD004089173						COLTEC INDUSTRIES INC	008962920	NO		
2007	VICE PRESIDENT/GENERAL MANAGER	DEAN BURNETT	32404CNTRY6725B	CENTURY BOAT CO	6725 BAYLINE DR	PANAMA CITY	BAY	FL	32404	CENTURY BOAT CO	6725 BAYLINE DR	PANAMA CITY	FL		32404	YES	NO	NO	NO	DEAN BURNETT	8507600311	3732							336612						30.264978	-85.507729	96744254								YAMAHA MOTOR CORP		NO	NA	
1989	V.P. OF MANUFACTURING	S. G. SALOMON JR.	32405CNTRY900JA	CENTURY BOATS BY GLASSTREAM	900 JACKSON WAY	PANAMA CITY	BAY	FL	32405	CENTURY BOATS BY GLASSTREAM	900 JACKSON WAY	PANAMA CITY	FL		32405	YES	NO	NO		ANGELINE C. HILL	9047690311	3732							336612						30.207926	-85.674599			FLD981020167						GLASSTREAM BOATS INC.		NO		
2007	VICE PRESIDENT OPERATIONS	WARREN WHITFIELD	32533JMSRV610CH	CEREX ADVANCED FABRICS INC	610 CHEMSTRAND RD	CANTONMENT	ESCAMBIA	FL	32533	CEREX ADVANCED FABRICS INC	610 CHEMSTRAND RD	CANTONMENT	FL		32533	YES	NO	NO	NO	WARREN WHITFIELD	8509680100	2297							313230						30.591667	-87.25222	877181768										NO	WWHITFIELD@CEREX.COM	
1993	PRESIDENT	DAVID W. SEXTON JR.	33069CRTMT1420S	CERTIFIED METAL FINISHING INC	1420 SW 28TH AVE	POMPANO BEACH	BROWARD	FL	33069	CERTIFIED METAL FINISHING INC	1420 SW 28TH AVE	POMPANO BEACH	FL		33069	YES	NO	NO		DAVID W SEXTON JR	3059790707	3471							332813						26.212444	-80.160027	101982809		FLD980728828								NO		
2007	& GENERAL MANAGER	HERSCHEL E. MORRIS VP PHOSPHATE OPERATIONS	33566CNTRL10MIL	CF INDUSTRIES INC (PLANT CITY PHOSPHATE COMPLEX)	10608 PAUL BUCHMAN HWY	PLANT CITY	HILLSBOROUGH	FL	33565	CF INDUSTRIES INC	PO DRAWER L	PLANT CITY	FL		33564	YES	NO	NO	NO	RONALD L. BRUNK	8133645608	2874							325312						28.168056	-82.14166	008966632								CF INDUSTRIES INC	008966632	NO	RBRUNK@CFIFL.COM	
1998	MANAGER OPERATIONS	RICHARD S. GHENT	33605RYSTR3222M	CF INDUSTRIES INC TAMPA TERMINAL	3222 MARITIME BLVD	TAMPA	HILLSBOROUGH	FL	33605	CF INDUSTRIES INC TAMPA TERMINAL	2520 GUY VERGER BLVD	TAMPA	FL		33605	YES	NO	NO		RICHARD S GHENT	8132475531	5169							424690						27.917222	-82.43916	098372550		FLA980730329								NO		
2007	MANAGER	JOHN M. DORAN	33830CFCHMBONNI	CF INDUSTRIES INC.BARTOW PHOS PHATE COMPLEX	2501 BONNIE MINE RD	BARTOW	POLK	FL	33830	CF INDUSTRIES INC. - BARTOW PHOSPHATE COMPLEX	PO BOX 1480	BARTOW	FL		338311480	YES	NO	NO	NO	RICHARD GHENT	8633754321	2874							325312						27.894306	-81.924518	039119409								CF INDUSTRIES INC.	062793690	NO	RGHENT@CFIFL.COM	
2006	GENERAL MANAGER	HOWARD MCGIRT	32055HMSFMHWY10	CHAMPION ENTERPRISES INC HOMES OF MERIT PLANT 2	1823 SE STATE RD 100	LAKE CITY	COLUMBIA	FL	32025	HOMES OF MERIT INC	PO BOX 1606	BARTOW	FL		33830	YES	NO	NO	NO	ALLAN CREWS	3867553073	2451							321991						30.19041	-82.62355									CHAMPION ENTERPRISES INC		NO		
2002	DIRECTOR OF ENERGY SUPPLY	TIMOTHY BATES	33801CHRLS2002E	CHARLES LARSEN MEMORIAL POWER PLANT	2002 E HWY 92	LAKELAND	POLK	FL	33801	LAKELAND ELECTRIC	501 E LEMON ST	LAKELAND	FL		33801	YES	NO	NO	NO	ANDREW NGUYEN	8638348180	4911							221100						28.048917	-81.924389			FLD000648030		FL0026298						NO		
2000	PRESIDENT	RANDY HITCHENS	32671CHMLB6161S	CHEM LAB PRODS. INC. SOUTHEAST DIV.	6161 S.E. 78TH ST.	OCALA	MARION	FL	34471	CHEM LAB PRODS. INC. SOUTHEAST DIV.	6161 S.E. 78TH ST.	OCALA	FL		34471	YES	NO	NO	NO	DANA WM. SOMESLA	9093909912	2842							325612						29.108621	-82.048258	008302895								CHEM LAB PRODS. INC.	008302895	NO		
2006	PLANT MANAGER	SCOTT GARLAND	33916CHMPL2443R	CHEM POLYMER	2443 ROCKFILL RD	FORT MYERS	LEE	FL	33916	CHEM POLYMER	2443 ROCKFILL RD	FORT MYERS	FL		33916	YES	NO	NO	NO	MARK SEGEE	8648626444	3087							325991						26.632963	-81.829839	097370803								TEKNOR APEX	045367968	NO		
2007	PRESIDENT	DAVID CARSON	33567CHMCL4206B	CHEMICAL DYNAMICS INC.	4206 BUSINESS LA.	PLANT CITY	HILLSBOROUGH	FL	33566	CHEMICAL DYNAMICS	PO BOX 486	PLANT CITY	FL		33564	YES	NO	NO	NO	DAVID CARSON	8137524950	2875							325314						27.957449	-82.121073	078327749										NO	DAVIDC@CHEMICALDYNAMICS.COM	
2007	REGULATORY AFFAIRS MANAGER	ROBIN BOLTE	33611CHMCL5411W	CHEMICAL FORMULATORS INC	5215 W TYSON AVE	TAMPA	HILLSBOROUGH	FL	33611	CHEMICAL FORMULATORS INC	ATTN: ROBIN EDDY BOLTE3901 NW 115TH AVE	MIAMI	FL		33178	YES	NO	NO	NO	ROBIN EDDY BOLTE	3058882623	2819							325188	424690					27.886167	-82.5378	009678231										NO	ROBINE@ALLIEDUNIVERSAL.COM	
2007	EHS MANAGER	JOHN KESSLER JR	33069CHMCL2700S	CHEMICAL PACKAGING CORP	2700 SW 14TH ST	POMPANO BEACH	BROWARD	FL	33069	CHEMICAL PACKAGING CORP	PO BOX 667770	POMPANO BEACH	FL		33066	YES	NO	NO	NO	TERRY COLKER	9549745440	2899							325998						26.212955	-80.1584	044131421										NO	TCOLKER@CPCAEROSCIENCE.COM	
2007	CEO	JEFFREY LONG	32798CHMCL6429W	CHEMICAL SYSTEMS OF ORLANDO INC	6429 W JONES AVE	ZELLWOOD	ORANGE	FL	32798	CHEMICAL SYSTEMS	PO BOX 810	ZELLWOOD	FL		32798	YES	NO	NO	NO	JEFF LONG	4078862329	2841	2842						325611						28.7189	-81.6008											NO	NA	
2007	TERMINAL MANAGER	KEVIN CHARLES	32401CHVRN525WB	CHEVRON PANAMA CITY TERMINAL	525 W BEACH DR	PANAMA CITY	BAY	FL	32401	CHEVRON PANAMA CITY TERMINAL	525 W BEACH DR	PANAMA CITY	FL		32401	YES	NO	NO	NO	PETER PRATHER	9258426142	5171							424710						30.157422	-85.665597			FLD000611988		FL0175480				CHEVRON USA INC.	009140559	NO		
2007	TERMINAL MANAGER	VICTOR ZEMAITIS	33316PRTVR1400S	CHEVRON PORT EVERGLADES TERMINAL	1400 SE 24TH ST	FORT LAUDERDALE	BROWARD	FL	33316	CHEVRON PORT EVERGLADES TERMINAL	PO BOX 22908	FORT LAUDERDALE	FL		33335	YES	NO	NO	NO	PETER PRATHER	9258426142	5171							424710						26.09175	-80.127639									CHEVRON USA INC.	009140559	NO	NA	
2007	TERMINAL MANAGER	DAVID BROOKS	33616PRTTM5500C	CHEVRON PORT TAMPA TERMINAL	5500 COMMERCE ST	TAMPA	HILLSBOROUGH	FL	33616	CHEVRON PORT TAMPA TERMINAL	PO BOX 19277	TAMPA	FL		33686	YES	NO	NO	NO	PETER PRATHER	9258426142	5171							424710						27.862194	-82.536972									CHEVRON USA INC.	009140559	NO		
2002	HES SPECIALIST	LARRY GOWING	32206JCKSN3117T	CHEVRON PRODUCTS CO JACKSONVILLE TERMINAL	3117 TALLEYRAND AVE	JACKSONVILLE	DUVAL	FL	32206	CHEVRON PRODUCTS CO JACKSONVILLE TERMINAL	3117 TALLEYRAND AVE	JACKSONVILLE	FL		32206	YES	NO	NO	NO	PETER PRATHER	9258426142	5171							424710						30.357806	-81.62675			FLD000611905						CHEVRON USA INC	009140559	NO		
2007	PLANT MANAGER	JIM KROBOTH	34243DNZMR81611	CHRIS CRAFT	8161 15TH ST E	SARASOTA	MANATEE	FL	34243	CHRIS CRAFT	8161 15TH ST E	SARASOTA	FL		34243	YES	NO	NO	NO	BOB GREENBERG	7047302680	3732							336612						27.394478	-82.546773	039282293										NO	RGREENB@CHRISCRAFT.COM	
2006	VICE PRESIDENT	CHONG YI	33634CHRML7030A	CHROMALLOY CASTINGS TAMPA	7030 ANDERSON RD	TAMPA	HILLSBOROUGH	FL	33634	CHROMALLOY CASTINGS TAMPA	7030 ANDERSON RD	TAMPA	FL		33634	YES	NO	NO	NO	RICK FUNCHESS	8138854781	3369							331528						28.014224	-82.533453									SEQUA CORP	001374727	NO		
2007	PRESIDENT	SKIP BRAVER	33054CGRTT4355N	CIGARETTE RACING TEAM LLC	4355 NW 128TH ST	OPA LOCKA	MIAMI-DADE	FL	33054	CIGARETTE RACING TEAM LLC	4355 NW 128TH ST	OPA LOCKA	FL		33054	YES	NO	NO	NO	HECTOR RODRIGUEZ	3059314561	3732							336612						25.88913	-80.270548	131197241										NO	HECTOR@CIGARETTERACING.COM	
2002	CHIEF OPERATIONS OFFICER	BURTON JAY WEISBERG	33180CGRTT3131N	CIGARETTE RACING TEAM LLC	3131 NE 188TH ST	AVENTURA	MIAMI-DADE	FL	33180	CIGARETTE RACING TEAM LLC	3131 NE 188TH ST	AVENTURA	FL		33180	YES	NO	NO	NO	BURTON JAY WEISBERG	3059314564	3731							336612						25.94869	-80.140419	131197241		FLD982127136		FL0250561						NO		
2007	MANAGER, ENVIRONMENTAL AND SAFETY	JACK MCCROSSIN	33605CTGPT801MC	CITGO PETROLEUM CORP	801 MCCLOSKEY BLVD	TAMPA	HILLSBOROUGH	FL	33605	CITGO PETROLEUM CORP	801 MCCLOSKEY BLVD	TAMPA	FL		33605	YES	NO	NO	NO	FERNANDO GARAY	8324861489	5171							424710						27.932646	-82.441736	069660561								CITGO PETROLEUM CORP	102417268	NO		
2006	MANAGER, ENVIRONMENTAL AND SAFETY	JACK MCCROSSIN	33316CTGPR81SE2	CITGO PORT EVERGLADES TERMINAL	801 SE 28TH ST	FORT LAUDERDALE	BROWARD	FL	33316	CITGO PORT EVERGLADES TERMINAL	PO BOX 13122	FORT LAUDERDALE	FL		33316	YES	NO	NO	NO	FERNANDO GARAY	8324861489	5171							424710						26.0894	-80.1335	133081208								CITGO PETROLEUM CORP	102417268	NO		
2007	CHIEF EXECUTIVE OFFICER	NICHOLAS EMANUEL	33853LCMPC5937H	CITROSUCO NORTH AMERICA INC	5937 HWY 60 E	LAKE WALES	POLK	FL	33898	CITROSUCO NORTH AMERICA INC	5937 HWY 60 E	LAKE WALES	FL		33898	YES	NO	NO	NO	LISA TAYLOR	8636967400	2037							311411						27.8954	-81.4911	293738072										NO	LTAYLOR@CITROSUCO.COM	
1995	PLANT MANAGER	MAX HARGROVE	32768CTRSCHWY43	CITRUS CENTRAL INC. CROWN CORK & SEAL CO. INC.	2823 ORANGE AVE.	PLYMOUTH	ORANGE	FL	327681328	CITRUS CENTRAL INC. CROWN CORK & SEAL CO. INC.	P.O. BOX 1328	PLYMOUTH	FL		32768-1328	YES	NO	NO		MAX HARGROVE	4078894116	3411							332431						28.786073	-81.563203	047970512		FLD981470305						CROWN CORK & SEAL CO. INC.	002282341	NO		
1989	MANAGER OF ENVIRONMENTAL SERVICES	JAMES R. PALMER	32859CTRSP600EA	CITRUS PAK	600 E. LAND ST. RD.	ORLANDO	ORANGE	FL	32859	CITRUS PAK	600 E. LAND ST. RD.	ORLANDO	FL		32859	YES	NO	NO		M. S. ALTMAYER	4078550850	2645							323110						28	-82									BURROWS PAPER CORP.	066008617	NO		
2007	VICE PRESIDENT OF OPERATIONS	CHARLES MATTHEWS	33853CTRSW650US	CITRUS WORLD INC FLORIDA'S NATURAL GROWERS LAKE WALES DIV	20205 US HWY 27	LAKE WALES	POLK	FL	33853	FLORIDA'S NATURAL GROWERS LAKE WALES	PO BOX 1111	LAKE WALES	FL		33859	YES	NO	NO	NO	CHARLES MATTHEWS	8636761411	2037							311411						27.909614	-81.60043	004091732										NO		
2007	PLANT MANAGER	TRIVENI SINGH	32304CTYFT1125G	CITY OF TALLAHASSEE ARVAH B. H OPKINS GENERATING STATION	1125 GEDDIE RD	TALLAHASSEE	LEON	FL	32304	CITY OF TALLAHASSEE ARVAH B. H OPKINS GENERATING STATION	1125 GEDDIE RD	TALLAHASSEE	FL		32304	YES	NO	NO	NO	JOHN POWELL	8508918851	4911							221112						30.451389	-84.39777	171121999										NO	JOHN.POWELL@TALGOV.COM	
2007	PLANT MANAGER	GORDON KING	32355CTYFT667PO	CITY OF TALLAHASSEE SAM O. PUR DOM GENERATING STATION	667 PORT LEON DR	SAINT MARKS	WAKULLA	FL	32355	CITY OF TALLAHASSEE SAM O. PUR DOM GENERATING STATION	667 PORT LEON DR	SAINT MARKS	FL		32355	YES	NO	NO	NO	JOHN POWELL	8508918851	4911							221112						30.162972	-84.199222	171121999										NO	JOHN.POWELL@TALGOV.COM	
2007	DIRECTOR OF ELECTRIC UTILITIES	R SLOAN	32960CTYFV10017	CITY OF VERO BEACH MUNICIPAL U TILITIES	100 17TH ST	VERO BEACH	INDIAN RIVER	FL	32960	CITY OF VERO BEACH MUNICIPAL U TILITIES	100 17TH ST	VERO BEACH	FL		32960	YES	NO	NO	NO	MR. JAMES F. STEVENS	7729785051	4911							221119						27.632806	-80.378639	056970478										NO	JSTEVENS@COVB.ORG	
2007	DIR. OF TECHNOLOGY	PAUL KREMER	32602PCRNC5002S	CLARIANT LSM (FLORIDA) INC.	5002 NE 53RD RD	GAINESVILLE	ALACHUA	FL	32609	CLARIANT LSM (FLORIDA) INC.	P. O. BOX 1466	GAINESVILLE	FL		32609	YES	NO	NO	NO	PAUL KREMER	3523768246	2869							325199						29.705833	-82.26583	175070242								CLARIANT COPORATION		NO	PAUL.KREMER@CLARIANT.COM	
2007	EXEC. DIRECTOR	MAHESH R. PATEL	33404CLSSC8300C	CLASSIC CULTURED MARBLE INC.	8300 CURRENCY DR	RIVIERA BEACH	PALM BEACH	FL	33404	CLASSIC CULTURED MARBLE INC.	8300 CURRENCY DR	RIVIERA BEACH	FL		33404	YES	NO	NO	NO	MAHESH R. PATEL	5618484635	3088							326191						26.7982	-80.0924	614181022										NO	MAPA1727@AOL.COM	
1990	VICE PRESIDENT	JACK SHAW	34736CLSSC300EC	CLASSIC ERA WATERCRAFT INC	300 E CRITTENDEN	GROVELAND	LAKE	FL	34736	CLASSIC ERA WATERCRAFT INC	300 E CRITTENDEN	GROVELAND	FL		34736	YES	NO	NO		JACK SHAW	9044294145	3732							336612						28.559828	-81.853226	108942285		FLD981024411								NO		
1988	GENERAL MANAGER	HAROLD C. SPARKS	32854CLSSC100SO	CLASSIC ERA WATERCRAFT INC	100 S FOREST CITY RD	ORLANDO	ORANGE	FL	32854	CLASSIC ERA WATERCRAFT INC	PO BOX 547843	ORLANDO	FL		32854-7843	YES	NO	NO		HAROLD C SPARKS	9044292145	3732							336612						28.5503	-81.3506	108942285		FLD981024411								NO		
1992	PRESIDENT	BEN HARRINGTON	33054CLSSC16650	CLASSIC MOTOR CARRIAGES	16650 N.W. 27TH AVE.	MIAMI	DADE	FL	33054	CLASSIC MOTOR CARRIAGES	16650 N.W. 27TH AVE.	MIAMI	FL		33054	YES	NO	NO		CARLOS SANCHEZ	3056259700	3721							336411						25.92538	-80.244985			FLD120708177						GGL IND.	097198238	NO		
2007	PLANT GENERAL MANAGER	JOHN BOSEK	33830TRCLR170AV	CLEAN HARBORS FLORIDA LLC	170 BARTOW MUNICIPAL AIRPORT	BARTOW	POLK	FL	33830	CLEAN HARBORS FLORIDA LLC	170 BARTOW MUNICIPAL AIRPORT	BARTOW	FL		33830	YES	NO	NO	NO	JOHN BOSEK	8635336111	4953	7389						562211						27.955833	-81.77916	157793639								CLEAN HARBORS ENVIRONMENTAL SERVICES INC	157793639	NO	BOSEK.JOHN@CLEANHARBORS.COM	
2002	SUPERINTENDENT	JAMES W. MCCRANIE JR.	32205CLNRS735NO	CLEANERS HANGER CO	735 N LN AVE	JACKSONVILLE	DUVAL	FL	32254	CLEANERS HANGER CO	735 N LN AVE	JACKSONVILLE	FL		32254	YES	NO	NO	NO	JAMES W MCCRANIE JR	9047815706	3496							332618						30.332683	-81.752162	005320445								CLEANERS HANGERS CO.	.00532044	NO		
2007	PLANT MANAGER	FREDERICK VANNAN	33605THCLR3601E	CLOROX PRODUCTS MANUFACTURING CO	3601 E COLUMBUS DR	TAMPA	HILLSBOROUGH	FL	33605	CLOROX PRODUCTS MANUFACTURING CO	3601 E COLUMBUS DR	TAMPA	FL		33605	YES	NO	NO	NO	RICK VANNAN	8132425703	2842							325612						27.966563	-82.41923	004097945								CLOROX CO	009138003	NO	RICK.VANNAN@CLOROX.COM	
2007	ENVIRONMENTAL MANAGER	GREG SWEARINGEN	32674CLRSN650SO	CLOSETMAID INC	650 SW 27TH AVE	OCALA	MARION	FL	34471	CLOSETMAID INC	650 SW 27TH AVE	OCALA	FL		34471	YES	NO	NO	NO	GREG SWEARINGEN	3524016062	3496							332999						29.180725	-82.168578	058257569		FLD148657539						EMERSON ELECTRIC	006269633	NO	GREG.SWEARINGEN@EMERSON.COM	
1999	VICE PRESIDENT ADMINISTRATION	ANNETTE CUTCHENS	33404CLWHT1701A	CLOWHITE CO	1701 AUSTRALIAN AVE	RIVIERA BEACH	PALM BEACH	FL	33404	CLOWHITE CO	PO BOX 456	HAMPTON	GA		30228	YES	NO	NO		FRED ROUSSEAU	5618425505	2842							325612						26.778059	-80.070678	109254961										NO		
2007	PRESIDENT	WILLIAM HIGMAN	33714CLLCR42423	CLUB KIT INC	4242 31ST ST N	SAINT PETERSBURG	PINELLAS	FL	33714	CLUB KIT INC	4242 31ST ST N	SAINT PETERSBURG	FL		33714	YES	NO	NO	NO	JEFF HARGROVE	7273278117	3087							325991						27.810345	-82.675435											NO	NA	
2007	GENERAL MANAGER	MARK W. RIPKE	32091SMJSTC100A	CMC JOIST & DECK	14099 SE 44TH AVE	STARKE	BRADFORD	FL	32091	CMC JOIST & DECK	P. O. BOX 310	STARKE	FL		32091	YES	NO	NO	NO	ALAN GILLESPIE	2055997939	3441							332312						29.916667	-82.119444	058492166								COMMERCIAL METALS CO	007925845	NO	ALAN.GILLESPIE@CMC.COM	
2007	AREA MANAGER	MIKE LEIDIG	33916SMFLR2665P	CMC REBAR FLORIDA	2665 PRINCE ST	FORT MYERS	LEE	FL	33916	CMC REBAR FLORIDA	2665 PRINCE ST	FORT MYERS	FL		33916	YES	NO	NO	NO	ALAN GILLESPIE	2055997939	3441							332312						26.62951	-81.854487	041137407								COMMERCIAL METALS CO	007925845	NO	ALAN.GILLESPIE@CMC.COM	
2007	AREA MANAGER	MIKE LEIDIG	32220WNSTL10483	CMC REBAR FLORIDA	10483 GENERAL AVE	JACKSONVILLE	DUVAL	FL	32220	CMC REBAR FLORIDA	PO BOX 37979	JACKSONVILLE	FL		32236	NO	NO	NO	NO	ALAN GILLESPIE	2055997939	3441							332312						30.312728	-81.835171	041137407								COMMERCIAL METALS CO	007925845	NO	ALAN.GILLESPIE@CMC.COM	
2004	V.P., ENVIRONMENTAL, SAFETY AND OCCUP. HEALTH	B. DUDLEY TARLTON, IV	32920CSTLF8954N	COASTAL FUELS MARKETING INC CAPE CANAVERAL TERMINAL	8954 N ATLANTIC AVE	CAPE CANAVERAL	BREVARD	FL	329200613	COASTAL FUELS MARKETING INC - CAPE CANAVERAL TERMINAL	PO BOX 613	CAPE CANAVERAL	FL		32920-0613	YES	NO	NO	NO	GARRETT CLEMONS	3036268209	5171	4226						424710						28.405355	-80.603507	053765350		FLD000608026						TRANSMONTAIGNE PETROLEUM SERVICES INC	086626678	NO		
2003	V.P., ENVIRONMENTAL, SAFETY AND OCCUP HEALTH	B. DUDLEY TARLTON, IV	33109CSTLFONEBS	COASTAL FUELS MARKETING INC FISHER ISLAND TERMINAL	ONE "B" ST FISHER ISLAND	MIAMI BEACH	DADE	FL	33109	COASTAL FUELS MARKETING INC - FISHER ISLAND	PO BOX 025500	MIAMI	FL		33102-5500	YES	NO	NO	NO	GARRETT CLEMONS	3036268209	5171	4226						424710						25.763361	-80.142528	006922173		FLD000608042		FL0036064				TRANSMONTAIGNE PETROLEUM SERVICES INC	086626678	NO		
2002	VP, ENVIRONMENTAL, SAFETY AND OCCUP. HEALTH	B. DUDLEY TARLTON, IV	32206CSTLF3529T	COASTAL FUELS MARKETING INC JACKSONVILLE TERMINAL	3529 TALLEYRAND AVE.	JACKSONVILLE	DUVAL	FL	32206	COASTAL FUELS MARKETING INC JACKSONVILLE TERMINAL	3529 TALLEYRAND AVE.	JACKSONVILLE	FL		32206	YES	NO	NO	NO	RICHARD A. VOGEL	9543554212	5171							424710						30.360564	-81.627076	152480604		FLD981019656		FL0001350				TRANSMONTAIGNE PETROLEUM SERVICES INC.	086626678	NO		
2002	TERMINAL MANAGER	MITCHELL SARTIN	32501CSTLF640SB	COASTAL FUELS MARKETING INC PENSACOLA TERMINAL	640 S. BARRACKS ST.	PENSACOLA	ESCAMBIA	FL	32501	COASTAL FUELS MARKETING INC PENSACOLA TERMINAL	640 S. BARRACKS ST.	PENSACOLA	FL		32501	YES	NO	NO	NO	DANIEL J. TIBBITS	7134202378	5171							424710						30.406864	-87.210646	083811695		FLD083811695						EL PASO CORP.	029514077	NO		
2004	V.P., ENVIRONMENTAL, SAFETY AND OCCUP. HEALTH	B. DUDLEY TARLTON, IV	33316CSTLF2401E	COASTAL FUELS MARKETING INC PORT EVERGLADES TERMINAL	2401 EISENHOWER BLVD	FORT LAUDERDALE	BROWARD	FL	33316	COASTAL FUELS MARKETING INC- PORT EVERGLADES TERMINAL	PO BOX 13124	FORT LAUDERDALE	FL		33316	YES	NO	NO	NO	GARRETT CLEMONS	3036268209	5171	4226						424710						26.0935	-80.1244	051336535		FLD051336535		FL0039969				TRANSMONTAIGNE PETROLEUM SERVICES INC	086626678	NO		
2004	V.P., ENVIRONMENTAL, SAFETY AND OCCUP HEALTH	B. DUDLEY TARLTON, IV	34221CSTLF804ND	COASTAL FUELS MARKETING INC PORT MANATEE	804 N DOCK ST	PALMETTO	MANATEE	FL	34221	COASTAL FUELS MARKETING INC PORT MANATEE	804 N DOCK ST	PALMETTO	FL		34221	YES	NO	NO	NO	GARRETT CLEMONS	3036268209	5171	4226						424710						27.636194	-82.554806	064683410		FLD064683410		FL0036056				TRANSMONTAIGNE PETROLEUM SERVICES INC	086626678	NO		
2002	PRESIDENT	KENT FARMER	33619CSTLN2520K	COASTAL UNILUBE INC.	2520 KNIGHTS STATION RD.	LAKELAND	POLK	FL	33810	COASTAL UNILUBE INC.	2520 KNIGHTS STATION RD.	LAKELAND	FL		33810	YES	NO	NO	NO	DANIEL J. TIBBITS	7134202378	5171							424710						28.080596	-81.997039	070775655								EL PASO CORP.	029514077	NO		
1988			32773CBBTC500SI	COBIA BOAT CO.	500 SILVERLAKE DR.	SANFORD	SEMINOLE	FL	327736063	COBIA BOAT CO.	500 SILVERLAKE DR.	SANFORD	FL		32773-6063	NO	NO	NO		WALT HAMILTON	4073223540	3732							336612						28.758333	-81.263889			FLD067859231						ETHERINGTON IND. INC.	075402552	NO		
1998	CORPORATE DIRECTOR/OPERATIONS SERVICES	JOHN P. HODGSON	33021CCCLB3350P	COCA-COLA BOTTLING CO OF MIAMI	3350 PEMBROKE RD	HOLLYWOOD	BROWARD	FL	33021	COCA-COLA ENTERPRISES INC	2500 WINDY RIDGE PKWY	ATLANTA	GA		30339	YES	NO	NO		JOHN DOWNS	7709893775	2086							312111						25.995689	-80.175043	040993040		FLD004132726		FLR05B299				COCA-COLA ENTERPRISES INC	118267624	NO		
1993		ALBERT J. KRUGER	32768CCCLF2651O	COCA-COLA FOODS SPECIAL PRODUCTS DEPT	2501 ORANGE AVE	PLYMOUTH	ORANGE	FL	32768	COCA-COLA FOODS SPECIAL PRODUCTS DEPT	2501 ORANGE AVE	PLYMOUTH	FL		32768	NO	YES	NO		DAN SCHAFER	7138885018	2087							311920						28.689366	-81.554519	053393039		FLD053393039						COCA-COLA CO INC	003296175	NO		
2007	GENERAL MANAGER	DOUGLAS W. GUNN	33823CCCLN75MAI	COCA-COLA NORTH AMERICA	705 MAIN ST	AUBURNDALE	POLK	FL	33823	COCA-COLA NORTH AMERICA	705 MAIN ST	AUBURNDALE	FL		33823	YES	NO	NO	NO	DOUGLAS W. GUNN	8635513700								312111	311421					28.054444	-81.78722									COCA-COLA CO	003296175	NO	DGUNN@NA.KO.COM	
2002	PLANT MANAGER	GEORGE CROCKER	33688CLRDM9507N	COL MET INC	9507 NORTH TRASK ST	TAMPA	HILLSBOROUGH	FL	336245136	COL MET INC	9507 NORTH TRASK ST	TAMPA	FL		33624-5136	YES	NO	NO	NO	GEORGE CROCKER	8139611341	3479							332812						28.039337	-82.521222	809166788		FLD004099966		FLR05B012						NO		
1990	DIRECTOR OF PRODUCTION OPERATIONS	T. A. FUHRER	32901CLLNS305NO	COLLINS GENERAL AVIATION	305 NORTH DR.	MELBOURNE	BREVARD	FL	32902	COLLINS GENERAL AVIATION	P.O. BOX 1060	MELBOURNE	FL		32902	YES	NO	NO		T. A. FUHRER	4077687300	3812							334511						28.1094	-80.69	098720857		FLD981921091		FL0040819				ROCKWELL INTL. CORP.	008255523	NO		
1992	PRESIDENT	JEFFREY R. GRIFFIN	33612CLRCR9401N	COLOR CROWN CORP	9401 NORTH 14TH ST	TAMPA	HILLSBOROUGH	FL	33612	COLOR CROWN CORP	9401 NORTH 14TH ST	TAMPA	FL		33612	YES	NO	NO		JEFFREY R GRIFFIN	8139351163	2851							325510						28.034433	-82.444722	094605425										NO		
2007	VICE PRESIDENT / TECHNICAL DIRECTOR	FRED J. STEWART	32808CLRWH2814S	COLOR WHEEL PAINT MANUFACTURING CO INC	2814 SILVER STAR RD	ORLANDO	ORANGE	FL	32808	COLOR WHEEL PAINT MANUFACTURING CO INC	2814 SILVER STAR RD	ORLANDO	FL		32808	YES	NO	NO	NO	FRED J STEWART	4072936810	2851							325510						28.578119	-81.418466	004065256										NO	FSTEWART@COLORWHEEL.COM	
1995	PLANT MANAGER	ARMANDO M. FONSECA	33054CLRTX4300N	COLORTEX DYEING & FINISHING INC	4300 NW 128TH ST	OPA LOCKA	DADE	FL	33054	COLORTEX DYEING & FINISHING INC	4300 NW 128TH ST	OPA LOCKA	FL		33054	YES	NO	NO		ARMANDO M FONSECA	3056852194	2231							313000						25.908962	-80.248765	175391127										NO		
2007	CFO	RONALD GLAZER	32206CMMRC61E1T	COMMERCIAL ALLOYS  JACKSONVILLE PROCESSING FACILITY	610 E 10TH ST	JACKSONVILLE	DUVAL	FL	32206	COMMERCIAL ALLOYS CORP	1831 E HIGHLAND RD	TWINSBURG	OH		44087	YES	NO	NO	NO	RONALD GLAZER	3304055440								331314						30.347402	-81.644705	080442668								COMMERICAL ALLOYS CORP	080442668	NO	RGLAZER@COMMERCIALALLOYS.COM	
2000	SENIOR VICE PRESIDENT	MICHAEL D. GARFFER	33018CMMNT14005	COMMUNITY ASPHALT CORP MIAMI PLANT	14005 NW 186TH ST	HIALEAH	MIAMI-DADE	FL	33018	COMMUNITY ASPHALT CORP MIAMI PLANT	14005 NW 186TH ST	HIALEAH	FL		33018	YES	NO	NO	NO	RUDDY ROBLES	3058290700	2951							324121						25.942349	-80.428245	055217699										NO		
2000	SENIOR VICE PRESIDENT	MICHAEL D. GARFFER	33411CMMNT7795H	COMMUNITY ASPHALT CORP WEST PALM BEACH PLANT	7795 HOOPER RD	WEST PALM BEACH	PALM BEACH	FL	33411	COMMUNITY ASPHALT CORP	14005 NW 186TH ST	HIALEAH	FL		33018	YES	NO	NO	NO	RUDDY ROBLES	3058290700	2951							324121						26.68078	-80.169154	055217699										NO		
2007	DIRECTOR OF OPERATIONS	DAVID DILL	32032CRNDP308OL	COMPLEMENTARY COATINGS CORP	308 OLD COUNTY RD	EDGEWATER	VOLUSIA	FL	32132	COMPLEMENTARY COATINGS CORP	308 OLD COUNTY RD	EDGEWATER	FL		32132	YES	NO	NO	NO	DAVID W. DILL	3864286461	2851							325510						28.9883	-80.91									BENJAMIN MOORE & CO	001210715	NO	DAVE.DILL@INSL-X.COM	
1999	GENERAL MANAGER	ROBERT MEYER	34221CMPNN27251	COMPONENT TECHNOLOGIES INC	2725 17TH ST EAST	PALMETTO	MANATEE	FL	34221	COMPONENT TECHNOLOGIES INC	2725 17TH ST EAST	PALMETTO	FL		34221	YES	NO	NO		ROBERT MEYER	9417239997	3081							326113						27.5287	-82.536411	789349842		FLD982148611								NO		
2007		SCOTT LEWIT	32934CMPSY4255D	COMPSYS INC	4255 DOW RD	MELBOURNE	BREVARD	FL	32934	COMPSYS INC	4255 DOW RD	MELBOURNE	FL		32934	YES	NO	NO	NO	SCOTT LEWIT	3212550399	3086	3999						326150						28.107492	-80.697232	884352428										NO		
2000	EXECUTIVE VICE PRESIDENT	PATRICIA A. HELBING	32940CMPSY3270S	COMPSYS INC	3270 SUNTREE BLVD SUITE 3B	MELBOURNE	BREVARD	FL	32940	COMPSYS INC	4255 DOW RD	MELBOURNE	FL		32902	YES	NO	NO	NO	SCOTT LEWIT	3219519464	3086	3999						326100						28.22825	-80.677175	884352428										NO		
1996	EXECUTIVE V.P.	PATRICIA A. HELBLING	32955CMPSY380GU	COMPSYS INC	380 GUS HIPP BLVD	ROCKLEDGE	BREVARD	FL	32955	COMPSYS INC	PO BOX 879	MELBOURNE	FL		32902	YES	NO	NO		SCOTT LEWIT	3219519464	3086	3999						326100						28.304131	-80.712919	884352428										NO		
1994	PRESIDENT	JACK L. ROBINSON	33634CMPFB4907W	COMPUFAB INC	4907 WEST WATERS AVE	TAMPA	HILLSBOROUGH	FL	33634	COMPUFAB INC	4907 WEST WATERS AVE	TAMPA	FL		33634	YES	NO	NO		JACK L ROBINSON	8138867511	3999							334412						28.025605	-82.527324	115388332		FLD115388332								NO		
2007	VICE PRESIDENT, OPERATIONS	DOUG FRANZESE	33702CMPLN1205G	COMPULINK CABLE ASSEMBLIES	1205 GANDY BLVD N	SAINT PETERSBURG	PINELLAS	FL	33702	COMPULINK CABLE ASSEMBLIES	1205 GANDY BLVD N	SAINT PETERSBURG	FL		33702	YES	NO	NO	NO	DOUG FRANZESE	7275791500	3679							334419						27.864718	-82.642276	040463739										NO	DFRANZESE@COMPULINK-USA.COM	
2007	PRESIDENT	THOMAS C. CHRISTY	32769CMTCH3100C	COMTECH ANTENNA SYSTEMS INC.	3100 COMMUNICATIONS RD	SAINT CLOUD	OSCEOLA	FL	34769	COMTECH ANTENNA SYSTEMS INC.	3100 COMMUNICATIONS RD	SAINT CLOUD	FL		34769	YES	NO	NO	NO	THOMAS C. CHRISTY	4078926111	3663							334220						28.245972	-81.303406	121833222								COMTECH TELECOMMUNICATIONS CORP.	041868365	NO	NA	
2006	PRESIDENT	LUIS AVILA	33054CNCPT241NW	CONCEPT BOATS	2410 NW 147TH ST	OPA LOCKA	MIAMI-DADE	FL	33054	CONCEPT BOATS	2410 NW 147TH ST	OPA LOCKA	FL		33054	YES	NO	NO	NO	LUIS AVILA	3056358712	3732							336612						0	0											NO		
2003	PRESIDENT	LUIS AVILA	33142CNCPT2157N	CONCEPT BOATS INC	2157 NW 23RD AVE	MIAMI	MIAMI-DADE	FL	33142	CONCEPT BOATS	2410 NW 147TH ST	OPA LOCKA	FL		33054	YES	NO	NO	NO	LUIS AVILA	3056358712	3732							336612						25.796569	-80.233636											NO		
1990	PRESIDENT	W. I. MASON	34609CNDNS2131B	CONDENSER PRODUCTS CORP	2131 BROAD ST	BROOKSVILLE	HERNANDO	FL	34609	CONDENSER PRODUCTS CORP	2131 BROAD ST	BROOKSVILLE	FL		34609	YES	NO	NO		W I MASON	9047963561	3675							334414						28.467292	-82.446077	055196331		FLD982140626								NO		
2001	PRESIDENT	ROGER THOMSON	32773CNLC 2675S	CONELEC	2675 S. DESIGN CT.	SANFORD	SEMINOLE	FL	32773	CONELEC	421CORNWALL	SANFORD	FL		32773	YES	NO	NO	NO	SUSAN THOMSON	4073219000	3672							334412						28.728755	-81.298047	080161870										NO		
2007	PRESIDENT	ROGER THOMSON	32773CNLC 421CO	CONELEC	421 CORNWALL RD	SANFORD	SEMINOLE	FL	32773	CONELEC	421 CORNWALL RD	SANFORD	FL		32773	YES	NO	NO	NO	DAVID VICKERY	4073219000	3672							334418						28.763959	-81.264231	080161870										NO	DAVEV@CONELEC.NET	
1991	V.P. MANUFACTURING	WAYNE G. FALL	33309DVCCR6600N	CONNECTRONICS INC	6600 NW 15TH AVE	FORT LAUDERDALE	BROWARD	FL	33309	CONNECTRONICS INC	6600 NW 15TH AVE	FORT LAUDERDALE	FL		33309	YES	NO	NO		GARY DEIERLEIN	3059750511	3672							334412						26.20807	-80.163855	195500483		FLD981475049								NO		
2007	PRESIDENT AND CEO	W.E. SWARTZ	33777CNSTL7887B	CONSTELLATION TECHNOLOGY CORP	7887 BRYAN DAIRY RD SUITE 100	LARGO	PINELLAS	FL	33777	CONSTELLATION TECHNOLOGY CORP	7887 BRYAN DAIRY RD SUITE 100	LARGO	FL		33777	YES	NO	NO	NO	WILLIAM E. SWARTZ	7275470600								541710						27.872427	-82.7484	824731061										NO	SWARTZ@CONTECH.COM	
2007	SR. VICE PRESIDENT	BOB BLANK	33035CNTND1820S	CONTENDER BOATS INC	1820 SE 38TH AVE	HOMESTEAD	MIAMI-DADE	FL	33035	CONTENDER BOATS INC	1820 SE 38TH AVE	HOMESTEAD	FL		33035	YES	NO	NO	NO	BOB BLANK	3052301600	3732							336612	336611					25.453439	-80.422098	174374850										NO	BOB@CONTENDER.COM	
1997	PRESIDENT	JOSEPH	33137CNTND395NE	CONTENDER BOATS INC.	395 N.E. 59TH ST.	MIAMI	DADE	FL	33137	CONTENDER BOATS INC.	395 N.E. 59TH ST.	MIAMI	FL		33137	YES	NO	NO		STEVE CUNNINGHAM	3052301600	3732							336612						25.8293	-80.188589	174374850		FLD984233056								NO		
1991	PLANT MANAGER	JOHN F. WERMANN	34292CKBTS1200O	COOK BATES CO.	1200 OGDEN RD.	VENICE	SARASOTA	FL	34292	COOK BATES CO.	1200 OGDEN RD.	VENICE	FL		34292	YES	NO	NO		JOHN F. WERMANN	8134933566	3999	3079	3569					339999						27.0822	-82.4232	077884906		ALD000622464	FLA981478258					LONDON INTERNATIONAL U.S. HOLDINGS INC.	160944971	NO		
2007	DIRECTOR HSE COMPLIANCE ASSURANCE	JON SCHUCKMAN	32824MRCNC685RO	COOK COMPOSITES & POLYMERS C O.	10124 ROCKET BLVD	ORLANDO	ORANGE	FL	32824	COOK COMPOSITES & POLYMERS CO.	PO BOX 419389	KANSAS CITY	MO		641416389	YES	NO	NO	NO	JON SCHUCKMAN	8163916324	2851							325510						28.418	-81.387	610416802								COOK COMPOSITES & POLYMERS CO.	610416802	NO	SCHUCKMAN@CCPONLINE.COM	
2004	DIRECTOR OF OPERATIONS	DENNIS PETERS	33419PCNDS1661O	COOKSON ELECTRONICS	1661 OLD DIXIE HWY	RIVIERA BEACH	PALM BEACH	FL	33404	COOKSON ELECTRONICS	1661 OLD DIXIE HWY	RIVIERA BEACH	FL		33404	YES	NO	NO	NO	MICHAEL CUDAHY	5618440241	2891							325520						26.776577	-80.064486	089352983		FLD004441838		FLR05B399				FRY METALS	089352983	NO		
