TRIFID	DOCUMENT CONTROL NUMBER	CAS NUMBER	CHEMICAL NAME	CLASSIFICATION	REPORTING YEAR	FACILITY NAME	FACILITY STREET	FACILITY CITY	FACILITY COUNTY	FACILITY STATE	FACILITY ZIP CODE	ENTIRE FACILITY IND	PARTIAL FACILITY IND	FEDERAL FACILITY IND	GOCO FACILITY IND	PRIMARY SIC CODE	SIC CODE 2	SIC CODE 3	SIC CODE 4	SIC CODE 5	SIC CODE 6	NAICS ORIGIN	PRIMARY NAICS CODE	NAICS CODE 2	NAICS CODE 3	NAICS CODE 4	NAICS CODE 5	NAICS CODE 6	LATITUDE	LONGITUDE	DB NR A	DB NR B	RCRA NR A	RCRA NR B	NPDES NR A	NPDES NR B	UIC NR A	UIC NR B	PARENT COMPANY NAME	PARENT COMPANY DB NR	ADDITION INFORMATION - SOURCE REDUCTION	ASSIGNED FED. FACILITY FLAG	PUBLIC CONTACT EMAIL	REVISION CODE 1	REVISION CODE 2	METAL INDICATOR
32501RCHHL407SO	1307205315551	000100414	ETHYLBENZENE	TRI	2007	REICHHOLD, INC	425 S PACE BLVD	PENSACOLA	ESCAMBIA	FL	32501	YES	NO	NO	NO								325211						30.40772	-87.242	001220904								REICHHOLD, INC	001220904	Identified as-is use for residue generated from solvent recovery.	NO	BRUCE.MCCALL@REICHHOLD.COM			NO	
32501RCHHL407SO	1307205315637	001330207	XYLENE (MIXED ISOMERS)	TRI	2007	REICHHOLD, INC	425 S PACE BLVD	PENSACOLA	ESCAMBIA	FL	32501	YES	NO	NO	NO								325211						30.40772	-87.242	001220904								REICHHOLD, INC	001220904	Identified as-is use for residue generated from solvent recovery.	NO	BRUCE.MCCALL@REICHHOLD.COM			NO	
32303GNRLD293CM	1307205887654	007439921	LEAD	PBT	2007	GENERAL DYNAMICS LAND SYSTEMS	2930 COMMONWEALTH BLVD	TALLAHASSEE	LEON	FL	32303	YES	NO	NO	NO								334412						30.475861	-84.361598	131266926								GENERAL DYNAMICS CORP LAND SYSTEMS	131266926	THIS SITE IS ISO 14001 AND OHSAS 18001 CERTIFIED.	NO	COWANR@GDLS.COM			YES	
33169NLTNT1251N	1307205361114	001330207	XYLENE (MIXED ISOMERS)	TRI	2007	NALLITE INTERNATIONAL INC.	1111 NW 165TH ST	MIAMI	MIAMI-DADE	FL	33169	YES	NO	NO	NO								326199						25.92417	-80.219626	066221284								GRAHAM PARTNERS	626804934	Nailite's waste minimization practices include overspray reclaim, conversion of painted solids to "molded-in-color products" and  continued efforts with vendors to formulate reduced HAPs coatings and integrate into coating process.  Additionally, Nailite has replaced a spray paint booth  with a state-of-the art system which is designed  to utilize less coating and solvent and minimize overspray.	NO	SSCHWARZ@NALITE.COM			NO	
33169NLTNT1251N	1307205361126	000100414	ETHYLBENZENE	TRI	2007	NALLITE INTERNATIONAL INC.	1111 NW 165TH ST	MIAMI	MIAMI-DADE	FL	33169	YES	NO	NO	NO								326199						25.92417	-80.219626	066221284								GRAHAM PARTNERS	626804934	Nailite's waste minimization practices include overspray reclaim, conversion of painted solids to "molded-in-color products" and  continued efforts with vendors to formulate reduced HAPs coatings and integrate into coating process.  Additionally, Nailite has replaced a spray paint booth  with a state-of-the art system which is designed  to utilize less coating and solvent and minimize overspray.	NO	SSCHWARZ@NALITE.COM			NO	
33169NLTNT1251N	1307205361138	000108883	TOLUENE	TRI	2007	NALLITE INTERNATIONAL INC.	1111 NW 165TH ST	MIAMI	MIAMI-DADE	FL	33169	YES	NO	NO	NO								326199						25.92417	-80.219626	066221284								GRAHAM PARTNERS	626804934	Nailite's waste minimization practices include overspray reclaim, conversion of painted solids to "molded-in-color products" and  continued efforts with vendors to formulate reduced HAPs coatings and integrate into coating process.  Additionally, Nailite has replaced a spray paint booth  with a state-of-the art system which is designed  to utilize less coating and solvent and minimize overspray.	NO	SSCHWARZ@NALITE.COM			NO	
33169NLTNT1251N	1307205361140	000095636	1,2,4-TRIMETHYLBENZENE	TRI	2007	NALLITE INTERNATIONAL INC.	1111 NW 165TH ST	MIAMI	MIAMI-DADE	FL	33169	YES	NO	NO	NO								326199						25.92417	-80.219626	066221284								GRAHAM PARTNERS	626804934	Nailite's waste minimization practices include overspray reclaim, conversion of painted solids to "molded-in-color products" and  continued efforts with vendors to formulate reduced HAPs coatings and integrate into coating process.  Additionally, Nailite has replaced a spray paint booth  with a state-of-the art system which is designed  to utilize less coating and solvent and minimize overspray.	NO	SSCHWARZ@NALITE.COM			NO	
34243HNYWL18455	1307205711171	007439921	LEAD	PBT	2007	HONEYWELL INTERNATIONAL	1845 57TH ST	SARASOTA	SARASOTA	FL	34243	YES	NO	NO	NO								334418						27.383463	-82.531497									HONEYWELL INTERNATIONAL	763954618	This facility is shutdown and no longer in operation.	NO	JIM.KORTH@HONEYWELL.COM			YES	
34474MRLLT1300S	1307205957032	000100414	ETHYLBENZENE	TRI	2007	MASCO BCG- MERILLAT OCALA	1300 SW 38TH AVE	OCALA	MARION	FL	34474	YES	NO	NO	NO								337110						29.1746	-82.1882	005034749								MASCO CORP	005320924	Ongoing VOC reduction activities, ISO 14001 recertification	NO	DONNA.TACKETT@MASCOBCG.COM	RR4		NO	
34474MRLLT1300S	1307205957044	001330207	XYLENE (MIXED ISOMERS)	TRI	2007	MASCO BCG- MERILLAT OCALA	1300 SW 38TH AVE	OCALA	MARION	FL	34474	YES	NO	NO	NO								337110						29.1746	-82.1882	005034749								MASCO CORP	005320924	Ongoing VOC reduction program internally	NO	DONNA.TACKETT@MASCOBCG.COM	RR4		NO	
32206FMCCR1200T	1307205885508	000095636	1,2,4-TRIMETHYLBENZENE	TRI	2007	FMC CORP	1200 TALLEYRAND AVE	JACKSONVILLE	DUVAL	FL	32206	YES	NO	NO	NO								325320						30.337678	-81.630604	047969712								FMC CORP	009146945	PLANT TO CLOSE ALL FORMULATION ACTIVITIES IN 2007. PROJECTED NUMBERS FOR FUTURE YEARS BASED NO PRODUCTION ACTIVITIES IN YEARS 2008 AND 2009.	NO	MICHAEL.KING@FMC.COM			NO	
32784LKCGN39000	1307205442092	007782505	CHLORINE	TRI	2007	LAKE COGENERATION	39001 GOLDEN GEM DR	UMATILLA	LAKE	FL	32784	YES	NO	NO	NO								221112						28.919871	-81.67887	968368704										CHLORINE IS USED AS A BIOLOGICAL CONTROL IN THE FACILITY'S CIRCULATING WATER SYSTEM. THE WATER IS CIRCULATED AND THEN PROCESSED VIA A  ZERO WASTEWATER DISCHARGE SYSTEM.  THROUGH A CONCENTRATION AND THERMAL EVAPORATION PROCESS, THE CHLORINE IS RECONSTITUTED AS A SALT AND DISPOSED OF AT THE OMNI LANDFILL AS A NON-HAZARDOUS RESIDUAL WASTE MATERIAL.	NO	TGRACE@CAITHNESSENERGY.COM			NO	
33527TRSRR3060G	1307205677331	007664417	AMMONIA	TRI	2007	TAMPA BAY FISHERIES INC	3060 N GALLAGHER RD	DOVER	HILLSBOROUGH	FL	33527	YES	NO	NO	NO								311712						27.992806	-82.25066	046085056										WE HAVE MADE A POSITIVE EFFORT TO RMOVE OLD EQUIPMENT AND INSTALL MORE MODERN EQUIPMENT TO MAKE OUR FACILITY SAFER.THIS WILL TAKE TIME AND EFFORT SINCE OUR PLANT IS OVER 40 YEARS OLD.	NO	DSEELL@TAMPABAY.RR.COM			NO	
33316MCLC01180S	1307205840743	N590	POLYCYCLIC AROMATIC COMPOUNDS	PBT	2007	BP PRODUCTS NORTH AMERICA INC. PORT EVERGLADES TERMINAL	1180 SPANGLER BLVD	FORT LAUDERDALE	BROWARD	FL	33316	YES	NO	NO	NO								424710						26.091417	-80.12975									BP AMERICA INC.	039596507	NA	NO	RAFORD.MURPHY@BP.COM			NO	
33316MCLC01180S	1307205840756	000191242	BENZO(G,H,I)PERYLENE	PBT	2007	BP PRODUCTS NORTH AMERICA INC. PORT EVERGLADES TERMINAL	1180 SPANGLER BLVD	FORT LAUDERDALE	BROWARD	FL	33316	YES	NO	NO	NO								424710						26.091417	-80.12975									BP AMERICA INC.	039596507	NA	NO	RAFORD.MURPHY@BP.COM			NO	
33316MCLC01180S	1307205840768	000100414	ETHYLBENZENE	TRI	2007	BP PRODUCTS NORTH AMERICA INC. PORT EVERGLADES TERMINAL	1180 SPANGLER BLVD	FORT LAUDERDALE	BROWARD	FL	33316	YES	NO	NO	NO								424710						26.091417	-80.12975									BP AMERICA INC.	039596507	NA	NO	RAFORD.MURPHY@BP.COM			NO	
33316MCLC01180S	1307205840770	000110543	N-HEXANE	TRI	2007	BP PRODUCTS NORTH AMERICA INC. PORT EVERGLADES TERMINAL	1180 SPANGLER BLVD	FORT LAUDERDALE	BROWARD	FL	33316	YES	NO	NO	NO								424710						26.091417	-80.12975									BP AMERICA INC.	039596507	NA	NO	RAFORD.MURPHY@BP.COM			NO	
33316MCLC01180S	1307205840782	000091203	NAPHTHALENE	TRI	2007	BP PRODUCTS NORTH AMERICA INC. PORT EVERGLADES TERMINAL	1180 SPANGLER BLVD	FORT LAUDERDALE	BROWARD	FL	33316	YES	NO	NO	NO								424710						26.091417	-80.12975									BP AMERICA INC.	039596507	NA	NO	RAFORD.MURPHY@BP.COM			NO	
33316MCLC01180S	1307205840794	000108883	TOLUENE	TRI	2007	BP PRODUCTS NORTH AMERICA INC. PORT EVERGLADES TERMINAL	1180 SPANGLER BLVD	FORT LAUDERDALE	BROWARD	FL	33316	YES	NO	NO	NO								424710						26.091417	-80.12975									BP AMERICA INC.	039596507	NA	NO	RAFORD.MURPHY@BP.COM			NO	
33316MCLC01180S	1307205840806	001330207	XYLENE (MIXED ISOMERS)	TRI	2007	BP PRODUCTS NORTH AMERICA INC. PORT EVERGLADES TERMINAL	1180 SPANGLER BLVD	FORT LAUDERDALE	BROWARD	FL	33316	YES	NO	NO	NO								424710						26.091417	-80.12975									BP AMERICA INC.	039596507	NA	NO	RAFORD.MURPHY@BP.COM			NO	
33316MCLC01180S	1307205840818	N420	LEAD COMPOUNDS	PBT	2007	BP PRODUCTS NORTH AMERICA INC. PORT EVERGLADES TERMINAL	1180 SPANGLER BLVD	FORT LAUDERDALE	BROWARD	FL	33316	YES	NO	NO	NO								424710						26.091417	-80.12975									BP AMERICA INC.	039596507	NA	NO	RAFORD.MURPHY@BP.COM			YES	
33316MCLC01180S	1307205840820	000071432	BENZENE	TRI	2007	BP PRODUCTS NORTH AMERICA INC. PORT EVERGLADES TERMINAL	1180 SPANGLER BLVD	FORT LAUDERDALE	BROWARD	FL	33316	YES	NO	NO	NO								424710						26.091417	-80.12975									BP AMERICA INC.	039596507	NA	NO	RAFORD.MURPHY@BP.COM			NO	
33316MCLC01180S	1307205840832	000095636	1,2,4-TRIMETHYLBENZENE	TRI	2007	BP PRODUCTS NORTH AMERICA INC. PORT EVERGLADES TERMINAL	1180 SPANGLER BLVD	FORT LAUDERDALE	BROWARD	FL	33316	YES	NO	NO	NO								424710						26.091417	-80.12975									BP AMERICA INC.	039596507	NA	NO	RAFORD.MURPHY@BP.COM			NO	
33065KBLCT12095	1307205216904	007439921	LEAD	PBT	2007	KB ELECTRONICS INC	12095 NW 39TH ST	CORAL SPRINGS	BROWARD	FL	33065	YES	NO	NO	NO								335314						26.27882	-80.288657	043178441								KB ELECTRONICS		KB ELECTRONICS IMPLEMENTED THE ROHS DIRECTIVE IN THE SECOND QUARTER OF THE FY2007 TO REDUCE THE LEAD CONTENT IN THE SOLDER USED IN OUR WAVE SOLDER PROCESS.  WE HAVE REDUCED OUR LEAD CONTENT FROM 37% TO 14% IN FY2007.  WE EXPECT TO REDUCE THE LEAD CONTENT TO -ZERO- IN FY2008 AS WE HAVE SWITCHED TO LEAD FREE SOLDER IN OUR PROCESS.	NO	JMORGAN@KBELECTRONICS.NET	RR4		YES	
32724SHRWD2010N	1307205905918	007697372	NITRIC ACID	TRI	2007	TYCO HEALTHCARE KENDALL	2010 E INTERNATIONAL SPEEDWAY	DE LAND	VOLUSIA	FL	32724	YES	NO	NO	NO								339112						29.06083	-81.265	058614483								TYCO INT'L (US) INC.	058614483	WE OUTSOURCED A PROCESS WHICH REDUCED THE AMOUNT OF NITRIC ACID USED IN THE FACILITY IN 2007. THE PROCESS HAS RETURNED TO THE FACILITY IN 2008 DUE TO VENDER ISSUES, WHICH WILL INCREASE OR EXCEED THE 2006 USAGE QUANTITY.	NO	KAREN.QUINN-QUINTIN@COVIDIEN.COM			NO	
33056BFGDR3201N	1307205670716	007439921	LEAD	PBT	2007	GOODRICH CORP	3201 NW 167 ST	OPA LOCKA	MIAMI-DADE	FL	33056	YES	NO	NO	NO								336413						25.926443	-80.252668									GOODRICH CORP		THE FACILITY IMPLEMENTED AND INSPECTION PROGRAM THAT MINIMIZED THE SOURCES WHICH GENERATED HAZARDOUS WASTE WHICH CONTAINED LEAD.  ALTHOUGH THERE WAS AN INCREASE IN CHEMICAL RELEASE, THERE WAS ALSO AN INCREASED IN OVERALL PRODUCTION THAT WOULD EXPLAIN WHY THERE WAS NO REDUCTION.	NO	BRUCE.DUNNETT@GOODRICH.COM			YES	
33056BFGDR3201N	1307205670728	000079016	TRICHLOROETHYLENE	TRI	2007	GOODRICH CORP	3201 NW 167 ST	OPA LOCKA	MIAMI-DADE	FL	33056	YES	NO	NO	NO								336413						25.926443	-80.252668									GOODRICH CORP		ALTHOOUGH THE FACILITY IMPLEMENTED SOURCE REDUCTION PROGRAMS, THERE WAS AN UNSCHEDULED MAINTENANCE ACTIVITY THAT RESULTED IN AN INCREASE OF HAZARDOUSE WASTE CONTAINING TRICHLOROETHYLENE.	NO	BRUCE.DUNNETT@GOODRICH.COM			NO	
33069JRCNC311NW	1307206141943	N420	LEAD COMPOUNDS	PBT	2007	JRE / CONCEPT 2 MARKET INC	3000-11 NW 25TH AVE	POMPANO BEACH	BROWARD	FL	33069	YES	NO	NO	NO								334418						26.262778	-80.153611	945852663										WE ARE BEGINNING TO SELECTIVELY USE LEAD-FREE SOLDERING (ROHS) FOR CUSTOMERS THAT REQUEST THIS PROCESS.	NO	JIM@JRESOUTH.COM			YES	
33178DYNNB11420	1307205500806	N511	NITRATE COMPOUNDS	TRI	2007	DYNO NOBEL INC	11420 NW 134TH ST	MIAMI	MIAMI-DADE	FL	33178	YES	NO	NO	NO								325920						25.895067	-80.384212	009091257										The Miami, FL plant has reduced the amount of product produced to manage inventory vs. Product demand.	NO	STAN.JERAULD@AM.DYNONOBEL.COM			NO	
33182CSRMR1200N	1307205992353	N090	CHROMIUM COMPOUNDS(EXCEPT CHROMITE ORE MINED IN THE TRANSVAAL REGION)	TRI	2007	CEMEX MIAMI	1200 NW 137 AVE	MIAMI	MIAMI-DADE	FL	33182	YES	NO	NO	NO								327310						25.782401	-80.417459	189840945								CEMEX INC	189840945	NOTE THAT THE COUNTY OF DADE IS NOT INCLUDED IN THE TRI SOFTWARE.	NO	LILLIANF.DEPRIMO@CEMEX.COM			YES	
33312CRLCT5757R	1307205696141	007439921	LEAD	PBT	2007	ACR ELECTRONICS INC	5757 RAVENSWOOD RD	FORT LAUDERDALE	BROWARD	FL	333126603	YES	NO	NO	NO								334220	335129					26.050912	-80.168221	080170350								CHELTON AVIONICS	019079925	ACR ELECTRONICS PHASED OUT THE USE OF LEAD AS BALLASTS IN 2005.   CURRENT USE OF LEAD IS THE USE OF LEAD IN SOLDER FOR ELECTRONIC ASSEMBLY.  WE  USE LEAD FREE SOLDER PRODUCTS AS AN INITIATIVE TO REDUCE LEAD IN MANUFACTURING.  OUR USE OF LEAD IN SOLDER FOR 2007 IS CONSISTENT WITH THE USE OF LEAD IN SOLDER IN THE PRIOR YEAR. WE CONTINUE TO LOOK FOR GREEN ALTERNATIVES AND OPPORTUNITIES AS A MANUFACTURER.	NO	EWOLF@ACRELECTRONICS.COM			YES	
33334MRLLC4007N	1307205876434	N420	LEAD COMPOUNDS	PBT	2007	MARLO ELECTRONICS INC.	4007 NE 6TH AVE	FORT LAUDERDALE	BROWARD	FL	33334	YES	NO	NO	NO								334412						26.175933	-80.138674	591149578										New process is called the ROHS for printed circuits.	NO	MARKGODDARD@AOL.COM			YES	
33407PRCSP2656E	1307205513411	007440508	COPPER	TRI	2007	PRECIOUS PLATE FLORIDA	2656 ELECTRONICS WAY	WEST PALM BEACH	PALM BEACH	FL	33407	YES	NO	NO	NO								332116	332813					26.737648	-80.065683	782149504								SAFT AMERICA INC	063152573	All copper which is not shipped out as product is sent out for recycling	NO	DORA.HODGE@PRECIOUSPLATEFLA.COM			YES	
32025GRTSTHWY10	1307205792536	N420	LEAD COMPOUNDS	PBT	2007	GREAT SOUTH TIMBER & LUMBER INC	HWY 100 E	LAKE CITY	COLUMBIA	FL	32025	YES	NO	NO	NO								321113						30.298611	-82.606111											NA	NO	ROLANDBALES@YAHOO.COM			YES	
32114CRNCM530FE	1307205576871	007440473	CHROMIUM	TRI	2007	CRANE CAMS INC	530 FENTRESS BLVD	DAYTONA BEACH	VOLUSIA	FL	32114	YES	NO	NO	NO								336312						29.202	-81.0838	793871620								MIKRONITE AUTOMOTIVE TECHNOLOGIES INC.		THE CONTRIBUTOR TO EMISSIONS IN OUR OPERATION IS THE GRINDING AND MILLING OF METAL.  THE MAJORITY OF OUR GRINDING/MILLING TAKES PLACE IN A "WET" ENVIRONMENT, I.E., COOLANT IS DIRECTED ON THE GRINDING WHEEL/MILLING TOOL, THEREBY GREATLY REDUCING THE EMISSIONS FROM THESE OPERATIONS.  THE COOLANT IS FILTERED, AND THE FILTRANT IS SENT TO A RECYCLER.  IN THOSE FEW INSTANCES WHERE COOLANT IS NOT USED, WE HAVE INSTALLED DUST COLLECTORS THAT ARE EMPTIED INTO A BIN AND SENT TO A RECYCLER.  SINCE THE CHEMICALS ON WHICH WE ARE REPORTING ARE COMPONENTS OF THE BAR STOCK FROM WHICH WE MANUFACTURE OUR PRODUCTS, PRODUCTION RATIOS WILL VARY DIRECTLY WITH THE DEMAND  FOR OUR PRODUCTS.  UNFORTUNATELY, WE HAVE NOT FOUND SUITABLE REPLACEMENTS FOR THE BAR STOCK.	NO	DBURGESS@CRANECAMS.COM			YES	
32114CRNCM530FE	1307205576883	007439921	LEAD	PBT	2007	CRANE CAMS INC	530 FENTRESS BLVD	DAYTONA BEACH	VOLUSIA	FL	32114	YES	NO	NO	NO								336312						29.202	-81.0838	793871620								MIKRONITE AUTOMOTIVE TECHNOLOGIES INC.		THE CONTRIBUTOR TO EMISSIONS IN OUR OPERATION IS THE GRINDING AND MILLING OF METAL.  THE MAJORITY OF OUR GRINDING/MILLING TAKES PLACE IN A "WET" ENVIRONMENT, I.E., COOLANT IS DIRECTED ON THE GRINDING WHEEL/MILLING TOOL, THEREBY GREATLY REDUCING THE EMISSIONS FROM THESE OPERATIONS.  THE COOLANT IS FILTERED, AND THE FILTRANT IS SENT TO A RECYCLER.  IN THOSE FEW INSTANCES WHERE COOLANT IS NOT USED, WE HAVE INSTALLED DUST COLLECTORS THAT ARE EMPTIED INTO A BIN AND SENT TO A RECYCLER.  SINCE THE CHEMICALS ON WHICH WE ARE REPORTING ARE COMPONENTS OF THE BAR STOCK FROM WHICH WE MANUFACTURE OUR PRODUCTS, PRODUCTION RATIOS WILL VARY DIRECTLY WITH THE DEMAND  FOR OUR PRODUCTS.  UNFORTUNATELY, WE HAVE NOT FOUND SUITABLE REPLACEMENTS FOR THE BAR STOCK.	NO	DBURGESS@CRANECAMS.COM			YES	
32114CRNCM530FE	1307205576895	007439965	MANGANESE	TRI	2007	CRANE CAMS INC	530 FENTRESS BLVD	DAYTONA BEACH	VOLUSIA	FL	32114	YES	NO	NO	NO								336312						29.202	-81.0838	793871620								MIKRONITE AUTOMOTIVE TECHNOLOGIES INC.		THE CONTRIBUTOR TO EMISSIONS IN OUR OPERATION IS THE GRINDING AND MILLING OF METAL.  THE MAJORITY OF OUR GRINDING/MILLING TAKES PLACE IN A "WET" ENVIRONMENT, I.E., COOLANT IS DIRECTED ON THE GRINDING WHEEL/MILLING TOOL, THEREBY GREATLY REDUCING THE EMISSIONS FROM THESE OPERATIONS.  THE COOLANT IS FILTERED, AND THE FILTRANT IS SENT TO A RECYCLER.  IN THOSE FEW INSTANCES WHERE COOLANT IS NOT USED, WE HAVE INSTALLED DUST COLLECTORS THAT ARE EMPTIED INTO A BIN AND SENT TO A RECYCLER.  SINCE THE CHEMICALS ON WHICH WE ARE REPORTING ARE COMPONENTS OF THE BAR STOCK FROM WHICH WE MANUFACTURE OUR PRODUCTS, PRODUCTION RATIOS WILL VARY DIRECTLY WITH THE DEMAND  FOR OUR PRODUCTS.  UNFORTUNATELY, WE HAVE NOT FOUND SUITABLE REPLACEMENTS FOR THE BAR STOCK.	NO	DBURGESS@CRANECAMS.COM			YES	
32114CRNCM530FE	1307205576907	007440020	NICKEL	TRI	2007	CRANE CAMS INC	530 FENTRESS BLVD	DAYTONA BEACH	VOLUSIA	FL	32114	YES	NO	NO	NO								336312						29.202	-81.0838	793871620								MIKRONITE AUTOMOTIVE TECHNOLOGIES INC.		THE CONTRIBUTOR TO EMISSIONS IN OUR OPERATION IS THE GRINDING AND MILLING OF METAL.  THE MAJORITY OF OUR GRINDING/MILLING TAKES PLACE IN A "WET" ENVIRONMENT, I.E., COOLANT IS DIRECTED ON THE GRINDING WHEEL/MILLING TOOL, THEREBY GREATLY REDUCING THE EMISSIONS FROM THESE OPERATIONS.  THE COOLANT IS FILTERED, AND THE FILTRANT IS SENT TO A RECYCLER.  IN THOSE FEW INSTANCES WHERE COOLANT IS NOT USED, WE HAVE INSTALLED DUST COLLECTORS THAT ARE EMPTIED INTO A BIN AND SENT TO A RECYCLER.  SINCE THE CHEMICALS ON WHICH WE ARE REPORTING ARE COMPONENTS OF THE BAR STOCK FROM WHICH WE MANUFACTURE OUR PRODUCTS, PRODUCTION RATIOS WILL VARY DIRECTLY WITH THE DEMAND  FOR OUR PRODUCTS.  UNFORTUNATELY, WE HAVE NOT FOUND SUITABLE REPLACEMENTS FOR THE BAR STOCK.	NO	DBURGESS@CRANECAMS.COM			YES	
32132RJDGH544SA	1307205941899	000100425	STYRENE	TRI	2007	RJ DOUGHERTY ASSOCIATES INC D BA EVERGLADES	544 S AIR PARK RD	EDGEWATER	VOLUSIA	FL	32132	YES	NO	NO	NO								336612						28.98	-80.928329											FACILITY OPERATES UNDER BOAT MFG NESHAP WHICH LIMITS STYRENE USAGE BASED ON PRODUCTION.	NO	MICHAEL@EVERGLADES.COM			NO	
32135HPRDC1COMM	1307205930237	007440508	COPPER	TRI	2007	KANTHAL PALM COAST	1 COMMERCE BLVD	PALM COAST	FLAGLER	FL	32164	YES	NO	NO	NO								331422	331222					29.5517	-81.2632	031581184								KANTHAL CORP	786891820	QC PROCEDURES ARE BEING MODIFIED TO REDUCE AMOUNT OF MATERIAL RETURNED FROM CUSTOMERS.	NO	PHIL.YU@KANTHAL.COM			YES	
32168LGHTH703SO	1307205217300	N230	CERTAIN GLYCOL ETHERS	TRI	2007	MOMENTIVE PERFORMANCE MATERIALS	703 SOUTH ST	NEW SMYRNA BEACH	VOLUSIA	FL	32168	YES	NO	NO	NO								325520	325510					29.060176	-80.952133	789994014								MOMENTIVE PERFORMANCE MATERIALS	789994014	NONE	NO	JOHN.NOELL@MOMENTIVE.COM			NO	
32168LGHTH703SO	1307205217312	000107211	ETHYLENE GLYCOL	TRI	2007	MOMENTIVE PERFORMANCE MATERIALS	703 SOUTH ST	NEW SMYRNA BEACH	VOLUSIA	FL	32168	YES	NO	NO	NO								325520	325510					29.060176	-80.952133	789994014								MOMENTIVE PERFORMANCE MATERIALS	789994014	EVALUATING FOR 2009 AND 2010, THE REPLACEMENT OF ETHYLENE GLYCOL WITH PROPYLENE GLYCOL AS A FORMULATION COMPONENT.	NO	JOHN.NOELL@MOMENTIVE.COM			NO	
32177SMNLGUSHWY	1307205439716	N090	CHROMIUM COMPOUNDS(EXCEPT CHROMITE ORE MINED IN THE TRANSVAAL REGION)	TRI	2007	SEMINOLE GENERATING STATION	890 N US HWY 17	PALATKA	PUTNAM	FL	321770000	YES	NO	NO	NO								221112						29.73775	-81.634722	078332657										THE CHROMIUM DISCHARGE VALUE OF "0" TO THE ST. JOHNS RIVER IS A MASS BALANCE OF RIVER WATER INTAKE FLOW DATA VS DISCHARGE FLOW DATA ALONG WITH THE CORRESPONDING CHROMIUM CONCENTRATION DATA. THE FACILITY RECEIVED MORE CHROMIUM FROM THE RIVER THAN WAS DISCHARGED. A DISCHARGE VALUE OF "0" WAS USED INSTEAD OF A NEGATIVE NUMBER.	NO	JFELA@SEMINOLE-ELECTRIC.COM			YES	
32177SMNLGUSHWY	1307205439779	N420	LEAD COMPOUNDS	PBT	2007	SEMINOLE GENERATING STATION	890 N US HWY 17	PALATKA	PUTNAM	FL	321770000	YES	NO	NO	NO								221112						29.73775	-81.634722	078332657										THE LEAD DISCHARGE VALUE OF "0" TO THE ST. JOHNS RIVER IS A MASS BALANCE OF RIVER WATER INTAKE FLOW VS DISCHARGE FLOW DAT ALONG WITH THE CORRESPONDING LEAD CONCENTRATION DATA. THE FACILITY RECEIVED MORE LEAD FROM THE RIVER THAN WAS DISCHARGED. A DISCHARGE VALUE OF "0" WAS USED INSTEAD OF A NEGATIVE NUMBER.	NO	JFELA@SEMINOLE-ELECTRIC.COM			YES	
32177SMNLGUSHWY	1307205439793	N458	MERCURY COMPOUNDS	PBT	2007	SEMINOLE GENERATING STATION	890 N US HWY 17	PALATKA	PUTNAM	FL	321770000	YES	NO	NO	NO								221112						29.73775	-81.634722	078332657										ALTHOUGH THE MERCURY SOURCE IN THE FUEL REMAINS CONSTANT, THE INTERNAL PARTITIONING OF THE FATE OF MERCURY WITHIN THE FACILITY HAS BEEN REFINED BY ANALYSES AND DEVELOPMENT OF A MORE ACCURATE MASS BALANCE.	NO	JFELA@SEMINOLE-ELECTRIC.COM			YES	
32177SMNLGUSHWY	1307205439856	N982	ZINC COMPOUNDS	TRI	2007	SEMINOLE GENERATING STATION	890 N US HWY 17	PALATKA	PUTNAM	FL	321770000	YES	NO	NO	NO								221112						29.73775	-81.634722	078332657										THE ZINC DISCHARGE VALUE OF "0" TO THE ST. JOHNS RIVER IS A MASS BALANCE OF RIVER WATER INTAKE FLOW VS DISCHARGE FLOW DATA ALONG WITH THE CORRESPONDING ZINC CONCENTRATION DATA. THE FACILITY RECEIVED MORE ZINC FROM THE RIVER THAN WAS DISCHARGED. A DISCHARGE VALUE OF "0" WAS USED INSTEAD OF A NEGATIVE NUMBER.	NO	JFELA@SEMINOLE-ELECTRIC.COM			YES	
32206PTRLM3511W	1307205672292	000100425	STYRENE	TRI	2007	PETROLEUM CONTAINMENT INC	3511 WALNUT ST	JACKSONVILLE	DUVAL	FL	32206	YES	NO	NO	NO								326199						30.359617	-81.647507	151963840										PETROLEUM CONTAINMENT, INC. IS CURRENTLY IN THE PROCESS OF CONVERTING MANY HAND AND SPRAY MOLDING OPERATIONS TO CLOSED MOLDING OPERATIONS WHICH WILL RESULT IN LOWER EMISSIONS IN THE FUTURE AS MORE AND MORE OPERATIONS ARE CONVERTED.	NO				NO	
32220WHTHS109HA	1307205665021	N420	LEAD COMPOUNDS	PBT	2007	WEST FRASER INC WHITEHOUSE LUMBER MILL	109 HALSEMA RD S	WHITEHOUSE	DUVAL	FL	32220	YES	NO	NO	NO								321113						30.314283	-81.869454	018342555										NA	NO	HARDY.MALOCH@WESTFRASERINC.COM			YES	
32514GLMNS8780E	1307205470305	000422560	3,3-DICHLORO-1,1,1,2,2-PENTAFLUOROPROPANE	TRI	2007	PALL MEMBRANE TECHNOLOGY CENTER	8780 ELY RD	PENSACOLA	ESCAMBIA	FL	32514	YES	NO	NO	NO								326113						30.518888	-87.202796	005341813								PALL CORP	005341813	CONTINUED SOURCE REDUCTION, RECYCLING AND POLLUTION CONTROL ACTIVITIES INITIATED IN PREVIOUS YEARS.	NO	AL_BRESSLER@PALL.COM			NO	
32533CHMPN375MU	1307205474505	007782505	CHLORINE	TRI	2007	INTERNATIONAL PAPER PENSACOLA MILL	375 MUSCOGEE RD	CANTONMENT	ESCAMBIA	FL	325330087	YES	NO	NO	NO								322121	322110					30.598197	-87.3805	146591029								INTERNATIONAL PAPER	001212901	A-LINE BLEACH PLANT WAS SHUTDOWN IN 2007.	NO	JESSICA.MORRIS@IPAPER.COM			NO	
32533CHMPN375MU	1307205474517	010049044	CHLORINE DIOXIDE	TRI	2007	INTERNATIONAL PAPER PENSACOLA MILL	375 MUSCOGEE RD	CANTONMENT	ESCAMBIA	FL	325330087	YES	NO	NO	NO								322121	322110					30.598197	-87.3805	146591029								INTERNATIONAL PAPER	001212901	SHUTDOWN A-LINE BLEACH PLANT IN 2007	NO	JESSICA.MORRIS@IPAPER.COM			NO	
32533JMSRV610CH	1307205417761	007647010	HYDROCHLORIC ACID (1995 AND AFTER "ACID AEROSOLS" ONLY)	TRI	2007	CEREX ADVANCED FABRICS INC	610 CHEMSTRAND RD	CANTONMENT	ESCAMBIA	FL	32533	YES	NO	NO	NO								313230						30.591667	-87.25222	877181768										Increases of onsite disposal and quantities treated on site for RY2007 and the reduction of the activity index are primarilty due to a shift in product mix and reduction in orders.	NO	WWHITFIELD@CEREX.COM			NO	
32808TRNSP2150B	1307205183849	N420	LEAD COMPOUNDS	PBT	2007	WAI-TRANSPO DIV	2150 BRENGLE AVE	ORLANDO	ORANGE	FL	32808	YES	NO	NO	NO								336322						28.572	-81.4269	092871110								WETHRILL ASSOCIATES INC.	092871110	The production line and process responsible for the stack or point air emissions has been eliminated as of 4/2007, consequently there will not be any future releases.  Only one production line and a prototype build out line remain as all other production has been transfered to the overseas facility during 2007.  The decrease in production is further evidenced by the huge reduction of off site transfers. Source reduction and recycling activities will increase in 2008-2009 with total suspension of all production lines and subsequent elimination of expired raw goods and outdated product.  The production ratio or activity index is the most revealing indication of the overall reduction of this waste stream.	NO	JOHN.LASEK@WAIGLOBAL.COM			YES	
32809RGLMR2300J	1307206109769	000100425	STYRENE	TRI	2007	REGAL MARINE INDUSTRIES INC.	2300 JETPORT DR	ORLANDO	ORANGE	FL	328097800	YES	NO	NO	NO								336612						28.449	-81.3518											REGAL MARINE HAS BEGUN USING A DIFFERENT LAMINATION PROCESS TO MANUFACTURE MANY FIBERGLASS PARTS CALLED INFUSION. THIS INVOLVES PULLING THE RESIN UNDERNEATH A BAG UNDER VACCUM WHICH ELIMINATES SPRAYING THE MATERIAL AND ALSO BEING THE BAG COVERS THE PART ELIMINATES EMISSIONS FROM THE RESIN ONCE ITS IN THE PART BEFORE CURING. REGAL IS CONTINUING TO INCORPORATE THIS PROCESS INTO OTHER PARTS AND OTHER PROCESS SIMILAR SUCH AS RESIN TRANSFER MOLDING. THESE SOURCE REDUCITONS WILL SHOW UP ON THE 2008 TRI REPORT MUCH MORE THAN THEY HAVE IN 2007.	NO	AMEDLEY@REGALBOATS.COM			NO	
32901DRSTC111WH	1307206175059	007439921	LEAD	PBT	2007	DRS TACTICAL SYSTEMS INC.	1110 W HIBISCUS BLVD	MELBOURNE	BREVARD	FL	32901	YES	NO	NO	NO								334111						28.085321	-80.638135									DRS TECHNOLOGIES INC.		Facility is actively engaged in the Restriction of Hazardous Substabces (RoHS) Program.	NO	SAJONES@DRS-TS.COM			YES	
32904MTRTK35EDR	1307205940582	007439921	LEAD	PBT	2007	METRETEK INC	305 E DR SUITE A	MELBOURNE	BREVARD	FL	32904	YES	NO	NO	NO								334418	517212	334519				28.102748	-80.689											METRETEK INC.'S USE OF TINE-LEAD AS AN MANUFACTURING AID, IN THE MANUFACTURE OF OUR PRINTED CIRCUIT ASSEMBLY PROCESS, WAS TERMINATED DURING JUNE OF 2005. THE PROCESS WE EMPLOYED WAS A MOLTEN WAVE SOLDERING OPERATION TO CREATE MECHANICAL CONNECTIONS, SUCH AS AXIAL, AND RADIAL, LEADED CAPICITORS AND RESISTORS INTO THROUGH HOLES OF PRINTED CIRCUIT BOARDS. WE STILL DO UTILIZE A SMALL MOLTEN SOLDER POT TO TIN SMALL GAUGE WIRE BUNDLES.	NO	ARNOLDR@METRETEKFL.COM			YES	
33438NTDSTOFFUS	1307205929134	000071432	BENZENE	TRI	2007	UNITED STATES SUGAR CORP  BRYANT MILL	36501 MILL RD	BRYANT	PALM BEACH	FL	33439	NO	YES	NO	NO								311311						26.8444	-80.6193	004117156		FLD079809331								PERMANENT SHUTDOWN OF FACILITY IN APRIL 2007	NO				NO	
33438NTDSTOFFUS	1307205929146	000191242	BENZO(G,H,I)PERYLENE	PBT	2007	UNITED STATES SUGAR CORP  BRYANT MILL	36501 MILL RD	BRYANT	PALM BEACH	FL	33439	NO	YES	NO	NO								311311						26.8444	-80.6193	004117156		FLD079809331								PERMANENT SHUTDOWN OF FACILITY IN APRIL 2007	NO				NO	
33438NTDSTOFFUS	1307205929159	000050000	FORMALDEHYDE	TRI	2007	UNITED STATES SUGAR CORP  BRYANT MILL	36501 MILL RD	BRYANT	PALM BEACH	FL	33439	NO	YES	NO	NO								311311						26.8444	-80.6193	004117156		FLD079809331								PERMANENT SHUTDOWN OF THIS FACILITY IN APRIL 2007	NO				NO	
33438NTDSTOFFUS	1307205929161	000091203	NAPHTHALENE	TRI	2007	UNITED STATES SUGAR CORP  BRYANT MILL	36501 MILL RD	BRYANT	PALM BEACH	FL	33439	NO	YES	NO	NO								311311						26.8444	-80.6193	004117156		FLD079809331								PERMANENT SHUTDOWN OF FACILITY IN APRIL 2007	NO				NO	
33438NTDSTOFFUS	1307205929173	000108952	PHENOL	TRI	2007	UNITED STATES SUGAR CORP  BRYANT MILL	36501 MILL RD	BRYANT	PALM BEACH	FL	33439	NO	YES	NO	NO								311311						26.8444	-80.6193	004117156		FLD079809331								PERMANENT SHUTDOWN OF FACILITY IN APRIL 2007	NO				NO	
33438NTDSTOFFUS	1307205929185	N590	POLYCYCLIC AROMATIC COMPOUNDS	PBT	2007	UNITED STATES SUGAR CORP  BRYANT MILL	36501 MILL RD	BRYANT	PALM BEACH	FL	33439	NO	YES	NO	NO								311311						26.8444	-80.6193	004117156		FLD079809331								PERMANENT SHUTDOWN OF FACILITY IN APRIL 2007	NO				NO	
33702CMPLN1205G	1307205599246	N420	LEAD COMPOUNDS	PBT	2007	COMPULINK CABLE ASSEMBLIES	1205 GANDY BLVD N	SAINT PETERSBURG	PINELLAS	FL	33702	YES	NO	NO	NO								334419						27.864718	-82.642276	040463739										Through rigorous testing, we have determined that our lead solder may be used for a longer period without affecting performance of the solder.  Additionally, we have supplanted solder with ultrasonic welding in a program with high solder usage.  Meanwhile, we have switched over to lead free solder whenever feasible, in accordance with the RoHS directive.    Through these three inititives, we are using lead solder at a rate well under the threshhold value for reporting year 2008.  We do not anticipate completing Form R for lead compounds next year.  We will, however, continue to recycle the material in an environmentally responsible manner.  Walter H. Tarcza Compulink	NO	DFRANZESE@COMPULINK-USA.COM			YES	
33756MNFCT73GRA	1307205882386	007439921	LEAD	PBT	2007	EEI MANUFACTURING SERVICE	703 GRAND CENTRAL ST	CLEARWATER	PINELLAS	FL	33756	YES	NO	NO	NO								334418						27.952623	-82.79724	859683658										All of the solid "lead" waste is solder dross from the wave soldering process for circuit board assembly. All of the droos is sent out for reclaimation, there fore nothing enters the waste stream from this facility.	NO	SENGLANDER@EEIMFG.COM			YES	
33771DTKCR172ST	1307205961651	007439921	LEAD	PBT	2007	DITEK CORP	1720 STARKEY RD	LARGO	PINELLAS	FL	33771	YES	NO	NO	NO								335311	334418					27.900921	-82.762492											SOURCE REDUCTION: DITEK HAS INCORPORATED SOME LEAD-FREE PRODUCTS INTO OUR MANUFACTURING OUTPUT.   RECYCLING: MID-YEAR, WE REPLACED TERRY CLOTH TOWELS WITH PAPER WIPES DURING ROUTINE OPERATOR MAINTENANCE. THIS HAS ALLOWED US, DURING THE SECOND HALF OF THE YEAR, TO SHIP A SMALLER (WEIGHT AND) VOLUME OF WASTE. ALSO, LATE IN THE YEAR, WE BEGAN TO SEGREGATE SOLDER PASTE OUT OF OUR SOLID WASTE STREAM AND COLLECT IT FOR RECLAMATION AS A MANUFACTURING BY-PRODUCT. .	NO	DEBORAH.REID-LEES@DITEKCORP.COM			YES	
33815NPCCR1248G	1307206055358	000067561	METHANOL	TRI	2007	PURADA PROCESSING LLC	1248 GEORGE JENKINS BLVD SUITE J-4	LAKELAND	POLK	FL	33815	YES	NO	NO	NO								325199						28.043255	-81.974335	550845228								WORLD ENERGY ALTERNATIVES LLC	550845228	RECYCLED A WASTE WATER STREAM CONTAINING METHANOL BACK INTO THE PROCESS, ALLOWING MORE OF THE METHANOL TO BE DISTILLED OUT OF THE WATER PRIOR TO DISPOSAL TO THE POTW.	NO	BMARKISELLO@PURADA.COM			NO	
33830TRCLR170AV	1307205224001	000067561	METHANOL	TRI	2007	CLEAN HARBORS FLORIDA LLC	170 BARTOW MUNICIPAL AIRPORT	BARTOW	POLK	FL	33830	YES	NO	NO	NO								562211						27.955833	-81.77916	157793639								CLEAN HARBORS ENVIRONMENTAL SERVICES INC	157793639	THIS IS A RCRA WASTE MANAGEMENT FACILITY WHICH MANAGES WASTE FROM OFF SITE GENERATORS FOR DISPOSAL AND TRANSPORTATION PURPOSES - SOURCE REDUCTION IS NOT APPLICABLE.	NO	BOSEK.JOHN@CLEANHARBORS.COM			NO	
33830TRCLR170AV	1307205224013	000068122	N,N-DIMETHYLFORMAMIDE	TRI	2007	CLEAN HARBORS FLORIDA LLC	170 BARTOW MUNICIPAL AIRPORT	BARTOW	POLK	FL	33830	YES	NO	NO	NO								562211						27.955833	-81.77916	157793639								CLEAN HARBORS ENVIRONMENTAL SERVICES INC	157793639	THIS IS A PERMITTED PART B RCRA WASTE MANAGEMENT FACILITY WHICH RECEIVES WASTE FROM GENERATORS OFF SITE FOR DISPOSAL AND TRANSPORTATION PURPOSES - SOURCE REDUCTION IS NOT APPLICABLE.	NO	BOSEK.JOHN@CLEANHARBORS.COM			NO	
33830TRCLR170AV	1307205224025	000108883	TOLUENE	TRI	2007	CLEAN HARBORS FLORIDA LLC	170 BARTOW MUNICIPAL AIRPORT	BARTOW	POLK	FL	33830	YES	NO	NO	NO								562211						27.955833	-81.77916	157793639								CLEAN HARBORS ENVIRONMENTAL SERVICES INC	157793639	N/A THIS IS A RCRA TSDF MANAGING OFF SITE GENERATOR WASTE FOR TRANSPORTATION AND DISPOSAL	NO	BOSEK.JOHN@CLEANHARBORS.COM			NO	
33909CBLSD1531C	1307205199666	N420	LEAD COMPOUNDS	PBT	2007	DEKORON UNITHERM INC	1531 COMMERCE CREEK BLVD	CAPE CORAL	LEE	FL	33909	YES	NO	NO	NO								335929						26.681557	-81.919806	608723300										DEKORON UNITHERM HAS CHANGED TO A FLEXIBLE POLYVINAL CHLORIDA COMPOUND WHICH IS LEAD FREE.	NO	H.WALTON@UNITHERMCC.COM			YES	
34294PRDYN8550U	1307205787548	007439921	LEAD	PBT	2007	ZHONE TECHNOLOGIES	8545 126TH AVE N	LARGO	PINELLAS	FL	337731502	YES	NO	NO	NO								334418						27.887085	-82.75736	053497517								ZHONE TECHNOLOGIES	036742062	IT IS ANTICIPATED THAT IN 2009 WE ARE GOING TO GO TO A LEAD-FREE FACILITY.	NO	LLARSEN@ZHONE.COM			YES	
34982TWNVP311SF	1307205883984	000100425	STYRENE	TRI	2007	TWIN VEE FORT PIERCE FACILITY	3101 S FEDERAL HWY	FORT PIERCE	ST LUCIE	FL	34982	YES	NO	NO	NO								336612						27.41069	-80.32596											The facility continues to look for lower styrene content raw materials that will result in equivalent product properties.	NO	DEAST@TWINVEE.NET			NO	
32402RZNCHEVERE	1307206139471	000092524	BIPHENYL	TRI	2007	ARIZONA CHEMICAL	2 S EVERITT AVE	PANAMA CITY	BAY	FL	32401	YES	NO	NO	NO								325191	325199	325211				30.145513	-85.621106	004065926								ARIZONA CHEMICAL CO LLC	001316561	IN LATE 2006, ELIMINATED AN OLD OIL HEATER AND UTILIZED AN EXISTING HEATER FOR THE SAME SOURCES, WHICH SHOULD REDUCED THE AMOUNT OF HEATING OIL USED/CONSUMED ONSITE AND THEREBY REDUCING BIPHENYL USE/CONSUMTION.	NO	DAVID.CAWFER@AZCHEM.COM			NO	
32402RZNCHEVERE	1307206139483	000100414	ETHYLBENZENE	TRI	2007	ARIZONA CHEMICAL	2 S EVERITT AVE	PANAMA CITY	BAY	FL	32401	YES	NO	NO	NO								325191	325199	325211				30.145513	-85.621106	004065926								ARIZONA CHEMICAL CO LLC	001316561	INSTALLED RTO IN LATE 2006.	NO	DAVID.CAWFER@AZCHEM.COM			NO	
32402RZNCHEVERE	1307206139521	000108883	TOLUENE	TRI	2007	ARIZONA CHEMICAL	2 S EVERITT AVE	PANAMA CITY	BAY	FL	32401	YES	NO	NO	NO								325191	325199	325211				30.145513	-85.621106	004065926								ARIZONA CHEMICAL CO LLC	001316561	INSTALLED RTO IN LATE 2006.	NO	DAVID.CAWFER@AZCHEM.COM			NO	
32402RZNCHEVERE	1307206139533	001330207	XYLENE (MIXED ISOMERS)	TRI	2007	ARIZONA CHEMICAL	2 S EVERITT AVE	PANAMA CITY	BAY	FL	32401	YES	NO	NO	NO								325191	325199	325211				30.145513	-85.621106	004065926								ARIZONA CHEMICAL CO LLC	001316561	INSTALLED RTO IN LATE 2006.	NO	DAVID.CAWFER@AZCHEM.COM			NO	
32769CMTCH3100C	1307205410006	000100425	STYRENE	TRI	2007	COMTECH ANTENNA SYSTEMS INC.	3100 COMMUNICATIONS RD	SAINT CLOUD	OSCEOLA	FL	34769	YES	NO	NO	NO								334220						28.245972	-81.303406	121833222								COMTECH TELECOMMUNICATIONS CORP.	041868365	The apparent increase in emissions for 2007 with a production ratio less than 1.0  is not due to an actual increase in emissions. It can be explained by the use of a new calculation factor to coincide with our new State of Florida air permit effective on Feb 1, 2007. We had been advised by a State official to use older factor calculations until our old permit expired on Jan 31, 2007. At that time the official indicated that this explaination should be included in our TRI 2007 report.	NO	NA			NO	
32514LFRGP1ELIV	1307205601115	007439921	LEAD	PBT	2007	LAFARGE PENSACOLA CONCRETE PLANT	100 E OLIVE RD	PENSACOLA	ESCAMBIA	FL	32514	YES	NO	NO	NO								327320						30.508627	-87.255977	067568246								LAFARGE N.A.		LEAD IS A VERY MINOR MINERAL IMPURITY IN CEMENT WHICH ULTIMATELY BECOMES CONCRETE IN BRIDGES, ROADS, AND OTHER STRUCTURES.	NO	MATTHEW.STEWART@LAFARGE-NA.COM			YES	
33010BCKMN651W2	1307206025064	007439921	LEAD	PBT	2007	BECKMAN COULTER INC.	651 W 20TH ST	HIALEAH	MIAMI-DADE	FL	33010	YES	NO	NO	NO								334516						25.839824	-80.295216	011282790								BECKMAN COULTER INC.	008254708	NO SOURCE REDUCTION ACTIVITIES WERE IMPLEMENTED IN 2007 DUE TO THE FACT THAT A DECISION WAS MADE TO CLOSE THIS SITE DURING CALENDAR YEAR 2008.	NO				YES	
34677NSYSC3655S	1307205923826	N420	LEAD COMPOUNDS	PBT	2007	LOCKHEED MARTIN MS2 TACTICAL SYSTEMS	3655 TAMPA RD	OLDSMAR	PINELLAS	FL	34677	YES	NO	NO	NO								335999						28.04739	-82.689602	097837267								LOCKHEED MARTIN CORP		FUGITIVE EMISSIONS WERE BASED ON TESTING CALCULATIONS, INDUSTRIAL HYGIENE SAMPLING, AND STACK TESTS BY LOCKHEED MARTIN PERSONNEL OR CONSULTING FIRMS.  THIS METHOD WAS NOT USED IN PRIOR YEARS.	NO	NIEVES.J.DOMINGUEZ@LMCO.COM			YES	
