REPORTING YEAR	TITLE OF CERTIFYING OFFICIAL	NAME OF CERTIFYING OFFICIAL	TRIFID	FACILITY NAME	FACILITY STREET	FACILITY CITY	FACILITY COUNTY	FACILITY STATE	FACILITY ZIP CODE	MAILING NAME	MAILING STREET	MAILING CITY	MAILING STATE	MAILING PROVINCE	MAILING ZIP CODE	ENTIRE FACILITY IND	PARTIAL FACILITY IND	FEDERAL FACILITY IND	GOCO FACILITY IND	PUBLIC CONTACT NAME	PUBLIC CONTACT PHONE	PRIMARY SIC CODE	SIC CODE 2	SIC CODE 3	SIC CODE 4	SIC CODE 5	SIC CODE 6	NAICS ORIGIN	PRIMARY NAICS CODE	NAICS CODE 2	NAICS CODE 3	NAICS CODE 4	NAICS CODE 5	NAICS CODE 6	LATITUDE	LONGITUDE	DB NR A	DB NR B	RCRA NR A	RCRA NR B	NPDES NR A	NPDES NR B	UIC NR A	UIC NR B	PARENT COMPANY NAME	PARENT COMPANY DB NR	ASSIGNED FED. FACILITY FLAG	PUBLIC CONTACT EMAIL	20-NOV-13	
2012	PURCHASING AGENT	LOUIS SZKLANECKI	60101STYDC450SL	1ST AYD CORP	1325 GATEWAY DR	ELGIN	KANE	IL	601247866	1ST AYD CORP	1325 GATEWAY DR	ELGIN	IL		60124-7866	YES	NO	NO	NO	TOM SCHREINER	8476220001	2841							325611						42.06464	-88.34597	077007649										NO	TSCHREINER@1STAYD.COM	
2012	PLANT MANAGER	PATRICK THORNTON	61242M    22614	3M CO - CORDOVA	22614 RT 84 N	CORDOVA	ROCK ISLAND	IL	612429799	3M CO - CORDOVA	22614 RT 84 N	CORDOVA	IL		61242-9799	YES	NO	NO	NO	JEROME P TONNESON	3096542291	2899	2821						325998						41.755	-90.284167	006173082								3M CO	006173082	NO	JPTONNESON@MMM.COM	
2012	PRESIDENT	JOSEPH CURCI	60619VRSNC1355E	A FINKL & SONS CO	1355 E 93RD ST	CHICAGO	COOK	IL	60619	A FINKL & SONS CO	1355 E 93RD ST	CHICAGO	IL		60619	YES	NO	NO	NO	STEVE DENTEN	7739752562	3559							331111						41.724735	-87.592537	005129697										NO	STEVED@FINKL.COM	
2012	PRESIDENT	JOSEPH CURCI	60614FNKLS2011S	A FINKL & SONS CO	2011 N SOUTHPORT AVE	CHICAGO	COOK	IL	606144079	A FINKL & SONS CO	2011 N SOUTHPORT AVE	CHICAGO	IL		60614-4079	YES	NO	NO	NO	STEVE DENTEN	7739752562	3399							331111						41.918367	-87.662925	005129697										NO	STEVED@FINKL.COM	
2012	VP-ADMINISTRATION	SCOTT TORPHY	60131LLDDC3021C	AALLIED DIE CASTING CO OF IL	3021 CULLERTON DR	FRANKLIN PARK	COOK	IL	601312258	AALLIED DIE CASTING CO OF IL	3021 CULLERTON DR	FRANKLIN PARK	IL		60131-2258	YES	NO	NO	NO	SCOTT TORPHY	8474551950	3363							331521						41.93399	-87.891363									RCM INDUSTRIES		NO	STORPHY@RCMINDUSTRIES.COM	
2012	DIVISIONAL VICE PRESIDENT GEHS&E	ROBERT MORRISON	60064BBTTL1400N	ABBOTT LABORATORIES - NORTH CH ICAGO FACILITY	1401 SHERIDAN RD	NORTH CHICAGO	LAKE	IL	600644000	ABBOTT LABORATORIES - NORTH CH ICAGO FACILITY	200 ABBOTT PARK RD (05G3; AP52S)	ABBOTT PARK	IL		600646214	YES	NO	NO	NO	THOMAS THORNTON	8479372029	2833	2834	2879					325411	325320	325412				42.332222	-87.837571	001307602								ABBOTT LABORATORIES	001307602	NO	THOMAS.THORNTON@ABBOTT.COM	
2012	QSE MANAGER	BRIAN WADE	6206WBNGBN395BI	ABENGOA BIOENERGY OF ILLINOIS	395 BISSELL ST	MADISON	MADISON	IL	62060	ABENGOA BIOENERGY OF ILLINOIS	395 BISSELL ST	MADISON	IL		62060	YES	NO	NO	NO	DAVID HENDERSON	6184514422								325193						38.68509	-90.180652	832644814								ABENGOA BIOENERGY		NO	DAVID.HENDERSON@BIOENERGY.ABENGOA.COM	
2012	CEO	SCOTT RICHTER	6017WBLDCS397WE	ABLE DIE CASTING CORP	3907 WESLEY TERRACE	SCHILLER PARK	COOK	IL	60176	ABLE DIE CASTING CORP	3907 WESLEY TERRACE	SCHILLER PARK	IL		60176	YES	NO	NO	NO	SCOTT RICHTER	8476781991								331521	331522					41.9503	-87.8634	005085691										NO	SCRICHTER@ABLEDIECASTING.COM	
2012	FACILITY MANAGER/PROCESS ENGINEER	DONALD ESSER	60623BLLCT2001S	ABLE ELECTROPOLISHING CO INC	2001 S KILBOURN AVE	CHICAGO	COOK	IL	60623	ABLE ELECTROPOLISHING CO INC	2001 S KILBOURN AVE	CHICAGO	IL		60623	YES	NO	NO	NO	DON ESSER	7732771600	3471							332813						41.853933	-87.736426	005098611										NO	DONE@ABLEELECTROPOLISHING.COM	
2012	QUALITY MANAGER	ALLEN WYCH	61008TPTTP826EA	ACCUMENT GLOBAL TECHNOLOGIES - CAMCAR LLC - BELVIDERE IL	826 E MADISON ST	BELVIDERE	BOONE	IL	61008	ACCUMENT GLOBAL TECHNOLOGIES - CAMCAR LLC - BELVIDERE IL	826 E MADISON ST	BELVIDERE	IL		61008	YES	NO	NO	NO	ALLEN R. WYCH	8155447512	3452							332722						42.26635	-88.837759	024953291								PLATINUM EQUITY LLC	183645733	NO	AWYCH@ACUMENT.COM	
2012	V.P. OF OPERATIONS	JEFF LOGAN	60650CCRTN3130S	ACCURATE ANODIZING	3130 S AUSTIN AVE	CICERO	COOK	IL	60804	ACCURATE ANODIZING	3130 S AUSTIN AVE	CICERO	IL		60804	YES	NO	NO	NO	JEFF LOGAN	7082225307	3471							332813						41.834982	-87.773656	005098694								SAPORITO FINISHING CO	005098694	NO	JEFFL@SAPORITOFINISHING.COM	
2012	DIRECTOR ENVIRONMENTAL AFFAIRS	SCOTT THOMAS	60430CCRTD1111M	ACCURATE DISPERSIONS	1111 MAPLE AVE	HOMEWOOD	COOK	IL	60430	ACCURATE DISPERSIONS	1111 MAPLE AVE	HOMEWOOD	IL		60430	YES	NO	NO	NO	R. SCOTT THOMAS	2165662182								325510						41.567327	-87.645497	004206397								THE SHERWIN-WILLIAMS CO	004206397	NO	RSTHOMAS@SHERWIN.COM	
2012	DIRECTOR ENVIRONMENTAL AFFAIRS	SCOTT THOMAS	60473MCWHR192W1	ACCURATE DISPERSIONS	192 W 155TH ST	SOUTH HOLLAND	COOK	IL	60473	ACCURATE DISPERSIONS	192 W 155TH ST	SOUTH HOLLAND	IL		60473	YES	NO	NO	NO	R. SCOTT THOMAS	2165662182	2851							325510						41.613362	-87.621746	004206397		ILR000017798		ILR006002				THE SHERWIN-WILLIAMS CO	004206397	NO	RSTHOMAS@SHERWIN.COM	
2012	DIRECTOR OF HUMAN RESOURCES	LAUREN WILSON	60645CCRTT3550W	ACCURATE THREADED FASTNERS	3550 W PRATT	LINCOLNWOOD	COOK	IL	60712	ACCURATE THREADED FASTNERS	3550 W PRATT	LINCOLNWOOD	IL		60712	YES	NO	NO	NO	LAUREN WILSON	8479338608	3452							332722						42.004464	-87.718294	013488796										NO	LWILSON@ATF-INC.COM	
2012	PRESIDENT	DAVID VAUGHN	60162CNDZN4161B	ACE ANODIZING & IMPREGNATING INC	4161 BUTTERFIELD RD	HILLSIDE	COOK	IL	60162	ACE ANODIZING & IMPREGNATING INC	PO BOX 639	HILLSIDE	IL		60162	YES	NO	NO	NO	DAVID VAUGHN	7085476680	3471							332813						41.880204	-87.891777	005258405										NO	DAVIDACE@AMERITECH.NET	
2012	EHS DIRECTOR	RAYMOND HORTON	60609CDPRD6W41S	ACID PRODUCTS CO INC	600 W 41ST ST	CHICAGO	COOK	IL	60609	ACID PRODUCTS CO INC	600 W 41ST ST	CHICAGO	IL		60609	YES	NO	NO	NO	RAYMOND HORTON	7732545222								424690						41.820033	-87.641051	148314503								ACID PRODUCTS CO INC	148314503	NO	RAY.HORTON@ACIDPRODUCTS.NET	
2012	CONTROLLER	ROY DUSELL	60062CMDCS3610C	ACME DIE CASTING LLC	3610 COMMERCIAL AVE	NORTHBROOK	COOK	IL	60062	ACME DIE CASTING LLC	3610 COMMERCIAL AVE	NORTHBROOK	IL		60062	YES	NO	NO	NO	DENNIS DECMAN	8472729520	3363	3364						331521						42.146726	-87.868268											NO	DDECMAN@ACMEALLIANCE.COM	
2012	PRESIDENT	DENNIS WALTERS	60007CMFNS1595O	ACME FINISHING CO INC	1595 E OAKTON ST	ELK GROVE VILLAGE	COOK	IL	60007	ACME FINISHING CO INC	1595 E OAKTON ST	ELK GROVE VILLAGE	IL		60007	YES	NO	NO	NO	UNITED STATES COMPLIANCE CORPORATION	9522523000	3479							332812						42.021147	-87.962138											NO	EPCRA@USCOMPLIANCE.COM	
2012	PRESIDENT	MARK MADDOX	60090CSTMT420NO	ADHESIVE COATING TECHNOLOGIES INC	420 NORTHGATE PKWY	WHEELING	COOK	IL	60090	ADHESIVE COATING TECHNOLOGIES INC	420 NORTHGATE PKWY	WHEELING	IL		60090	YES	NO	NO	NO	MARK MADDOX	8472158355	2671							326112						42.146726	-87.928638											NO	MMADDOX@ADHESIVECOATINGTECHNOLOGIES.COM	
2012	GENERAL MANAGER	RAY BAKER	61048DKNSN4350W	ADKINS ENERGY LLC	4350 W GALENA RD	LENA	STEPHENSON	IL	61048	ADKINS ENERGY LLC	4350 W GALENA RD	LENA	IL		61048	YES	NO	NO	NO	RAY BAKER	8153699173	2865							325193	311119					42.358605	-89.80342	067039185								ADKINS ENERGY LLC	067039185	NO	RBAKER@ADKINSENERGY.COM	
2012	PLANT MANAGER	MARK REZNIK	61602RCHRDFOOTO	ADM	1 EDMUND ST	PEORIA	PEORIA	IL	616021737	ADM	1 EDMUND ST	PEORIA	IL		61602-1737	YES	NO	NO	NO	MEDIA RELATIONS	2174245413	2085	2869						325193						40.677272	-89.604665	038412078								ARCHER DANIELS MIDLAND CO	001307586	NO	MEDIA@ADM.COM	
2012	VP CORN PRODUCTION	RANDALL KAMPFE	62526DMCRN4666F	ADM	4666 FARIES PKWY	DECATUR	MACON	IL	625265666	ADM	4666 FARIES PKWY	DECATUR	IL		62526-5666	YES	NO	NO	NO	MEDIA RELATIONS	2174245413	2046	2048	2075	2833	2869	4911		311221	311222	325412	325199	311119		39.867604	-88.887346	958024911		ILD984791459		IL0061425				ARCHER DANIELS MIDLAND CO	001307586	NO	MEDIA@ADM.COM	
2012	COMPLIANCE MANAGER	KYLE TAYLOR	62401GDLFFGOODL	ADM ALLIANCE NUTRITION	1 GOOD-LIFE DR	EFFINGHAM	EFFINGHAM	IL	62401	ADM ALLIANCE NUTRITION	PO BOX 687	EFFINGHAM	IL		624010687	YES	NO	NO	NO	MARK CALMES	2174517456	2048							311119						39.1187	-88.533663	001307586								ARCHER DANIELS MIDLAND CO	001307586	NO	MARK.CALMES@ADM.COM	
2012	PLANT MANAGER	KENNETH HUNTER	62656CNTRLWEST5	ADM ALLIANCE NUTRITION	2250 W 5TH ST	LINCOLN	LOGAN	IL	62656	ADM ALLIANCE NUTRITION	2250 W 5TH ST	LINCOLN	IL		62656	YES	NO	NO	NO	MEDIA RELATIONS	2174245413	2048							311119						40.148344	-89.398398	002407686				ILR005580				ARCHER DANIELS MIDLAND CO	001307586	NO	KEN.HUNTER@ADM.COM	
2012	PLANT MANAGER	PETER MARKOVICH	62301MRMNM1000N	ADM ALLIANCE NUTRITION INC	1000 N 30TH ST	QUINCY	ADAMS	IL	62305	ADM ALLIANCE NUTRITION INC	1000 N 30TH ST	QUINCY	IL		62305	YES	NO	NO	NO	MEDIA RELATIONS	2174245413	2048							311119						39.947546	-91.368249	849684428								ARCHER DANIELS MIDLAND CO	001307586	NO	MEDIA@ADM.COM	
2012	PLANT MANAGER	MARTIN REDSHAW	62526DMMSN2100N	ADM MECHANICAL	2100 N JASPER ST	DECATUR	MACON	IL	62526	ADM MECHANICAL	2100 N JASPER ST	DECATUR	IL		62526	NO	NO	NO	NO	MEDIA RELATIONS	2174244513	3443							332313						39.864037	-88.941078	603387712		ILD984971467		ILR005828				ARCHER DANIELS MIDLAND	001307586	NO	MEDIA@ADM.COM	
2012	ENVIRONMENTAL MANAGER	JOSEPH PORTER	60607DMMLL1300W	ADM MILLING CO	1300 W CARROLL AVE	CHICAGO	COOK	IL	60607	ADM MILLING CO	1300 W CARROLL AVE	CHICAGO	IL		60607	YES	NO	NO	NO	DERICK LIVINGSTON	3126662465	2041							111140						41.887893	-87.659854	050702539								ARCHER DANIELS MIDLAND CO	001307586	NO		
2012	PLANT MANAGER	MICHAEL DE JONG	62306QNCYS1900G	ADM QUINCY	2100 GARDNER EXPRESSWAY	QUINCY	ADAMS	IL	623050329	ADM QUINCY	2100 GARDNER EXPRESSWAY	QUINCY	IL		62305-0329	YES	NO	NO	NO	ADM MEDIA	2174245413	2075							311222						39.905602	-91.410004	619629850								ARCHER DANIELS MIDLAND CO	001307586	NO	MEDIA@ADM.COM	
2012	PRESIDENT	PREM CHAUDHARI	60185DVNCD711WI	ADVANCED ELECTRONICS INC	721 WINSTON ST	WEST CHICAGO	DUPAGE	IL	60185	ADVANCED ELECTRONICS INC	721 WINSTON ST	WEST CHICAGO	IL		60185	YES	NO	NO	NO	NIPUL PATEL	6302933300	3672							334412						41.905028	-88.220073	197958143										NO	NIPUL@ADVEL.COM	
2012	GENERAL MANAGER	EDWIN SPENCER	61820DVNCD3206F	ADVANCED FILTRATION SYSTEMS INC	3206 FARBER DR	CHAMPAIGN	CHAMPAIGN	IL	618221084	ADVANCED FILTRATION SYSTEMS INC	3206 FARBER DR	CHAMPAIGN	IL		61822-1084	YES	NO	NO	NO	JIM BAILEY	2173697968	3599							336399						40.154382	-88.268451	155151418								DONALDSON CO INC	006477301	NO	JBAILEY@AFSIFILTERS.COM	
2012	PRESIDENT/CEO	WILLIAM LEWIS	60156DVNCD14WAL	ADVANCED FLEXIBLE COMPOSITES INC	14 WALTER CT	LAKE IN THE HILLS	MCHENRY	IL	60156	ADVANCED FLEXIBLE COMPOSITES INC	14 WALTER CT	LAKE IN THE HILLS	IL		60156	YES	NO	NO	NO	LAMBERT TERPSTRA P.E.	8476583938	2295	2296						326220	313320	314992				42.191494	-88.303584	185337037		ILR000129056								NO	BTERPSTRA@AFCONLINE.COM	
2012	ENVIRONMENTAL HEALTH AND SAFETY MANAGER	CARLOS GARCIA	60110DVNCD400AM	ADVANCED POLYMER COMPOUNDING	400-A MAPLE AVE	CARPENTERSVILLE	KANE	IL	60110	ADVANCED POLYMER COMPOUNDING	400-A MAPLE AVE	CARPENTERSVILLE	IL		60110	YES	NO	NO	NO	RAZA NASERI	8474263350	3087							325991						42.133301	-88.258301	175702984								FERRO CORP	004161477	NO	NASERIR@FERRO.COM	
2012	PLANT MANAGER	RICHARD STUBA	60185NSGPR1850W	ADVANCED URETHANE TECHNOLOGIES INC	1750 W DOWNS DR	WEST CHICAGO	DUPAGE	IL	60185	ADVANCED URETHANE TECHNOLOGIES INC	1750 W DOWNS DR	WEST CHICAGO	IL		60185	YES	NO	NO	NO	RICHARD STUBA	6302930780	3086							326150						41.885328	-88.239873	796490584								ADVANCED URETHANE TECHNOLOGIES	796490584	NO	RSTUBA@SLEEPINNOVATIONS.COM	
2012	PLANT MANAGER	JOHN LAPPIN	60638THSTH7201W	AFTON CHEMICAL CORP	7201 W 65TH ST	BEDFORD PARK	COOK	IL	60638	AFTON CHEMICAL CORP	7201 W 65TH ST	BEDFORD PARK	IL		60638	YES	NO	NO	NO	JOHN LAPPIN	7084588450	2843	2899						325613	325199					41.772942	-87.801655	060635258								NEWMARKET CORP	003132222	NO	JOHN.LAPPIN@AFTONCHEMICAL.COM	
2012	PLANT MANAGER	CAROLYN GARRETT	62201THYLPMONSA	AFTON CHEMICAL CORP	501 MONSANTO AVE	SAUGET	ST CLAIR	IL	62201	AFTON CHEMICAL CORP	501 MONSANTO AVE	SAUGET	IL		62201	YES	NO	NO	NO	DONNA RATKOWSKI	6185831323	2869							324191						38.602021	-90.16831	053969234								NEW MARKET CORP	003132222	NO	DONNA.RATKOWSKI@AFTONCHEMICAL.COM	
2012	EHS MANAGER	CLAUDE MCKIBBEN	61068TNCRP200EA	AG MANUFACTURING INC	200 E AVE G	ROCHELLE	OGLE	IL	610682172	AG MANUFACTURING INC	200 E AVE G	ROCHELLE	IL		61068-2172	YES	NO	NO	NO	CHUCK HACKER	8155629127	3714							336350						41.916046	-89.057093	832849363										NO	CHACKER@AGMFG-IL.COM	
2012	VICE PRESIDENT	MICHAEL HANRAHAN	61252GRKNG18246	AGRI-KING INC	18246 WALLER RD	FULTON	WHITESIDE	IL	61252	AGRI-KING INC	PO BOX 208	FULTON	IL		61252	YES	NO	NO	NO	TONY GRZEMSKI	8155892525	2048							311119						41.845862	-90.156515	045376449								AGRI-KING INC	045376449	NO	TONY.GRZEMSKI@AGRIKING.COM	
2012	PLANT MANAGER	MICHAEL HADY	62568GSRGP1200E	AHLSTROM FILTRATION LLC	1200 E ELM ST	TAYLORVILLE	CHRISTIAN	IL	62568	AHLSTROM FILTRATION LLC	1200 E ELM ST	TAYLORVILLE	IL		62568	YES	NO	NO	NO	SHAD CLAYTON	2708241566	2621							322121						39.555346	-89.280688	075000247								AHLSTROM		NO	SHAD.CLAYTON@AHLSTROM.COM	
2012	SAFETY DIRECTOR	CHRISTINA ORTIZ	60827LRCHN1200W	AIRGAS SPECIALTY PRODUCTS - RIVERDALE IL	1200 W 138TH ST	RIVERDALE	COOK	IL	60827	AIRGAS SPECIALTY PRODUCTS - RIVERDALE IL	2530 SEVER RD SUITE 300	LAWRENCEVILLE	GA		30043	YES	NO	NO	NO	DON DAYTON	6788983403	5169							424690						41.644357	-87.653676									AIRGAS INC	024492860	NO		
2012	SAFETY AND COMPLIANCE SPECIALIST	MICHAEL MILLER	60185RGSSP1250W	AIRGAS USA LLC - WEST CHICAGO IL	1250 W WASHINGTON ST	WEST CHICAGO	DUPAGE	IL	60185	AIRGAS USA LLC - WEST CHICAGO IL	1250 W WASHINGTON ST	WEST CHICAGO	IL		60185	YES	NO	NO	NO	MIKE MILLER	4146870940	5169							325120						41.884444	-88.205	601310738								AIRGAS INC	024492860	NO	MIKE.MILLER@AIRGAS.COM	
2012	ENVIRONMENTAL SPECIALIST	DAN KING	62959SNLGH19RED	AISIN MANUFACTURING ILLINOIS LLC	11000 REDCO DR	MARION	WILLIAMSON	IL	62959	AISIN MANUFACTURING ILLINOIS LLC	11000 REDCO DR	MARION	IL		62959	YES	NO	NO	NO	ED PAULICH	6189988333	3354	3679	3714					336211						37.759444	-88.89	118406698	172207222							AISIN HOLDINGS OF AMERICA	121400142	NO	E-PAULICH@AISINIL.COM	
2012	SITE DIRECTOR	STEFAN SVENSSON	60450KZCHMTABLE	AKZO NOBEL SURFACE CHEMISTRY LLC	8005 N TABLER RD	MORRIS	GRUNDY	IL	60450	AKZO NOBEL SURFACE CHEMISTRY LLC	8005 N TABLER RD	MORRIS	IL		60450	YES	NO	NO	NO	STEFAN SVENSSON	8159416347	2869							325613						41.406491	-88.336066	183977487								AKZO NOBEL NV	062999347	NO	STEFAN.SVENSSON@AKZONOBEL.COM	
2012	SITE OPERATIONS MANAGER	MICHAEL FLORA	60085MDLND17EWA	AKZONOBEL AEROSPACE COATINGS	1 E WATER ST	WAUKEGAN	LAKE	IL	60085	AKZONOBEL AEROSPACE COATINGS	1 E WATER ST	WAUKEGAN	IL		60085	YES	NO	NO	NO	CHERYLYN MCHUGH	8476253378	2851	2821						325510						42.35804	-87.825897	174716113								AKZO NOBEL NV	062999347	NO	CUSTOMER.SERVICE@AKZONOBEL.COM	
2012	PLANT MANAGER	LARRY LIPA	60411CLMBL400EA	ALERIS RECYCLING INC	400 E LINCOLN HWY	CHICAGO HEIGHTS	COOK	IL	60411	ALERIS RECYCLING INC	400 E LINCOLN HWY	CHICAGO HEIGHTS	IL		60411	YES	NO	NO	NO	LARRY LIPA	7087578901	3341							331314						41.505187	-87.617308	015621642								ALERIS RECYCLING INC	057896847	NO		
2012	PRESIDENT	MANNY GHANDI	6016WLNMCH3131W	ALIN MACHINING DBA POWER PLANT SERVICES	3131 W SOFFEL AVE	MELROSE PARK	COOK	IL	60160	ALIN MACHINING DBA POWER PLANT SERVICES	3131 W SOFFEL AVE	MELROSE PARK	IL		60160	YES	NO	NO	NO	US COMPLIANCE CORPORATION	9522523000								562920						41.903434	-87.872136											NO	EPCRA@USCOMPLIANCE.COM	
2012	VICE PRESIDENT	PAUL LEMKE	60651LLDMT4528W	ALLIED METAL CO	4528 W DIVISION ST	CHICAGO	COOK	IL	60651	ALLIED METAL CO	4528 W DIVISION ST	CHICAGO	IL		60651	YES	NO	NO	NO	PAUL LEMKE	7737720700	3341							331314						41.903429	-87.739497	618858617								ALLIED METAL CO		NO		
2012	PLANT MANAGER	PATRICK DEFEBAUGH	60426LLDTB16100	ALLIED TUBE & CONDUIT CORP	16100 S LATHROP AVE	HARVEY	COOK	IL	60426	ALLIED TUBE & CONDUIT CORP	16100 S LATHROP AVE	HARVEY	IL		60426	YES	NO	NO	NO	EILEEN TIERNEY	7082252077	3317							331210						41.595535	-87.642446	875632788								TE CONNECTIVITY LTD		NO	ETIERNEY@ATKORE.COM	
2012	PRESIDENT	WILLIAM CROWSON	61021LLDLC1088C	ALLIED-LOCKE INDUSTRIES INC	1088 CORREGIDOR RD PO BOX 509	DIXON	LEE	IL	610210509	ALLIED-LOCKE INDUSTRIES INC	1088 CORREGIDOR RD PO BOX 509	DIXON	IL		61021-0509	YES	NO	NO	NO	MICHAEL NOGA	8152881471	3568	3469	3523					333613	333111	332116				41.743353	-89.399198									ALLIED-LOCKE INDUSTRIES INC		NO	MNOGA@ALLIEDLOCKE.COM	
2012	PRESIDENT	EDWARD PIECKO	60106LLYWL796MA	ALLOYWELD INSPECTION CO	796 MAPLE	BENSENVILLE	DUPAGE	IL	60106	ALLOYWELD INSPECTION CO	796 MAPLE	BENSENVILLE	IL		60106	YES	NO	NO	NO	EDWARD PIECKO	6305952145	3479							332813						41.968715	-87.95167											NO	EPIECKO@ALLOYWELDINSPECTION.COM	
2012	PRESIDENT	BHAGVAN VAGHANI	60126LPHCR730OA	ALPHA CIRCUIT CORP	730 N OAKLAWN AVE	ELMHURST	DUPAGE	IL	60126	ALPHA CIRCUIT CORP	730 N OAKLAWN AVE	ELMHURST	IL		60126	YES	NO	NO	NO	B. K. VAGHANI	6306175555	3679							334412						41.921087	-87.958049	033156951										NO	BKV@ALPHACIRCUIT.COM	
2012	SITE DIRECTOR	LAWRENCE MCGRENERA	60411LLBRT400ST	ALPHARMA LLC	400 STATE ST	CHICAGO HEIGHTS	COOK	IL	60411	ALPHARMA LLC	400 STATE ST	CHICAGO HEIGHTS	IL		60411	YES	NO	NO	NO	LAWRENCE MCGRENERA	7087572570	2048							311119						41.522885	-87.618544	099219842								PFIZER INC	001326495	NO	LAWRENCE.MCGRENERA@PFIZER.COM	
2012	PRESIDENT/CEO	CHARLES LINNEMEYER	62002LCLDSCUTST	ALTON STEEL INC	5 CUT ST	ALTON	MADISON	IL	62002	ALTON STEEL INC	5 CUT ST	ALTON	IL		62002	YES	NO	NO	NO	D. JEANNINE KELLY	6183743533	3312							331111						38.883348	-90.145908	133270038										NO	JKELLY@ALTONSTEEL.COM	
2012	OPERATION MANAGER	CHARLES DAVIS	60106LBRFN630EG	ALU-BRA FOUNDRY INC	630 E GREEN ST	BENSENVILLE	DUPAGE	IL	60106	ALU-BRA FOUNDRY INC	PO BOX 68 630 E GREEN ST	BENSENVILLE	IL		60106	YES	NO	NO	NO	CHARLES M DAVIS	6307663112	3365							331525						41.952202	-87.93	005258926								ALU-BRA FOUNDRY INC	005258926	NO	CDAVIS@ALUBRA.COM	
2012	VICE PRESIDENT, TECHNICAL SERVICES	KEVIN WASAG	60107LMNMC501EA	ALUMINUM COIL ANODIZING CORP	501 E LAKE ST	STREAMWOOD	COOK	IL	60107	ALUMINUM COIL ANODIZING CORP	501 E LAKE ST	STREAMWOOD	IL		60107	YES	NO	NO	NO	KEVIN WASAG	6308374000	3471							332813						42.000068	-88.173674	054319892										NO	KWASAG@ACACORP.COM	
2012	DIRECTOR ENVIRONMENTAL SERVICES	STEVEN WHITWORTH	62739MRNCR134CI	AMEREN ENERGY GENERATING COFFEEN POWER STATION	134 CIPS LN	COFFEEN	MONTGOMERY	IL	62017	AMEREN ENERGY GENERATING COFFEEN POWER STATION	BOX 66149; 1901 CHOUTEAU AVE	SAINT LOUIS	MO		631666149	YES	NO	NO	NO	JENNIFER SPALDING	3145542210	4911							221112						39.0586	-89.4031	157912242								AMEREN CORP	364138990	NO	JKSPALDING@AMEREN.COM	
2012	DIRECTOR ENVIRONMENTAL SERVICES	STEVEN WHITWORTH	62448MRNCR6725N	AMEREN ENERGY GENERATING NEWTON POWER STATION	6725 N 500TH ST	NEWTON	JASPER	IL	62448	AMEREN ENERGY GENERATING NEWTON POWER STATION	BOX 66149; 1901 CHOUTEAU AVE	SAINT LOUIS	MO		631666149	YES	NO	NO	NO	JENNIFER SPALDING	3145542210	4911							221112						38.9361	-88.2778	157912242								AMEREN CORP	364138990	NO	JKSPALDING@AMEREN.COM	
2012	DIRECTOR ENVIRONMENTAL SERVICES	STEVEN WHITWORTH	61520CLCDC17751	AMEREN ENERGY RESOURCES GENERATING CO	17751 N CILCO RD	CANTON	FULTON	IL	61520	AMEREN ENERGY RESOURCES GENERATING CO	BOX 66149; 1901 CHOUTEAU AVE	SAINT LOUIS	MO		631666149	YES	NO	NO	NO	JENNIFER SPALDING	3145542210	4911							221112						40.46634	-89.984215	364138990								AMEREN CORP	364138990	NO	JKSPALDING@AMEREN.COM	
2012	DIRECTOR ENVIRONMENTAL SERVICES	STEVEN WHITWORTH	61607DDWRD7800S	AMEREN ENERGY RESOURCES GENERATING CO	7800 S CILCO LN	BARTONVILLE	PEORIA	IL	61607	AMEREN ENERGY RESOURCES GENERATING CO	BOX 66149; 1901 CHOUTEAU AVE	SAINT LOUIS	MO		631666149	YES	NO	NO	NO	JENNIFER SPALDING	3145542210	4911							221112						40.5958	-89.6631	364138990								AMEREN CORP	364138990	NO	JKSPALDING@AMEREN.COM	
2012	GENERAL MANAGER	JASON SMITH	61738MRCNB211EM	AMERICAN BUILDINGS CO EL PASO	2101 E MAIN	EL PASO	WOODFORD	IL	61738	AMERICAN BUILDINGS CO EL PASO	2101 E MAIN	EL PASO	IL		61738	YES	NO	NO	NO	JASON D. SMITH	3095271500	3448							332311						40.738915	-88.975172	173545021								NUCOR CORP	003446796	NO	JDSMITH@AMERICANBUILDINGS.COM	
2012	PLANT MANAGER	JEFF WRIGHT	60176MRCNG9509W	AMERICAN GASKET & RUBBER CO	9611 WINONA AVE	SCHILLER PARK	COOK	IL	60176	AMERICAN GASKET & RUBBER CO	119 E COMMERCE DR	SCHAUMBURG	IL		60173	YES	NO	NO	NO	JEFF WRIGHT	8477812468	3053							326291						41.97109	-87.865563									TEKNI-PLEX INC	042023333	NO	JEFF.WRIGHT@TEKNI-PLEX.COM	
2012	PLANT MANAGER	JEFF WRIGHT	60173MRCNG119EC	AMERICAN GASKET & RUBBER CO	119 E COMMERCE DR	SCHAUMBURG	COOK	IL	60173	AMERICAN GASKET & RUBBER CO	119 E COMMERCE DR	SCHAUMBURG	IL		60173	YES	NO	NO	NO	JEFF WRIGHT	8477812468	3053							326291						42.058197	-88.075989									TEKNI-PLEX INC	042023333	NO	JEFF.WRIGHT@TEKNI-PLEX.COM	
2012	VICE PRESIDENT	ARNOLD SCHILI	6004WMRCNM28893	AMERICAN METAL FIBERS INC	28893 NAGEL CT	LAKE BLUFF	LAKE	IL	60044	AMERICAN METAL FIBERS INC	13420 ROCKLAND RD	LAKE BLUFF	IL		60044	YES	NO	NO	NO	ARNOLD SCHILI	8473622634	3399							332999						42.28181	-87.88727									AMERICAN METAL FIBERS INC		NO	AMS@AMFI-USA.COM	
2012	VICE PRESIDENT	ARNOLD SCHILI	6004WMRCNM1342R	AMERICAN METAL FIBERS INC	13420 ROCKLAND RD	LAKE BLUFF	LAKE	IL	60044	AMERICAN METAL FIBERS INC	13420 ROCKLAND RD	LAKE BLUFF	IL		60044	YES	NO	NO	NO	ARNOLD SCHILI	8473622634	3399							332999						42.280013	-87.907063									AMERICAN METAL FIBERS INC		NO	AMS@AMFI-USA.COM	
2012	LABORATORY MANAGER	MARTY MILLER	61354MRCNNWESTM	AMERICAN NICKELOID CO	2900 MAIN ST	PERU	LA SALLE	IL	61354	AMERICAN NICKELOID CO	2900 MAIN ST	PERU	IL		61354	YES	NO	NO	NO	MARTY MILLER	8152230373	3471	3479						332813						41.323635	-89.146184									AMERICAN NICKELOID CO		NO	MARTYM@AN-CO.COM	
2012	SAFETY AND ENVIRONMENTAL MANAGER	BRIAN FUHRER	60123MRCNN1500H	AMERICAN NTN BEARING MANUFACTURING CORP	1500 HOLMES RD	ELGIN	KANE	IL	60123	AMERICAN NTN BEARING MANUFACTURING CORP	1500 HOLMES RD	ELGIN	IL		60123	YES	NO	NO	NO	BRIAN FUHRER	8476224558	3562							332991						42.071076	-88.31488	054336565								NTN USA CORP	621430610	NO	BFUHRER@ANBMNTN.COM	
2012	ENVIRONMENTAL GROUP LEADER	EDITH DYKAS	60176MRCNN9515W	AMERICAN NTN BEARING MANUFACTURING CORP	9515 WINONA AVE	SCHILLER PARK	COOK	IL	60176	AMERICAN NTN BEARING MANUFACTURING CORP	9515 WINONA AVE	SCHILLER PARK	IL		60176	YES	NO	NO	NO	CYNTHIA TARKA	8472987500	3562							332991						41.971104	-87.865541	929312676								NTN USA CORP	621430610	NO		
2012	PRESIDENT	SHAILESH PATEL	60101MRCNP1772A	AMERICAN PROGRESSIVE CIRCUITS	1772 ARMITAGE CT	ADDISON	DUPAGE	IL	60101	AMERICAN PROGRESSIVE CIRCUITS	1772 ARMITAGE CT	ADDISON	IL		60101	YES	NO	NO	NO	SAL PATEL	6304956900	3672							334412						41.90944	-88.03194											NO	SALP-APC@INIL.COM	
2012	EXECUTIVE VICE PRESIDENT	JAY HIRPARA	60185SSVKT475IN	AMERICAN STANDARD CIRCUITS IN C	475 INDUSTRIAL	WEST CHICAGO	DUPAGE	IL	60185	AMERICAN STANDARD CIRCUITS IN C	475 INDUSTRIAL	WEST CHICAGO	IL		60185	YES	NO	NO	NO	JAY HIRPARA	6305625550	3672							334412						41.891008	-88.233373									AMERICAN STANDARD CIRCUITS INC		NO	JAY@ASC-I.COM	
2012	CEO	KEVIN LAVERY	60131MRCNR11330	AMERICAN/JEBCO CORP	11330 W MELROSE ST	FRANKLIN PARK	COOK	IL	60131	AMERICAN/JEBCO CORP	11330 W MELROSE ST	FRANKLIN PARK	IL		60131	YES	NO	NO	NO	JOANNE KIEPURA	7732542406	3452	3471						332722						41.93741	-87.907864	005130612										NO	JKIEPURA@SCLWEB.COM	
2012	PRODUCTION LEADER	JON TIMBERS	6041WMRCSS26332	AMERICAS STYRENICS LLC - JOLIET SITE	26332 S FRONTAGE RD W	CHANNAHON	WILL	IL	60410	AMERICAS STYRENICS LLC - JOLIET SITE	26332 S FRONTAGE RD W	CHANNAHON	IL		60410	YES	NO	NO	NO	JON TIMBERS	8154232902								325211						41.402631	-88.199661	829735542								AMERICAS STYRENICS LLC	825292100	NO	JETIMBERS@AMSTYRENICS.COM	
2012	PLANT MANAGER	TIM BROGDON	6018WMRCCH551KI	AMERICO CHEMICAL PRODUCTS INC	551 KIMBERLY DR	CAROL STREAM	DUPAGE	IL	601881835	AMERICO CHEMICAL PRODUCTS INC	551 KIMBERLY DR	CAROL STREAM	IL		60188-1835	YES	NO	NO	NO	TIM BROGDON	6305880830								493190						41.91759	-88.11296											NO	TBROGDON@AMERICOCHEMICAL.COM	
2012	MANUFACTURING ENGINEERING SUPERVISOR	TONY MALTESE	60185MTKNT1725W	AMETEK NATIONAL CONTROLS CORP	1725 WESTERN DR	WEST CHICAGO	DUPAGE	IL	60185	AMETEK NATIONAL CONTROLS CORP	1725 WESTERN DR	WEST CHICAGO	IL		60185	YES	NO	NO	NO	TONY MALTESE	6306213075	3625							335314						41.890574	-88.238088									AMETEK INC	001345149	NO	TONY.MALTESE@AMETEK.COM	
2012	VICE PRESIDENT OF TECHNOLOGY	TYSON MORTIMER	60007MTRNC2001L	AMITRON CORP	2001 LANDMEIER RD	ELK GROVE VILLAGE	COOK	IL	60007	AMITRON CORP	2001 LANDMEIER RD	ELK GROVE VILLAGE	IL		60007	YES	NO	NO	NO	MILAN MORTIMER	8472909800	3672	3479						334412						42.010329	-87.953368	154969893										NO	MORT@AMITRONCORP.COM	
2012	TECHNICAL MANAGER	ROBERT FLAHERTY	60013FLXCN165CH	AMPAC FLEXIBLES LLC (PREVIOUSLY FLEXICON INC)	165 CHICAGO ST	CARY	MCHENRY	IL	60013	AMPAC FLEXIBLES LLC (PREVIOUSLY FLEXICON INC)	165 CHICAGO ST	CARY	IL		60013	YES	NO	NO	NO	BOB FLAHERTY	8476393530	2671	2759						326112						42.202324	-88.232782	070170071								AMPAC PACKAGING LLC	070991018	NO	BFLAHERTY@AMPACONLINE.COM	
2012	CEO	MICHAEL FISHER	60005MGNCS1117E	AMPCO METAL INC	1117 E ALGONQUIN RD	ARLINGTON HEIGHTS	COOK	IL	60005	AMPCO METAL INC	1117 E ALGONQUIN RD	ARLINGTON HEIGHTS	IL		60005	YES	NO	NO	NO	IAN WIESE	8474376000	3366							331525						42.032618	-87.955668	062467204										NO	WIESE@AMPCOMETAL.COM	
2012	QUALITY ASSURANCE MANAGER	BARRY WEDDINGTON	60007MPLNC925ES	AMPEL INC	925 ESTES AVE	ELK GROVE VILLAGE	COOK	IL	60007	AMPEL INC	925 ESTES AVE	ELK GROVE VILLAGE	IL		60007	YES	NO	NO	NO	MIKE PATEL	8479521900	3672							334412	334418					42.005965	-87.97167											NO	MIKE21@AMPELINC.COM	
2012	CONTROLLER	DOUGLAS SCHRANK	61109MPHNL13CAP	AMPHENOL ANTENNA SOLUTIONS	1300 CAPITAL DR	ROCKFORD	WINNEBAGO	IL	61109	AMPHENOL ANTENNA SOLUTIONS	1300 CAPITAL DR	ROCKFORD	IL		61109	YES	NO	NO	NO	DOUG SCHRANK	8153990001	3663							334220						42.21508	-89.07752	615964640								AMPHENOL CORP		NO	DSCHRANK@AMPHENOL-ANTENNAS.COM	
2012	DIRECTOR OF OPERATIONS	DONALD CHANDLER	62040MRCNS1700W	AMSTED RAIL CO INC	1700 WALNUT	GRANITE CITY	MADISON	IL	62040	AMSTED RAIL CO INC	1700 WALNUT	GRANITE CITY	IL		62040	YES	NO	NO	NO	JERRY RICHARDSON	6184518223	3324							331513						38.70316	-90.158809	826334729								AMSTED INDUSTRIES INC	046374062	NO	JRICHARDSON@AMSTEDRAIL.COM	
2012	FACILITIES ENGINEER	RON CARLEN	61938NMTNCEASTR	ANAMET ELECTRICAL INC	1000 BROADWAY E	MATTOON	COLES	IL	61938	ANAMET ELECTRICAL INC	PO BOX 39	MATTOON	IL		61938	YES	NO	NO	NO	RON CARLIN JR.	2172348844	3499							332999						39.482534	-88.366848	109135715								ANAMET INC		NO	RON@ANAMETELECTRICAL.COM	
2012	FACILITIES & HSE MANAGER	SAM LAXMAN	60185GRFFN1920D	ANCHOR BRAKE SHOE CO	1920 DOWNS DR	WEST CHICAGO	DUPAGE	IL	60185	ANCHOR BRAKE SHOE CO	1920 DOWNS DR	WEST CHICAGO	IL		60185	YES	NO	NO	NO	SAM LAXMAN	6302931110	3743							336510						41.885042	-88.242368	070244736								NEW YORK AIR BRAKE		NO	SAM.LAXMAN@ANCHORBRAKESHOE.COM	
2012	PLANT MANAGER	RYAN ENGELBRECHT	61032NCHRH600WE	ANCHOR-HARVEY COMPONENTS LLC	600 W LAMM RD	FREEPORT	STEPHENSON	IL	61032	ANCHOR-HARVEY COMPONENTS LLC	600 W LAMM RD	FREEPORT	IL		61032	YES	NO	NO	NO	RYAN ENGELBRECHT	8152354400	3463							332112						42.258521	-89.614115	070696422										NO	RENGELBRECHT@ANCHORHARVEY.COM	
2012	PLANT MANAGER	DAVE OHMAN	60007NDRSN901CH	ANDERSON DIE CASTINGS	901 CHASE AVE	ELK GROVE VILLAGE	COOK	IL	60007	ANDERSON DIE CASTINGS	901 CHASE AVE	ELK GROVE VILLAGE	IL		60007	YES	NO	NO	NO	DAVE OHMAN	8475413030	3363							331521						42.009099	-87.973769	082607974								ANDERSON DIE CASTINGS		NO		
2012	REGIONAL EHS MANAGER - AMERICAS	DARREN WADDELL	60433NDRWC27ELL	ANDREW LLC	2700 ELLIS RD	JOLIET	WILL	IL	60433	ANDREW LLC	2700 ELLIS RD	JOLIET	IL		60433	YES	NO	NO	NO	SCOTT WADDELL	8284595457								334220	334290					41.508358	-88.015585	005177084								COMMSCOPE INC		NO	SWADDELL@COMMSCOPE.COM	
2012	PRESIDENT	THOMAS WALKER	61764NTHNY1037W	ANTHONY LIFTGATES INC	1037 W HOWARD ST	PONTIAC	LIVINGSTON	IL	61764	ANTHONY LIFTGATES INC	PO BOX 615	PONTIAC	IL		61764	YES	NO	NO	NO	US COMPLIANCE CORP.	9522523000	3441							332312						40.881434	-88.640352	005172929								PMW HOLDING INC		NO	EPCRA@USCOMPLIANCE.COM	
2012	EVP AND GM	LEE WELGS	60435CPNRG10IND	APEX MATERIAL TECHNOLOGIES LLC	10 INDUSTRY AVE	JOLIET	WILL	IL	60435	APEX MATERIAL TECHNOLOGIES LLC	10 INDUSTRY AVE	JOLIET	IL		60435	YES	NO	NO	NO	LEE WELGS	3305712182	2819							325188						41.550031	-88.083059	017623413										NO	LWELGS@APEXMATTECH.COM	
2012	EHS MANAGER	DENNIS MILLER	61802PLNGN2401N	APL ENGINEERED MATERIALS INC	2401 N WILLOW RD	URBANA	CHAMPAIGN	IL	61802	APL ENGINEERED MATERIALS INC	2401 N WILLOW RD	URBANA	IL		61802	YES	NO	NO	NO	DENNIS MILLER	2172787581	2819							325188						40.1375	-88.20249	108630484								ADVANCED LIGHTING TECHNOLOGIES INC	107115396	NO	DENNIS_MILLER@ADLT.COM	
2012	VP OF MANUFACTURING	BRUCE WRIGHT	60436PLLCL1550M	APOLLO COLORS INC	1550 MOUND RD	ROCKDALE	WILL	IL	60436	APOLLO COLORS INC	1550 MOUND RD	ROCKDALE	IL		60436	YES	NO	NO	NO	BRUCE R. WRIGHT	8157445650	2865							325132						41.500651	-88.122259	047578331								APOLLO COLORS INC	047578331	NO	BWRIGHT@APOLLOCOLORS.COM	
2012	V.P. OF MANUFACTURING	MATTHEW GOERINGER	60007RCTRN1150P	ARC-TRONICS INC	1150 PAGNI DR	ELK GROVE VILLAGE	COOK	IL	60007	ARC-TRONICS INC	1150 PAGNI DR	ELK GROVE VILLAGE	IL		60007	YES	NO	NO	NO	MATTHEW GOERINGER	8474370211	3679							334418						42.027613	-87.968025	059428250										NO	MATTHEWG@ARC-TRONICS.COM	
2012	OPERATIONS MANAGER	MARK DUTLER	60627CMSTL13500	ARCELORMITTAL RIVERDALE LLC	13500 S PERRY AVE	RIVERDALE	COOK	IL	608271182	ARCELORMITTAL RIVERDALE LLC	13500 S PERRY AVE	RIVERDALE	IL		60827-1182	YES	NO	NO	NO	MICHAEL J. BRENNAN	7083921035	3312							331111						41.656474	-87.625847	791200652								ARCELORMITTAL USA LLC	107970886	NO	MICHAEL.BRENNAN@ARCELORMITTAL.COM	
2012	HR MANAGER	NANCY GRIZZLE	60101RNDST381AR	ARI INDUSTRIES INC	381 ARI CT	ADDISON	DUPAGE	IL	601014353	ARI INDUSTRIES INC	381 ARI CT	ADDISON	IL		60101-4353	YES	NO	NO	NO	UNITED STATES COMPLIANCE CORPORATION	9522523000	3823							334513						41.920141	-88.040165	055416214								OKZAKI MANUFACTURING CO	690579580	NO	EPCRA@USCOMPLIANCE.COM	
2012	PLANT MANAGER	BRIAN VALLIEU	60658CRMLS12840	ARKEMA COATING RESINS	12840 S PULASKI RD	ALSIP	COOK	IL	60803	ARKEMA COATING RESINS	12840 S PULASKI RD	ALSIP	IL		60803	YES	NO	NO	NO	WILLIAM PEDERSEN	7083963006	2821							325211						41.666423	-87.716717	002290773								ARKEMA DELAWARE INC	002290773	NO	WILLIAM.PEDERSEN@ARKEMA.COM	
2012		TIMOTHY GAUGHAN	60439MLSNSEASTO	ARKEMA COATINGS & RESINS	13511 MAIN ST	LEMONT	COOK	IL	60439	ARKEMA COATINGS & RESINS	410 GREGSON DR	CARY	NC		27511	NO	NO	NO	NO	TIMOTHY GAUGHAN	9194696762	2821	2842						325612						41.690271	-87.948258	002290773								ARKEMA INC.	002290773	NO	TIM.GAUGHAN@ARKEMA.COM	
2012	PRESIDENT	RICH MACARY	60067RLNGT600SO	ARLINGTON PLATING CO INC	600 S VERMONT ST	PALATINE	COOK	IL	600780974	ARLINGTON PLATING CO INC	600 S VERMONT ST	PALATINE	IL		60078-0974	YES	NO	NO	NO	RICH MACARY	8473591490	3471							332813						42.099071	-88.038173	081040222										NO	RMACARY@ARLINGTONPLATING.COM	
2012	PROCESS ENGINEER	CHERI CLEVENGER	60473RMCLL168SC	ARMACELL LLC	16800 S CANAL ST	SOUTH HOLLAND	COOK	IL	60473	ARMACELL LLC	16800 S CANAL ST	SOUTH HOLLAND	IL		60473	YES	NO	NO	NO	JEFF LIPPY	7082255567	3086							326150						41.589535	-87.628245	830996646								ARMACELL US HOLDINGS INC		NO	JEFFERY.S.LIPPY@ARMACELL.COM	
2012	PLANT MANAGER	JEFF HORVATH	60901RMSTRRT50N	ARMSTRONG WORLD INDUSTRIES	1401 N HOBBIE AVE	KANKAKEE	KANKAKEE	IL	60901	ARMSTRONG WORLD INDUSTRIES	1401 N HOBBIE AVE	KANKAKEE	IL		60901	YES	NO	NO	NO	JEFF HORVATH	8159395495	3996							326192						41.137312	-87.852542	001307792								ARMSTRONG WORLD INDUSTRIES INC	001307792	NO	JMHORVATH@ARMSTRONG.COM	
2012	DIRECTOR OF ENVIRONMENTAL HEALTH AND SAFETY	NADINE ELLISON-MARION	60152RNLDN300WE	ARNOLD MAGNETIC TECHNOLOGIES - ARNOLD ENGINEERING	300 N W ST	MARENGO	MCHENRY	IL	60152	ARNOLD MAGNETIC TECHNOLOGIES - ARNOLD ENGINEERING	300 N W ST	MARENGO	IL		60152	YES	NO	NO	NO	NADINE MARION	5853859010	3356	3313	3679					332999						42.253662	-88.620194	019287341	005163803	ILD005163803		ILR001065				ARNOLD MAGNETIC TECHNOLOGIES CORP	194775438	NO	NMARION@ARNOLDMAGNETICS.COM	
2012	TREASURER	ROBERT ARNTZEN	60098RNTZN14600	ARNTZEN CORP	14600 WASHINGTON ST	WOODSTOCK	MCHENRY	IL	60098	ARNTZEN CORP	1025 SCHOOL ST	ROCKFORD	IL		61101	YES	NO	NO	NO	ROBERT M. ARNTZEN	8159649413	3443							331210						42.336921	-88.480573	005179817								ARNTZEN CORP		NO	ARNTZENRM@AOL.COM	
2012	TREASURER	ROBERT ARNTZEN	61101RNTZN1025S	ARNTZEN CORP	1025 SCHOOL ST	ROCKFORD	WINNEBAGO	IL	61101	ARNTZEN CORP	1025 SCHOOL ST	ROCKFORD	IL		61101	YES	NO	NO	NO	ROBERT M. ARNTZEN	8159649413	3443							331210						42.281085	-89.102645	005179817								ARNTZEN CORP		NO	ARNTZENRM@AOL.COM	
2012	V.P.	MIKE CERVINKA	60515RRWGR231CU	ARROW GEAR INC	2301 CURTISS ST	DOWNERS GROVE	DUPAGE	IL	60515	ARROW GEAR INC	2301 CURTISS ST	DOWNERS GROVE	IL		60515	YES	NO	NO	NO	MIKE CERVINKA	6309697640								333612						41.791784	-88.0416	005075205										NO	MJCERVINKA@ARROWGEAR.COM	
2012	PLANT MANAGER	GREG MERCHEN	60409SHLND142ND	ASHLAND PERFORMANCE MATERIALS	14303 PAXTON AVE	CALUMET CITY	COOK	IL	60409	ASHLAND PERFORMANCE MATERIALS	14303 PAXTON AVE	CALUMET CITY	IL		60409	YES	NO	NO	NO	GARY L. RHODES	8598153047	2821							325211						41.637025	-87.567324	115791261								ASHLAND INC	005003264	NO	GLRHODES@ASHLAND.COM	
2012	OPERATIONS MANAGER	JOE SHOTWELL	6061WSPHLT2835E	ASPHALT OPERATING SERVICES LLC	2835 E 106TH ST	CHICAGO	COOK	IL	60617	ASPHALT OPERATING SERVICES LLC	2835 E 106TH ST	CHICAGO	IL		60617	YES	NO	NO	NO	JOE SHOTWELL	6304979640								424710						41.70274	-87.555094											NO	JOE.SHOTWELL@AOSTERMINALS.COM	
2012	ENGINEER CONTINUOUS IMPROVEMENT	PETER ECKERT	6008WSSMBL3HAST	ASSEMBLED PRODUCTS	300 HASTINGS DR	BUFFALO GROVE	LAKE	IL	60089	ASSEMBLED PRODUCTS	300 HASTINGS DR	BUFFALO GROVE	IL		60089	YES	NO	NO	NO	PETER ECKERT	8472151948								335999	332999					42.15537	-87.93905	793264755								JASON INC		NO	ECKERTP@APRODUCTS.COM	
2012	OPERATIONS MANAGER	ADRIAN BOTEZATU	6000WSSMBL775TU	ASSEMBLY INTERNATIONAL INC	775 TOUHY AVE	ELK GROVE VILLAGE	COOK	IL	600075914	ASSEMBLY INTERNATIONAL INC	775 TOUHY AVE	ELK GROVE VILLAGE	IL		60007-5914	YES	NO	NO	NO	ADRIAN BOTEZATU	8474373120								334418						42.00726	-87.97548											NO	ADRIAN@ASSEMBLYINT.COM	
2012	CFO	JACQUELINE BUESCHEL	60487TLSPT8351W	ATLAS PUTTY PRODUCTS CO	8351 185TH ST	TINLEY PARK	WILL	IL	60487	ATLAS PUTTY PRODUCTS CO	8351 185TH ST	TINLEY PARK	IL		60487	YES	NO	NO	NO	JACKIE BUESCHEL	7084295858								325510						41.5531	-87.82253	005181508										NO	JBUESCHEL@PUTTY.COM	
2012	OPERATIONS MANAGER	JAMES PANCRAZIO	61244TLSNR3110M	ATLAS ROOFING CORP	3110 MORTON DR	EAST MOLINE	ROCK ISLAND	IL	61244	ATLAS ROOFING CORP	3110 MORTON DR	EAST MOLINE	IL		61244	YES	NO	NO	NO	JIM PANCRAZIO	3097527121	3086							326150						41.522524	-90.40983									ATLAS ROOFING CORP		NO	JPANCRAZ@ATLASROOFING.COM	
2012	DIRECTOR OF ENVIRONMENTAL AFFAIRS	KIMBERLY HAWKINS	60633WLDDT1855E	ATLAS TUBE INC	1855 E 122ND ST	CHICAGO	COOK	IL	60633	ATLAS TUBE INC	1855 E 122ND ST	CHICAGO	IL		60633	YES	NO	NO	NO	ARTHUR HALL	7243426851	3317							331210						41.671655	-87.578045									JMC STEEL GROUP		NO	ART.HALL@WHEATLAND.COM	
2012	ENVIRONMENTAL ENGINEER	LEE DESAI	60505KLMSS2250W	AURORA CIRCUITS LLC	2250 WHITE OAK CIR	AURORA	DUPAGE	IL	605029675	AURORA CIRCUITS LLC	2250 WHITE OAK CIR	AURORA	IL		60502-9675	YES	NO	NO	NO	CHRIS KALMUS	6302483564	3672	3471						334412						41.795609	-88.260971	098354652										NO		
2012	PRESIDENT	DAVID BUMBAR	60538RRNDS1002G	AURORA METALS DIV LLC	1995 GREENFIELD AVE	MONTGOMERY	KANE	IL	60538	AURORA METALS DIV LLC	1995 GREENFIELD AVE	MONTGOMERY	IL		60538	YES	NO	NO	NO	DAVID BUMBAR	6308444900	3366							331525						41.764579	-88.329572	051093185										NO	DBUMBAR@AURORAMETALS.COM	
2012	ISO/TS COORDINATOR	SUSAN PARGIN	62439TMTVT100TR	AUTOMOTIVE TECHNOLOGY SYSTEMS	100 TRIM MASTERS DR	LAWRENCEVILLE	LAWRENCE	IL	62439	AUTOMOTIVE TECHNOLOGY SYSTEMS	100 TRIM MASTERS DR	LAWRENCEVILLE	IL		62439	YES	NO	NO	NO	JIM MORGAN	8597508132	3714							336360						38.720207	-87.629424	032313694								TOYOTA BOSHOKU AMERICA	102045767	NO	JIM.MORGAN@TBAMERICA.COM	
2012	ENVIRONMENTAL MANAGER	STEVE ANTONACCI	61554PKNNR1300S	AVENTINE RENEWABLE ENERGY INC	1300 S 2ND ST	PEKIN	TAZEWELL	IL	61554	AVENTINE RENEWABLE ENERGY INC	PO BOX 10	PEKIN	IL		615550010	YES	NO	NO	NO	STEVEN B. ANTONACCI	3093479241	2869							325193						40.555339	-89.662904	929922839								AVENTINE RENEWABLE ENERGY INC		NO	STEVE.ANTONACCI@AVENTINEREI.COM	
2012	FACILITY MANAGER	LEE HARRIS	60648STMSN7542N	AVERY DENNISON	7542 N NATCHEZ	NILES	COOK	IL	60714	AVERY DENNISON	7542 N NATCHEZ	NILES	IL		60714	YES	NO	NO	NO	LEE HARRIS	8476273133	3089	3471						332813						42.01846	-87.788562	623168507								AVERY DENNISON CORP	008256364	NO	LEE.HARRIS@AVERYDENNISON.COM	
2012	EHS & HAZMAT MANAGER	JONI VAN ALSTINE	60053VNPRD6901G	AVON PRODUCTS INC - MORTON GROVE	6901 GOLF RD	MORTON GROVE	COOK	IL	60053	AVON PRODUCTS INC - MORTON GROVE	6901 GOLF RD	MORTON GROVE	IL		60053	YES	NO	NO	NO	JENNIFER VARGAS	9174005308	2844							325620						42.053999	-87.797363	001468693								AVON PRODUCTS INC.	626482145	NO	JENNIFER.VARGAS@AVON.COM	
2012	VP - CENTRAL OPERATIONS	BRYAN STOVALL	61021GLVNZ310EP	AZZ GALVANIZING-DIXON	310 E PROGRESS DR	DIXON	LEE	IL	61021	AZZ GALVANIZING-DIXON	310 E PROGRESS DR	DIXON	IL		61021	YES	NO	NO	NO	JASON PENCE	8178100095	3479							332812						41.809213	-89.459002	008012148								AZZ INC	008012418	NO	JASONPENCE@AZZGALV.COM	
2012	VP - CENTRAL OPERATIONS	BRYAN STOVALL	60434GLVNZ625MI	AZZ GALVANIZING-JOLIET	625 MILLS RD	JOLIET	WILL	IL	60433	AZZ GALVANIZING-JOLIET	625 MILLS RD	JOLIET	IL		60433	YES	NO	NO	NO	JASON PENCE	8178100095	3479							332812						41.503606	-88.063328	804783769								AZZ INC	008012418	NO	JASONPENCE@AZZGALV.COM	
2012	VP - CENTRAL OPERATIONS	BRYAN STOVALL	61656NRRHN6718W	AZZ GALVANIZING-PEORIA	6718 W PLANK RD	PEORIA	PEORIA	IL	61604	AZZ GALVANIZING-PEORIA	6718 W PLANK RD	PEORIA	IL		61604	YES	NO	NO	NO	JASON PENCE	8178100095	3479							332812						40.688843	-89.699593	142252381								AZZ INC	008012148	NO	JASONPENCE@AZZGALV.COM	
2012	SENIOR DIRECTOR	RICK DIERICX	62217LLNSP1901B	BALDWIN ENERGY COMPLEX	10901 BALDWIN RD	BALDWIN	RANDOLPH	IL	62217	BALDWIN ENERGY COMPLEX	10901 BALDWIN RD	BALDWIN	IL		62217	YES	NO	NO	NO	KATHRYN SULLIVAN	7137675800	4911							221112						38.205	-89.855	801814344								DYNEGY INC	125636345	NO	IR@DYNEGY.COM	
2012	CHEMIST	JAIME SANTIAGO	60515BLSML2824H	BALES MOLD SERVICE INC	2824 HITCHCOCK AVE	DOWNERS GROVE	DUPAGE	IL	60515	BALES MOLD SERVICE INC	2824 HITCHCOCK AVE	DOWNERS GROVE	IL		60515	YES	NO	NO	NO	STACEY BALES	6308524665	3471							332813						41.794115	-88.054312	018214981										NO	STACEY1@BALESMOLD.COM	
2012	DIRECTOR, EHS	JOETTE BAILEY-KEOWN	60120SCNCM1717G	BALL AEROSOL & SPECIALTY CONTAINER INC	1717 GIFFORD RD	ELGIN	COOK	IL	60120	BALL AEROSOL & SPECIALTY CONTAINER INC	9300 W 108TH CIR	BROOMFIELD	CO		80021	YES	NO	NO	NO	SCOTT MCCARTY	3034605774	3411							332431						41.995879	-88.246255									BALL CORP	006419147	NO	SMCCARTY@BALL.COM	
2012	DIRECTOR OF OPERATIONS	RICHARD WAGY	60188BNNRS494EL	BANNER SERVICES CORP	494 E LIES RD	CAROL STREAM	DUPAGE	IL	60188	BANNER SERVICES CORP	494 E LIES RD	CAROL STREAM	IL		60188	YES	NO	NO	NO	RICHARD WAGY	6308681216	3441							332312						41.927862	-88.102221	362471585										NO	RWAGY@BARGRIND.COM	
2012	V.P. OPERATIONS	RICHARD PETERSON	60134BRTCH500FL	BAR TECHNOLOGIES LLC	500 FLUID POWER DR	GENEVA	KANE	IL	60134	BAR TECHNOLOGIES LLC	500 FLUID POWER DR	GENEVA	IL		60134	YES	NO	NO	NO	UNITED STATES COMPLIANCE CORPORATION	9522523000	3499							332999						41.890556	-88.273056	939223590								INDUSTRIAL HARD CHROME LTD	005171368	NO	EPCRA@USCOMPLIANCE.COM	
2012	OPERATIONS DIRECTOR	ERICH REUTER	60901HNKLCSKENS	BASF CORP	2525 S KENSINGTON RD	KANKAKEE	KANKAKEE	IL	60901	BASF CORP	2525 S KENSINGTON RD	KANKAKEE	IL		60901	YES	NO	NO	NO	STEVEN A. HULL	8159396062	2821							325211						41.085542	-87.880542	114571107								BASF CORP	114571107	NO	STEVE.HULL@BASF.COM	
2012	REGIONAL REGULATORY MANAGER	TIEN PHAM	60544PLNFL13915	BASIC CHEMICAL SOLUTIONS LLC PLAINFIELD BRANCH	13915 US RT 30	PLAINFIELD	WILL	IL	60544	BASIC CHEMICAL SOLUTIONS LLC PLAINFIELD BRANCH	13915 US RT 30	PLAINFIELD	IL		60544	YES	NO	NO	NO	TIEN PHAM	7349425715	5169							424690						41.657857	-88.233994	028968691								BASIC CHEMICAL SOLUTIONS LLC	028968691	NO	TIEN.PHAM@UNIVARUSA.COM	
2012	HEALTH & SAFETY REPRESENTATIVE	ANDREW WOLFF	60073BXTRHROUTE	BAXTER HEALTHCARE CORP	RT 120 & WILSON RD	ROUND LAKE	LAKE	IL	600730490	BAXTER HEALTHCARE CORP	25212 W IL RT 120, RL T-02	ROUND LAKE	IL		600730490	YES	NO	NO	NO	JEFF T. WYNVEEN	2242704912	2834	3841						339112						42.334452	-88.131282	005146311								BAXTER INTERNATIONAL INC		NO	JEFF_WYNVEEN@BAXTER.COM	
2012	DIRECTOR OF ENVIRONMENTAL SERVICES	SURESH RAO	60525BVRLC6037L	BEAVER OIL CO	6037 LENZI AVE	HODGKINS	COOK	IL	60525	BEAVER OIL CO	6037 LENZI AVE	HODGKINS	IL		60525	YES	NO	NO	NO	RAY VINTIKA	7083544040	4953							562219						41.779462	-87.856857									BEAVER OIL CO		NO	RAY@BEAVEROIL.COM	
2012	SHEQ MANAGER	RAYMOND MUFFLER	60007SPCLT25002	BECKER SPECIALTY CORP	2500 DELTA LN	ELK GROVE VILLAGE	DUPAGE	IL	60007	BECKER SPECIALTY CORP	2500 DELTA LN	ELK GROVE VILLAGE	IL		60007	YES	NO	NO	NO	RAYMOND MUFFLER	8477508925	2851							325510						41.990617	-87.942519	808094572		ILD005140108		ILR001030				BECKER SPECIALTY CORP		NO	RAY.MUFFLER@BECKERS-GROUP.COM	
2012	ENVIRONMENTAL MANAGER	JON KUCH	60411BHRPR270ST	BEHR PROCESS CORP - CHICAGO	270 STATE ST	CHICAGO HEIGHTS	COOK	IL	60411	BEHR PROCESS CORP - CHICAGO	3001 S YALE ST	SANTA ANA	CA		92704	YES	NO	NO	NO	MIKE BUTLER	7145457101	2851							325510						41.525535	-87.616444	008387524								MASCO CORP	005320924	NO	MBUTLER@BEHR.COM	
2012	DIRECTOR OF HUMAN RESOURCES	YVONNE COFFEY	62220BLLVL100PR	BELLEVILLE SHOE MANUFACTURING CO	100 PREMIER DR	BELLEVILLE	ST CLAIR	IL	62220	BELLEVILLE SHOE MANUFACTURING CO	100 PREMIER DR	BELLEVILLE	IL		62220	YES	NO	NO	NO	DAVID PRUSACKI	6182335600	3143	3144						316213						38.50132	-89.940003	006277974										NO	DAVIDP@BELLEVILLEBOOT.COM	
2012	PRESIDENT	MARK TONI	60131BLMNT3410N	BELMONT PLATING WORKS	3410 N RIVER RD	FRANKLIN PARK	COOK	IL	60131	BELMONT PLATING WORKS	9145 KING ST	FRANKLIN PARK	IL		60131	YES	NO	NO	NO	MARK TONI	8476780200	3471							332813						41.940283	-87.85371	612760368										NO	MTONI93713@AOL.COM	
2012	PLANT MANAGER	GEORGE WARREN	60401DNTCH449WC	BERNARD WELDING	449 W CORNING RD	BEECHER	WILL	IL	60401	BERNARD WELDING	449 W CORNING RD	BEECHER	IL		60401	YES	NO	NO	NO	STEVE WEISHAAR	7089464203	3548							333992						41.325	-87.625									ILLINOIS TOOL WORKS INC		NO	SWEISHAAR@BERNARDWELDS.COM	
2012	GENERAL MANAGER	JAMES LEITING	6143WBGRVR11SE2	BIG RIVER RESOURCES GALVA LLC	1100 SE 2ND ST	GALVA	HENRY	IL	61434	BIG RIVER RESOURCES GALVA LLC	1100 SE 2ND ST	GALVA	IL		61434	YES	NO	NO	NO	BRIAN SCHASEL	3197531100								325193						41.170329	-90.023549	610247681								BIG RIVER RESOURCES LLC	809163152	NO	BRIAN.SCHASEL@BIGRIVERRESOURCES.COM	
2012	PRESIDENT	GEORGE OBELDOBEL	62201BGRVRRTE3M	BIG RIVER ZINC	2401 MISSISSIPPI AVE	SAUGET	ST CLAIR	IL	62201	BIG RIVER ZINC	2401 MISSISSIPPI AVE	SAUGET	IL		62201	YES	NO	NO	NO	GEORGE M OBELDOBEL	6182745000	3339							331492						38.601411	-90.17031	193002920										NO	GOBELDOBEL@BIGRIVERZINC.COM	
2012	VP OPERATIONS	KENT SOWATZKE	60449BMBMFUSRTE	BIMBA MANUFACTURING CO MAIN PLANT	25150 S GOVERNORS HWY	UNIVERSITY PARK	WILL	IL	60484	BIMBA MANUFACTURING CO MAIN PLANT	PO BOX 68	MONEE	IL		60449	YES	NO	NO	NO	BRUCE CROIX	7082352063	3593							333995						41.42499	-87.74166	005245345		ILD990784969								NO	CROIXB@BIMBA.COM	
2012	PLANT MANAGER	MIKE DOLINSKI	60423MTCLF401CE	BLACHFORD CORP	401 CENTER RD	FRANKFORT	WILL	IL	60423	BLACHFORD CORP	401 CENTER RD	FRANKFORT	IL		60423	YES	NO	NO	NO	MIKE DOLINSKI	8154642100	2841							325998						41.491493	-87.84785	045305083		ILD057837056		ILR005667				BLACHFORD ENTERPRISES INC	614951275	NO	MDOLINSKI@BLACHFORDCORP.COM	
2012	PLANT MANAGER	GREG STEUCK	60185HLBLC1400N	BLACHFORD INC	1400 NUCLEAR DR	WEST CHICAGO	DUPAGE	IL	60185	BLACHFORD INC	1400 NUCLEAR DR	WEST CHICAGO	IL		60185	YES	NO	NO	NO	GREG STEUCK	6302318300	3086	3089						326150	326199					41.904139	-88.232853	884732314		ILD068586429		IL0067458				BLACHFORD INVESTMENTS INC.	884732314	NO	GSTEUCK@BLACHFORDINC.COM	
2012	EHS MANAGER	JOY REDFORD	60610BLMMR600WK	BLOMMER CHOCOLATE CO	600 W KINZIE ST	CHICAGO	COOK	IL	60610	BLOMMER CHOCOLATE CO	600 W KINZIE ST	CHICAGO	IL		60610	YES	NO	NO	NO	JOY REDFORD	3122267700	2066							311320						41.889413	-87.643653	005121124										NO	JREDFORD@CH.BLOMMER.COM	
2012	PLANT MANAGER	WILLIAM MOFFATT	60406BTLSP131ST	BLUE ISLAND PHENOL LLC	3350 W 131ST ST	ALSIP	COOK	IL	60803	BLUE ISLAND PHENOL LLC	3350 W 131ST ST	BLUE ISLAND	IL		60406	YES	NO	NO	NO	BILL MOFFATT	7083889373	2869	2865						325110	325199					41.656662	-87.705559	828384342								BLUE ISLAND PHENOL LLC	828384342	NO	BILL.MOFFATT@BIPHENOL.COM	
2012	GENERAL MANAGER	NICK BUGLIARELLO-WONDRICH	60164HTMPN310SW	BLUEWATER THERMAL SOLUTIONS - CHICAGO 1	310 S WOLF RD	NORTHLAKE	COOK	IL	60164	BLUEWATER THERMAL SOLUTIONS - CHICAGO 1	75 E LAKE ST	NORTHLAKE	IL		60164	YES	NO	NO	NO	NICK BUGLIARELLO-WONDRICH	7084108119	3398							332811						41.90033	-87.902863	113092373								BLUEWATER THERMAL SOLUTIONS		NO	NBUGLIARELLO@BLUEWATERTHERMAL.COM	
2012	GENERAL MANAGER	TYRONE PEARSON	60164HTMPN75ELA	BLUEWATER THERMAL SOLUTIONS CHICAGO #2	75 E LAKE ST	NORTHLAKE	COOK	IL	60164	BLUEWATER THERMAL SOLUTIONS CHICAGO #2	75 E LAKE ST	NORTHLAKE	IL		601642419	YES	NO	NO	NO	TYRONE PEARSON	7084108219	3398							332811						41.900871	-87.90267	113092373								BLUEWATER THERMAL SOLUTIONS		NO	TPEARSON@BLUEWATERTHERMAL.COM	
2012	QUALITY MANAGER	JOHN LAFFOON	60160LNDBR1975N	BODYCOTE THERMAL PROCESSING	1975 N RUBY ST	MELROSE PARK	COOK	IL	60160	BODYCOTE THERMAL PROCESSING	1975 N RUBY ST	MELROSE PARK	IL		60160	YES	NO	NO	NO	JOHN LAFFOON	7083444080	3398							332811						41.910631	-87.868162	005982046								BODYCOTE PLC		NO	JOHN.LAFFOON@BODYCOTE.COM	
2012	DIRECTOR RISK MANAGEMENT	JOHN COVER	60131MRCNS10352	BONSAL AMERICAN INC	10532 FRANKLIN AVE	FRANKLIN PARK	COOK	IL	60131	BONSAL AMERICAN INC	10532 FRANKLIN AVE	FRANKLIN PARK	IL		60131	YES	NO	NO	NO	JOHN COVER	7045294207	3272	2952	2999					327390	324199	324122				41.94101	-87.883663	003149457								OLDCASTLE INC	037176591	NO	JACK.COVER@OLDCASTLE.COM	
2012	STAFF ENGINEER - EHS	RICHARD PAINTER	60423BRGWR300SM	BORGWARNER TRANSMISSION SYSTEMS	300 S MAPLE ST	FRANKFORT	WILL	IL	60423	BORGWARNER TRANSMISSION SYSTEMS	300 S MAPLE ST	FRANKFORT	IL		60423	YES	NO	NO	NO	MR. RICHARD PAINTER	8154697801	3714							336350	336399					41.494133	-87.854771	055417794		ILD055417794		ILR000844				BORGWARNER INC	139469787	NO	RPAINTER@BORGWARNER.COM	
2012	STAFF ENGINEER - EHS	RICHARD PAINTER	60104BRGWR700SO	BORGWARNER TRANSMISSION SYSTEMS	700 25TH AVE	BELLWOOD	COOK	IL	60104	BORGWARNER TRANSMISSION SYSTEMS	700 25TH AVE	BELLWOOD	IL		60104	YES	NO	NO	NO	MR. RICHARD PAINTER	7085472874	3714							336350						41.880231	-87.864661	005457221								BORGWARNER INC	139469787	NO	RPAINTER@BORGWARNER.COM	
2012	TERMINAL MANAGER - BP PRODUCTS NA, INC	ALAN PYNE	60402MCLC04811S	BP PRODUCTS NA INC CHICAGO	4811 S HARLEM AVE	BERWYN	COOK	IL	60402	BP PRODUCTS NA INC CHICAGO	4811 S HARLEM AVE	BERWYN	IL		60402	YES	NO	NO	NO	KRISTEN HANCOCK	7087495019	5171							424710						41.804732	-87.799256									BP PRODUCTS N.A. INC	039596507	NO	KRISTEN.HANCOCK@BP.COM	
2012	TERMINAL MANAGER	EARL TURYNA	60018MCLC02201S	BP PRODUCTS NA INC OHARE TERMINAL	1111 ELMHURST RD	ELK GROVE VILLAGE	COOK	IL	60007	BP PRODUCTS NA INC OHARE TERMINAL	1111 ELMHURST RD	ELK GROVE VILLAGE	IL		60007	YES	NO	NO	NO	KRISTEN HANCOCK	7087495019	5171							424710						42.008983	-87.938209	962394912								BP PRODUCTS N.A. INC	039596507	NO	KRISTEN.HANCOCK@BP.COM	
2012	TERMINAL MANAGER	VERNON ST. PETERS	62095BPMCW335SO	BP PRODUCTS NA INC WOOD RIVER TERMINAL	335 S OLD ST LOUIS RD	WOOD RIVER	MADISON	IL	62095	BP PRODUCTS NA INC WOOD RIVER TERMINAL	335 S OLD ST LOUIS RD	WOOD RIVER	IL		62095	YES	NO	NO	NO	VERN ST. PETERS	6182547630	5171							424710						38.857839	-90.100028	001344258								BP PRODUCTS N.A. INC	039596507	NO	VERNON.ST@BP.COM	
2012	DIRECTOR EHS	DAVID LUEPKE	6080WBRDFT325SU	BRAD FOOTE GEAR WORKS	3250 S CENTRAL AVE	CICERO	COOK	IL	60804	BRAD FOOTE GEAR WORKS	3250 S CENTRAL AVE	CICERO	IL		60804	YES	NO	NO	NO	JEREMY CANTRELL	7082981081								333612						41.832118	-87.763386									BROADWIND ENERGY INC	795420491	NO	JEREMY.CANTRELL@BWEN.COM	
2012	EHS ENGINEER	MIKE STRABLEY	6154WBRDLY7232W	BRADLEY SERVICES INC	7232 W WHEELER RD	MAPLETON	PEORIA	IL	61547	BRADLEY SERVICES INC	231 DETROIT AVE	MORTON	IL		61550	YES	NO	NO	NO	JAMES KNEPP	3092638914								332996						40.57267	-89.70706									NELSON GLOBAL PRODUCTS INC		NO	JKNEPP@BSI935.COM	
2012	EHS ENGINEER	MIKE STRABLEY	61550BRDLY935SD	BRADLEY SERVICES INC	935 S DETROIT AVE	MORTON	TAZEWELL	IL	61550	BRADLEY SERVICES INC	231 DETROIT AVE	MORTON	IL		61550	YES	NO	NO	NO	JAMES KNEPP	3092638914								332996						40.59879	-89.47344									NELSON GLOBAL PRODUCTS		NO	JKNEPP@BSI935.COM	
2012	PLANT MANAGER	ZACK HOPPING	6143WBRNCH52SEI	BRANCHFIELD CASTING	502 SE INDUSTRIAL AVE	GALVA	HENRY	IL	61434	BRANCHFIELD CASTING	502 SE INDUSTRIAL AVE	GALVA	IL		61434	YES	NO	NO	NO	TODD BLOODSWORTH	5633867827								331513	331528					41.161777	-90.022913											NO	TODDB@QCML.COM	
2012	TECHNICAL SERVICES, QUALITY MANAGER	KAONI RHODES	60638TBCHM4801S	BRENNTAG GREAT LAKES LLC	4801 S AUSTIN AVE	CHICAGO	COOK	IL	606381409	BRENNTAG GREAT LAKES LLC	4801 S AUSTIN AVE	CHICAGO	IL		60638-1409	YES	NO	NO	NO	MIKE SCHICK	2622526246	5169							424690						41.805556	-87.772778	042454228								BRENNTAG N.A. INC	092963644	NO	MSCHICK@BRENNTAG.COM	
2012	GENERAL MANAGER	MONTY GREUTMAN	61702BRDGSVETER	BRIDGESTONE AMERICAS OFF ROAD	1600 FORT JESSE RD	NORMAL	MCLEAN	IL	61761	BRIDGESTONE AMERICAS OFF ROAD	VETERANS PKWY & FORT JESSE PO BOX 640	BLOOMINGTON	IL		61702	YES	NO	NO	NO	BRAD TAYLOR	3094512317	3011							326211						40.519986	-88.955374	001288109								BRIDGESTONE AMERICAS HOLDING INC	001288109	NO	TAYLORBRAD@BFUSA.COM	
2012	VICE PRESIDENT - PLANT MANAGER	JAMES MYERS	60098BRWNP11595	BROWN PRINTING CO	11595 MCCONNELL RD	WOODSTOCK	MCHENRY	IL	60098	BROWN PRINTING CO	11595 MCCONNELL RD	WOODSTOCK	IL		60098	YES	NO	NO	NO	JAMES W. MYERS	8152066603	2752							323110						42.301942	-88.42239	093671063								GRUNER & JAHR USA GROUP INC	093671063	NO	JIM.MYERS@BPC.COM	
2012	CERTIFYING OFFICIAL	LUZ LOPEZ	60005BRKND511WA	BUHRKE INDUSTRIES INC	511 W ALGONQUIN RD	ARLINGTON HEIGHTS	COOK	IL	60005	BUHRKE INDUSTRIES INC	511 W ALGONQUIN RD	ARLINGTON HEIGHTS	IL		60005	YES	NO	NO	NO	KEITH KRUTZ	8479817550	3469							332116						42.046207	-87.990123	005146964										NO	KKRUTZ@IMSMFG.COM	
2012	MANUFACTURING DIRECTOR, US OPERATIONS	DAVID BREYETTE	60185BLKML1600P	BULK MOLDING COMPOUNDS INC	1600 POWIS CT	WEST CHICAGO	DUPAGE	IL	60185	BULK MOLDING COMPOUNDS INC	1600 POWIS CT	WEST CHICAGO	IL		60185	YES	NO	NO	NO	US COMPLIANCE	9522523000	3087							325991						41.913628	-88.236774	085228377								BULK MOLDING COMPOUNDS INC		NO	EPCRA@USCOMPLIANCE.COM	
2012	TECHNICAL MANAGER	LAWRENCE LANNAN	60628MSRYC1140E	BULLEN MIDWEST INC	1140 E 103RD ST	CHICAGO	COOK	IL	60628	BULLEN MIDWEST INC	900 E 103RD ST	CHICAGO	IL		60628	YES	NO	NO	NO	JIM FLANAGAN	7739282777	2841							325611						41.707783	-87.595627											NO	JBF@NUANCESOL.COM	
2012	ENVIRONMENTAL DIRECTOR	LOREN POLAK	62914BNGCR304TH	BUNGE NA INC	203 34TH ST	CAIRO	ALEXANDER	IL	629140113	BUNGE NA INC	203 34TH ST	CAIRO	IL		62914-0113	YES	NO	NO	NO	LOREN L POLAK	3142922374	2075							311222						37.016051	-89.177772	024982951		ILDO24892951						BUNGE LTD	006981435	NO	LOREN.POLAK@BUNGE.COM	
2012	PLANT MANAGER	DAVID DEVORE	60915BNGFD885NK	BUNGE OILS INC	885 N KINZIE	BRADLEY	KANKAKEE	IL	60915	BUNGE OILS INC	885 N KINZIE	BRADLEY	IL		60915	YES	NO	NO	NO	DAVID DEVORE	8159393631	2079							311225						41.153932	-87.854442	103333522								BUNGE LTD	006981435	NO	DAVID.DEVORE@BUNGE.COM	
2012	ENVIRONMENTAL MANAGER	TOM WENZEL	60134BRGSSSOUTH	BURGESS-NORTON MANUFACTURING CO PLANT 2	500 WESTERN AVE	GENEVA	KANE	IL	60134	BURGESS-NORTON MANUFACTURING CO PLANT 2	500 WESTERN AVE	GENEVA	IL		60134	YES	NO	NO	NO	RITA SEILER	6302323771	3714							332117						41.882238	-88.322675	144915790								AMSTED INDUSTRIES INC	005146667	NO	RCSEILLER@BURGESSNORTON.COM	
2012	PLANT MANAGER	DAVE LEBER	60623CNTRL3200S	BWAY CORP	3200 S KILBOURN AVE	CHICAGO	COOK	IL	60623	BWAY CORP	3200 S KILBOURN AVE	CHICAGO	IL		60623	YES	NO	NO	NO	DAVE LEBER	7738903323	3411	3412	3479					332439						41.834732	-87.738155	809993520								BWAY HOLDING CO	809993520	NO	DAVE.LEBER@BWAYCORP.COM	
2012	ENVIRONMENTAL MANAGER	TAMMY BENNETT	61953CBTCRROUTE	CABOT CORP FMO DIV	700 E US HWY 36 W	TUSCOLA	DOUGLAS	IL	61953	CABOT CORP FMO DIV	700 E US HWY 36 W	TUSCOLA	IL		61953	YES	NO	NO	NO	TAMMY BENNETT	2172535591	2819							325188						39.796398	-88.338303	042075333		ILD042075333		IL0004375		UIC011CC		CABOT CORP	001013580	NO	TAMMY.BENNETT@CABOTCORP.COM	
2012	VICE PRESIDENT OF PLANT ENGINEERING	MARIANO RAMIREZ	60164CLLNM13ELA	CALLEN MANUFACTURING CORP	13 E LAKE ST	NORTHLAKE	COOK	IL	60164	CALLEN MANUFACTURING CORP	13 E LAKE ST	NORTHLAKE	IL		60164	YES	NO	NO	NO	MARIANO RAMIREZ	7083450400	3363	3364						331521						41.90063	-87.900963	005468947										NO	MRAMIREZ@CALLENGROUP.COM	
2012	PRESIDENT	CATHY DOLAN	60419CLMTB14610	CALUMET BRASS FOUNDRY INC	14610 S LAKESIDE AVE	DOLTON	COOK	IL	60419	CALUMET BRASS FOUNDRY INC	14610 S LAKESIDE AVE	DOLTON	IL		60419	YES	NO	NO	NO	CATHY DOLAN	7088493040	3365							331524						41.629135	-87.611246	005245725										NO	CBFOUNDRY@AOL.COM	
2012	DIR OF HR	JERRY BENISH	60103CMCRF1080M	CAMCRAFT INC	1080 MUIRFIELD DR	HANOVER PARK	DUPAGE	IL	60133	CAMCRAFT INC	1080 MUIRFIELD DR	HANOVER PARK	IL		60133	YES	NO	NO	NO	JERRY J. BENISH	6305826000	3451							332721						41.981268	-88.128672	005200068										NO	JBENISH@CAMCRAFT.COM	
2012	DIRECTOR OF OPERATION	DAN LUCAS	61012CPRNM200BU	CAPRON MANUFACTURING CO	200 N BURR OAK RD	CAPRON	BOONE	IL	61012	CAPRON MANUFACTURING CO	200 N BURR OAK RD	CAPRON	IL		61012	YES	NO	NO	NO	KEN WITT	8155692301	3471	3496						332813						42.401959	-88.736505	085227866										NO	KEN.WITT@CAPRONMFG.COM	
2012	PRESIDENT	DAVID WESTERMAN	60622CRBTP927WB	CARBIT PAINT CO	927 W BLACKHAWK ST	CHICAGO	COOK	IL	606222519	CARBIT PAINT CO	927 W BLACKHAWK ST	CHICAGO	IL		60622-2519	YES	NO	NO	NO	DAVID T WESTERMAN	3122802300	2851							325510						41.907493	-87.651854	005531199										NO		
2012	PLANT SUPERINTENDENT	MATT ABUAYED	61701CRGLL115SE	CARGILL INC	115 S EUCLID ST	BLOOMINGTON	MCLEAN	IL	617011286	CARGILL INC	PO BOX 1286	BLOOMINGTON	IL		617021286	YES	NO	NO	NO	MATTHEW ABUAYED	3098277131	2075							311222						40.477166	-89.017877	155138597		ILD155138597		IL0002577				CARGILL INC	006249189	NO	MATTHEW_ABUAYED@CARGILL.COM	
2012	US DIRECTOR OF OPERATIONS	CHARLES ENGREM	62839CRGLL6INDU	CARGILL INC	6 INDUSTRIAL PARK	FLORA	CLAY	IL	628390559	CARGILL INC	6 INDUSTRIAL PARK	FLORA	IL		62839-0559	YES	NO	NO	NO	GREG WEISJAHN	9529841883	2048							311119						38.671948	-88.469248	006249189								CARGILL INC	006249189	NO	GREG_WEISJAHN@CARGILL.COM	
2012	EHS MANAGER	CHRISTOPHER FOSTER	60617CRGLL12201	CARGILL INC INDUSTRIAL OILS & LUBRICANTS	12201 S TORRENCE AVE	CHICAGO	COOK	IL	60617	CARGILL INC INDUSTRIAL OILS & LUBRICANTS	12201 S TORRENCE AVE	CHICAGO	IL		60617	YES	NO	NO	NO	CHRISTOPHER J. FOSTER	7733757255	2851							325510						41.673085	-87.554745	006249184								CARGILL INC	006249189	NO	CHRIS_FOSTER@CARGILL.COM	
2012	GENERAL MANAGER, VICE PRESIDENT	STEVE PIRKLE	62618XCLCRRR1BO	CARGILL MEAT SOLUTIONS CORP	8295 ARENZVILLE RD	BEARDSTOWN	CASS	IL	626187895	CARGILL MEAT SOLUTIONS CORP	8295 ARENZVILLE RD	BEARDSTOWN	IL		62618-7895	YES	NO	NO	NO	COURTNEY BARNES	2173236303	2011							311612	311611	311613				39.993819	-90.404825	024943607								CARGILL INC	006249189	NO	COURTNEY_BARNES@CARGILL.COM	
2012	MGR. ENV., HEALTH AND SAFETY	CHRISTOPHER SAGER	62246CRLSLHWY40	CARLISLE SYNTEC INC PLANT 7	1825 E US RT 40	GREENVILLE	BOND	IL	62246	CARLISLE SYNTEC INC PLANT 7	1825 E US RT 40	GREENVILLE	IL		62246	YES	NO	NO	NO	CHRISTOPHER SAGER	7172457000	3069							326299						38.881977	-89.385079	021513478								CARLISLE COS INC	003005766	NO	SAGER@SYNTEC.CARLISLE.COM	
2012	CHIEF OPERATIONS OFFICER	DEBRA MAGEE	61072TYLRC750NB	CARRIER COMMERCIAL REFRIGERATION TAYLOR CO	750 N BLACKHAWK BLVD	ROCKTON	WINNEBAGO	IL	610720410	CARRIER COMMERCIAL REFRIGERATION TAYLOR CO	750 N BLACKHAWK BLVD	ROCKTON	IL		61072-0410	YES	NO	NO	NO	DEBRA MAGEE	8156248333	3556							333294						42.46099	-89.067552	042855510								UNITED TECHNOLOGIES CORP	001344142	NO	DEBRA.MAGEE@CARRIER.UTC.COM	
2012	CEO	ROB WASIELEWSKI	61911CLSSC520E2	CARSTIN BRANDS LLC	520 E 2ND ST	ARTHUR	DOUGLAS	IL	61911	CARSTIN BRANDS LLC	PO BOX 285	ARTHUR	IL		61911	YES	NO	NO	NO	JOHN BIRES COO	2175433331	3088							326199						39.720333	-88.467256	617837059										NO	JOHN.BIRES@CARSTINBRANDS.COM	
2012	PRODUCTION MANAGER	CURTIS CLIFF	60060CRTRH1551M	CARTER-HOFFMANN LLC	1551 MCCORMICK AVE	MUNDELEIN	LAKE	IL	60060	CARTER-HOFFMANN LLC	1551 MCCORMICK AVE	MUNDELEIN	IL		60060	YES	NO	NO	NO	BOB FORTMANN	8475733642	3589							333294						42.239154	-87.981443	041058723								THE MIDDELBY CORP	107636953	NO	BFORTMANN@CARTER-HOFFMANN.COM	
2012	DIRECTOR OF CORPORATE REGULATORY COMPLIANCE	CHITHAMBARATHANU PILLAI	61301CRSCH1500E	CARUS CORP LASALLE SITE	1500 EIGHTH ST	LA SALLE	LA SALLE	IL	61301	CARUS CORP LASALLE SITE	1500 EIGHTH ST	LA SALLE	IL		61301	YES	NO	NO	NO	CHITHAMBARATHANU PILLAI	8152246582	2819							325188						41.337245	-89.086983									CARUS CORP	005477666	NO	CHITHAMBARATHANU.PILLAI@CARUSCORPORATION.COM	
2012	EH&S MANAGER	PHILLIP ZERWER	61602CSTTC1100S	CAST TECHNOLOGIES INC	1100 SW WASHINGTON ST	PEORIA	PEORIA	IL	61602	CAST TECHNOLOGIES INC	1100 SW WASHINGTON ST	PEORIA	IL		61602	YES	NO	NO	NO	PHIL ZERWER	3096762157	3365	3366						331524	331525					40.682258	-89.601198											NO	PHIL@CASTTECHNOLOGIES.NET	
2012	SENIOR FACILITIES ENGINEER	DAVID SCHELER	60077CSTWL7800N	CASTWELL PRODUCTS	7800 N AUSTIN AVE	SKOKIE	COOK	IL	60077	CASTWELL PRODUCTS	7800 N AUSTIN AVE	SKOKIE	IL		60077	YES	NO	NO	NO	DAVE SCHELER	8479725059	3321							331511						42.023872	-87.777842	926370446										NO	DAVES@CASTWELL.COM	
2012	ENVIRONMENTAL SUPERVISOR	ANN HASTERT	60507CTRPLRT31B	CATERPILLAR INC	BOX 348 RT 31S	AURORA	KENDALL	IL	60507	CATERPILLAR INC	BOX 348 RT 31S	AURORA	IL		60507	YES	NO	NO	NO	GARY CONNER	3096361642	3531							333120						41.713056	-88.364444	005070651								CATERPILLAR INC	005070479	NO	CONNER_GARY_D@CAT.COM	
2012	EHS MANAGER	RAINY SHOREY	61552CTRPLOLDGA	CATERPILLAR INC / MOSSVILLE COMPLEX	OLD GALENA RD & CEDAR HILL	MOSSVILLE	PEORIA	IL	61552	CATERPILLAR INC / MOSSVILLE COMPLEX	MOS 400/BUILDING BB PO BOX 600	MOSSVILLE	IL		615520600	YES	NO	NO	NO	JIM DUGAN	3094944100	3519	3069	3451					333618	326299	541420				40.839837	-89.561595	005070479								CATERPILLAR INC	005070479	NO	DUGAN_JIM@CAT.COM	
2012	GENERAL MANAGER	WALTER HUPE	62525CTRPL27THP	CATERPILLAR INC DECATUR FAC	27TH ST & E PERSHING RD	DECATUR	MACON	IL	625261819	CATERPILLAR INC DECATUR FAC	27TH ST & E PERSHING RD	DECATUR	IL		62526-1819	YES	NO	NO	NO	JIM DUGAN	3094944100	3531							333120						39.878041	-88.917223	005070479								CATERPILLAR INC	005070479	NO	DUGAN_JIM@CAT.COM	
2012	FACILITY MANAGER	GARY BEVILACQUA	61547CTRPL8826W	CATERPILLAR INC MAPLETON PLANT	8826 W RT 24	MAPLETON	PEORIA	IL	61547	CATERPILLAR INC MAPLETON PLANT	8826 W RT 24	MAPLETON	IL		61547	YES	NO	NO	NO	JIM DUGAN	3094944100	3321							331511						40.559479	-89.747807									CATERPILLAR INC	005070479	NO	DUGAN_JIM@CAT.COM	
2012	FACILITY MANAGER	CAROLD JOHNSON	61764CTRPL4HPAR	CATERPILLAR INC PONTIAC PLANT	1300 4-H PARK RD	PONTIAC	LIVINGSTON	IL	61764	CATERPILLAR INC PONTIAC PLANT	1300 4-H PARK RD	PONTIAC	IL		61764	YES	NO	NO	NO	JIM DUGAN	3094944100	3519							333618						40.884438	-88.652758									CATERPILLAR INC		NO	DUGAN_JIM@CAT.COM	
2012	EHS PROFESSIONAL	ALAN HERBERGER	61602CHMCL2400S	CATERPILLAR INC RUBBER PROCESS FACILITY	2400 SW WASHINGTON ST	PEORIA	PEORIA	IL	61602	CATERPILLAR INC RUBBER PROCESS FACILITY	100 NE ADAMS ST	PEORIA	IL		61629	YES	NO	NO	NO	JIM DUGAN	3094944100	3069							326299						40.673313	-89.615195	005070479								CATERPILLAR INC	005070479	NO	DUGAN_JIM@CAT.COM	
2012	FACILITY MANAGER	DAVID VIEBROCK	60434CTRPLROUTE	CATERPILLAR INC- IMPLEMENT & STEERING SYSTEM (JOLIET IL)	2200 CHANNAHON RD	JOLIET	WILL	IL	60436	CATERPILLAR INC- IMPLEMENT & STEERING SYSTEM (JOLIET IL)	PO BOX 504 MSC-B1N	JOLIET	IL		604340504	YES	NO	NO	NO	JIM DUGAN	3094944100	3531							333120						41.490331	-88.13316	078409863								CATERPILLAR INC	005070479	NO	DUGAN_JIM@CAT.COM	
2012		GERALD R. TRACHSLER	60123CBDNC1185J	CBD INC	1185 JANSEN FARM CT	ELGIN	KANE	IL	60123	CBD INC	1185 JANSEN FARM CT	ELGIN	IL		60123	YES	NO	NO	NO	GERALD R TRACHSLER	8477412233	3679							334418						42.060524	-88.329966	082048679										NO	JERRYT@CBDINC.NET	
2012	CORPORATE ENVIRONMENTAL ENGINEER	PAUL NELSON	60439NTCTM15550	CCI MANUFACTURING IL CORP	15550 CANAL BANK RD	LEMONT	COOK	IL	60439	CCI MANUFACTURING IL CORP	PO BOX 339	LEMONT	IL		60439	YES	NO	NO	NO	MILENA STRAMA	6306857534	2899							325199						41.682231	-87.993259	103312278								CCI CORP		NO		
2012	HR / SAFETY SPECIALIST	JOHN SILVA	60202CNHFF221LE	CE NIEHOFF & CO	2021 LEE ST	EVANSTON	COOK	IL	60202	CE NIEHOFF & CO	2021 LEE ST	EVANSTON	IL		60202	YES	NO	NO	NO	JOHN SILVA	8478665972								336322						42.03624	-87.701659	115377319										NO	JOHNS@CENIEHOFF.COM	
2012	TECHNICAL DIRECTOR	ERIC RADZIK	60609LCLCN4342S	CEDAR CONCEPTS CORP	4342 S WOLCOTT AVE	CHICAGO	COOK	IL	606093135	CEDAR CONCEPTS CORP	4342 S WOLCOTT AVE	CHICAGO	IL		60609-3135	YES	NO	NO	NO	ERIC RADZIK	7738905790	2841							325613						41.814093	-87.672752	622000230										NO	ERIC@CEDARCONCEPTS.NET	
2012	RESIDENT MANAGER	DEBRA HARTMAN	62665NTNLSRR1	CELANESE LTD - MEREDOSIA FACILITY	1989 OLD NAPLES RD	MEREDOSIA	MORGAN	IL	62665	CELANESE LTD - MEREDOSIA FACILITY	1989 OLD NAPLES RD	MEREDOSIA	IL		62665	YES	NO	NO	NO	MARK SPENCER	2175842315	2821	2891						325211						39.814247	-90.568226	828305867								CELANESE INTERNATIONAL CORP	180001229	NO	MARK.SPENCER@CELANESE.COM	
2012	ESH&Q MANAGER	MARK  RITTER	62201CNTRT231MN	CENTER ETHANOL CO LLC	231 MONSANTO AVE	SAUGET	ST CLAIR	IL	62201	CENTER ETHANOL CO LLC	231 MONSANTO AVE	SAUGET	IL		62201	YES	NO	NO	NO	MARK RITTER	6188747148								325193						38.596226	-90.17614											NO	MRITTER@CENTERETHANOL.COM	
2012	OPERATIONS MANAGER	WALTER COPELAND	62040WNSCR285RC	CENTER POINT TERMINAL CO	2850 ROCK RD	GRANITE CITY	MADISON	IL	62040	CENTER POINT TERMINAL CO	2850 ROCK RD	GRANITE CITY	IL		62040	YES	NO	NO	NO	WALLY COPELAND	6184524195								324121						38.717493	-90.166412									PETROLEUM FUEL & TERMINAL CO	052619160	NO		
2012	SAFETY DIRECTOR	HELEN THOMAS	62223CNTRY1300N	CENTURY CASTINGS CORP	1300 N ILLINOIS ST	SWANSEA	ST CLAIR	IL	62226	CENTURY CASTINGS CORP	PO BOX 348	BELLEVILLE	IL		62222	YES	NO	NO	NO	MICHAEL KRAUSZ	6182330182	3369	3365	3366					331528						38.525948	-89.984083									CENTURY BRASS WORKS INC.		NO	MIKEK@CENTURY-BRASS.COM	
2012	QUALITY MANAGER	CHRIS VALLANGEON	60618CNTRY2939N	CENTURY PLATING CO INC	2939 N OAKLEY	CHICAGO	COOK	IL	60618	CENTURY PLATING CO INC	2939 N OAKLEY	CHICAGO	IL		60618	YES	NO	NO	NO	VICTOR LAPORTA	7734771620	3471							332813						41.934432	-87.685556	005131891										NO	VIC@CENTURYPLATINGCO.COM	
2012	VICE PRESIDENT MANUFACTURING	STEVEN BLAIR	62202CRRCPHWY3A	CERRO FLOW PRODUCTS LLC	3000 MISSISSIPPI AVE	SAUGET	ST CLAIR	IL	62206	CERRO FLOW PRODUCTS LLC	PO BOX 66800	SAINT LOUIS	MO		63166	YES	NO	NO	NO	STEVEN L. BLAIR	6183376000	3351	3366						331421						38.592011	-90.172511	094295045								BERKSHIRE HATHAWAY	001024314	NO	SBLAIR@CERROFLOW.COM	
2012	FACILITY ENGIEERING MANAGER	PAUL GNIADEK	60411CTDFL500ST	CFC INTERNATIONAL	500 STATE ST	CHICAGO HEIGHTS	COOK	IL	60411	CFC INTERNATIONAL	500 STATE ST	CHICAGO HEIGHTS	IL		60411	YES	NO	NO	NO	PAUL GNIADEK	7087572883	2752	2754	2759	2851	2893	3471		325510	323111	332813				41.521735	-87.617244	148352198								ILLINOIS TOOL WORKS INC	005146428	NO	PGNIADEK@CFCINTL.COM	
2012	ILLINOIS SITE DIRECTOR	DAVID CULLISON	6280WCHMPN2SUTH	CHAMPION LABORATORIES INC	301 INDUSTRIAL DR	ALBION	EDWARDS	IL	62806	CHAMPION LABORATORIES INC	301 INDUSTRIAL DR	ALBION	IL		62806	YES	NO	NO	NO	DAVID CULLISON	6184455210								336399						41.92215	-88.73299	641071170										NO	DAVID.CULLISON@FRAMGRP.COM	
2012	ILLINOIS SITE DIRECTOR	DAVID CULLISON	6280WCHMPN31IND	CHAMPION LABORATORIES INC	200 S 4TH ST	ALBION	EDWARDS	IL	62806	CHAMPION LABORATORIES INC	200 S 4TH ST	ALBION	IL		62806	YES	NO	NO	NO	DAVID CULLISON	6184455210								336399						38.372248	-88.054235	211097918										NO	DAVID.CULLISON@FRAMGRP.COM	
2012	PRESIDENT	THOMAS PECORA	60517CHMPN1840I	CHAMPION PACKAGING & DISTRIBUTING INC	1840 INTERNATIONALE PKWY	WOODRIDGE	DUPAGE	IL	60517	CHAMPION PACKAGING & DISTRIBUTING INC	1840 INTERNATIONALE PKWY	WOODRIDGE	IL		60517	YES	NO	NO	NO	TOM PECORA	6309720100	2842							325612						41.695441	-88.027261	044235513										NO	TOM@CHAMPAKINC.COM	
2012	VICE PRESIDENT ENGINEERING	MICHEAL HACKWORTHY	60098DRBRP1800W	CHARTER DURA BAR	1800 W LAKE SHORE DR	WOODSTOCK	MCHENRY	IL	60098	CHARTER DURA BAR	2100 W LAKE SHORE DR	WOODSTOCK	IL		60098	YES	NO	NO	NO	JOHN GLENN	8153383900	3321							331511						42.291677	-88.410251	005103759								CHARTER MANUFACTURING CO INC	005103759	NO	JGLENN@WELLSMANUFACTURING.COM	
2012	PRESIDENT & CEO	JUDITH A. ALBAZI	60153CHSPR19THS	CHASE PRODUCTS CO	2727 GARDNER RD	BROADVIEW	COOK	IL	60155	CHASE PRODUCTS CO	PO BOX 70	MAYWOOD	IL		60153	YES	NO	NO	NO	LAURA E. RADEVSKI	7088651000	3999							325998	325510					41.851944	-87.868333	005079975		ILD005079975		ILR001203						NO	LAURA.RADEVSKI@CHASEPRODUCTS.COM	
2012	PRESIDENT	JEFF CRAIG	61832CHMCSRR5LY	CHEM CAST LTD	1009 LYNCH RD	DANVILLE	VERMILION	IL	61832	CHEM CAST LTD	1009 LYNCH RD	DANVILLE	IL		61832	YES	NO	NO	NO	JEFF CRAIG	2174974762	3543							332997						40.142437	-87.554118	114478969										NO	JCRAIG@CHEM-CASTLTD.COM	
2012	ENVIRONMENTAL HEALTH AND SAFETY DIRECTOR	ANDREW JARRETT	61109CHMPR3910L	CHEM PROCESSING INC	3910 LINDEN OAKS DR	ROCKFORD	WINNEBAGO	IL	61109	CHEM PROCESSING INC	3910 LINDEN OAKS DR	ROCKFORD	IL		61109	YES	NO	NO	NO	CURTIS CEADARLEAF	8158748118	3471							332813						42.219121	-89.025004	055413801										NO	CCEDARLEAF@CHEMPROCESSING.COM	
2012	IT AND RISK MANAGER	AARON KOLESAR	60007PNDST1250M	CHEM-PLATE INDUSTRIES	1250 MORSE AVE	ELK GROVE VILLAGE	COOK	IL	60007	CHEM-PLATE INDUSTRIES	1800 TOUHY AVE	ELK GROVE VILLAGE	IL		60007	YES	NO	NO	NO	MR. MARTIN STRAUS	8476401600	3471	3479						332813						42.000543	-87.968221	094739208								CHEM-PLATE INDUSTRIES INC		NO	MSTRAUS@CHEMPLATEINDUSTRIES.COM	
2012	IT AND RISK MANAGER	AARON KOLESAR	60007CHMPL1990E	CHEM-PLATE INDUSTRIES INC	1990 E DEVON AVE	ELK GROVE VILLAGE	COOK	IL	60007	CHEM-PLATE INDUSTRIES INC	1800 TOUHY AVE	ELK GROVE VILLAGE	IL		60007	YES	NO	NO	NO	AARON KOLESAR	8476401600	3471							332811						41.994289	-87.953267	094739208								CHEM-PLATE INDUSTRIES INC		NO	AKOLESAR@CHEMPLATEINDUSTRIES.COM	
2012	IT AND RISK MANAGER	AARON KOLESAR	6000WCHMPL18TUH	CHEM-PLATE INDUSTRIES INC	1800 TOUHY AVE	ELK GROVE VILLAGE	COOK	IL	60007	CHEM-PLATE INDUSTRIES INC	1800 TOUHY AVE	ELK GROVE VILLAGE	IL		60007	YES	NO	NO	NO	AARON KOLESAR	8476401600								332811						42.008329	-87.957168	094739208								CHEM-PLATE INDUSTRIES INC		NO	AKOLESAR@CHEMPLATEINDUSTRIES.COM	
2012	PLANT MANAGER	ROBIN THOMAS	61555TRCCH839BR	CHEMTURA CORP	2320 LAKECREST DR	PEKIN	TAZEWELL	IL	61554	CHEMTURA CORP	2320 LAKECREST DR	PEKIN	IL		61554	YES	NO	NO	NO	ROBIN THOMAS	3093472184	2879							325320						40.598938	-89.634802									CHEMTURA CORP	088400325	NO	ROBIN.THOMAS@CHEMTURA.COM	
2012	TECHNICAL MANAGER	DON STAHLBERG	61547SHRXCROUTE	CHEMTURA CORP MAPLETON PLANT	8220 W RT 24	MAPLETON	PEORIA	IL	61547	CHEMTURA CORP MAPLETON PLANT	8220 W RT 24	MAPLETON	IL		61547	YES	NO	NO	NO	DONALD STAHLBERG	3096339480	2899							325199						40.565833	-89.721389									CHEMTURA CORP	088400325	NO	DONALD.STAHLBERG@CHEMTURA.COM	
2012	CEO	JAMES OVERHOLT	61911CHVRH1485S	CHI OVERHEAD DOORS	1485 SUNRISE DR	ARTHUR	DOUGLAS	IL	61911	CHI OVERHEAD DOORS	PO BOX 260	ARTHUR	IL		61911	YES	NO	NO	NO	CRAIG SWINFORD	2175432135	3442							332321						39.708978	-88.456715	804417152								CHIDOORS HOLDINGS INC	087154613	NO	SWINFORD@CHIOHD.COM	
2012	GENERAL MANAGER	JOHN SERRITELLA	60624CHCGN4112W	CHICAGO ANODIZING CO	4112 W LAKE ST	CHICAGO	COOK	IL	60624	CHICAGO ANODIZING CO	4112 W LAKE ST	CHICAGO	IL		60624	YES	NO	NO	NO	JOHN SERRITELLA	7735333737	3471							332813						41.885966	-87.728675	005155577										NO	JOHNS@CHICAGOANODIZING.COM	
2012	PRESIDENT	MAHENDRA PATEL	60007CHCGC2685U	CHICAGO CIRCUITS CORP	2685 UNITED LN	ELK GROVE VILLAGE	COOK	IL	60007	CHICAGO CIRCUITS CORP	2685 UNITED LN	ELK GROVE VILLAGE	IL		60007	YES	NO	NO	NO	MAHENDRA PATEL	8472381672	3672							334412						41.988329	-87.945367											NO	ACCOUNTS@CHICAGOCIRCUITS.COM	
2012	DIRECTOR OF OPERATIONS	JACK WARD	60650CHCGX1601S	CHICAGO EXTRUDED METALS CO	1601 S 54TH AVE	CICERO	COOK	IL	60804	CHICAGO EXTRUDED METALS CO	1601 S 54TH AVE	CICERO	IL		60804	YES	NO	NO	NO	JACK WARD	7087803489	3351							331421						41.857592	-87.757956	141831417								BERKSHIRE INVESTMENTS LLC	141831417	NO	JWARD@CXM.COM	
2012	CFO	RICHARD GOLLNER	60411CHCGH211EM	CHICAGO HEIGHTS STEEL	211 E MAIN ST	CHICAGO HEIGHTS	COOK	IL	60411	CHICAGO HEIGHTS STEEL	211 E MAIN ST	CHICAGO HEIGHTS	IL		60411	YES	NO	NO	NO	MIKE WRONA	7087565632	3312							331221						41.498429	-87.628773	148357759								CHICAGO HEIGHTS STEEL	148357759	NO	MAW@CHS.COM	
2012	HR & INDUSTRIAL RELATIONS	LINDA CAMPBELL	60176CHCGP9700W	CHICAGO POWDERED METAL PRODUCT S CO	9700 WAVELAND AVE	SCHILLER PARK	COOK	IL	601762128	CHICAGO POWDERED METAL PRODUCT S CO	9700 WAVELAND AVE P. O. BOX 2128	SCHILLER PARK	IL		601762128	YES	NO	NO	NO	LINDA CAMPBELL	8476782836	3499							332117						41.946137	-87.869516	005457247										NO	LINDACAMPBELL@CHIPM.COM	
2012	VP OF OPERATIONS	TONY PILEGGI	60623CHCGS1846S	CHICAGO STEEL CONTAINER CORP	1846 S KILBOURN AVE	CHICAGO	COOK	IL	60623	CHICAGO STEEL CONTAINER CORP	1846 S KILBOURN AVE	CHICAGO	IL		60623	YES	NO	NO	NO	TONY PILEGGI	7732772244	3412							332439						41.856409	-87.737736	089821037										NO	TONY@CHICAGOSTEELCONTAINER.COM	
2012	PRESIDENT	RAYMOND CARLSON	60624CHCGT4459W	CHICAGO TURNRITE CO INC	4459 W LAKE ST	CHICAGO	COOK	IL	606241687	CHICAGO TURNRITE CO INC	4459 W LAKE ST	CHICAGO	IL		60624-1687	YES	NO	NO	NO	RAYMOND F CARLSON JR	7736268404	3452							332722						41.885833	-87.740833	005126966										NO	RAY_CARLSON@TURNRITE.COM	
2012	ENVIRONMENTAL MANAGEMENT REPRESENTATIVE	LUIS GONZALEZ	60106CHCGWRTE83	CHICAGO WHITE METAL CASTING	RT 83 & FAIRWAY DR	BENSENVILLE	DUPAGE	IL	601061382	CHICAGO WHITE METAL CASTING	RT 83 & FAIRWAY DR	BENSENVILLE	IL		60106-1382	YES	NO	NO	NO	LUIS GONZALEZ	6305954424	3363							331521	331522					41.974429	-87.955667	005144266										NO	LGONZALEZ@CWMTL.COM	
2012	VICE PRESIDENT	SHEVAUN FENNELL	61523CHLLC4507E	CHILLICOTHE METAL CO INC	4507 E ROME RD	CHILLICOTHE	PEORIA	IL	61523	CHILLICOTHE METAL CO INC	4507 E ROME RD	CHILLICOTHE	IL		61523	YES	NO	NO	NO	SHEVAUN FENNELL	3092745421	3643							332322						40.879363	-89.520181	005099916										NO	SHEVAUNF@CMCOUSA.COM	
2012	VICE PRESIDENT MANUFACTURING OPERATIONS	GARY BRYAN	60050CHRMC3900D	CHROMA CORP	3900 DAYTON ST	MC HENRY	MCHENRY	IL	60050	CHROMA CORP	3900 DAYTON ST	MC HENRY	IL		60050	YES	NO	NO	NO	GARY BRYAN	8153858100	3087							325991						42.337222	-88.281809	045048576										NO	GBRYAN@CHROMACOLORS.COM	
2012	PRESIDENT	MICHAEL TANNURA	60651CHRMM4645W	CHROMIUM INDUSTRIES LLC	4645 W CHICAGO AVE	CHICAGO	COOK	IL	606513385	CHROMIUM INDUSTRIES LLC	4645 W CHICAGO AVE	CHICAGO	IL		60651-3385	YES	NO	NO	NO	KEITH SUMMERS	7732873716	3471							332813						41.894743	-87.742859	045683471										NO	WKSSUM@GMAIL.COM	
2012	PLANT MANAGER	ERIC SCHIMMEL	61008BLVDR3000W	CHRYSLER BELVIDERE ASSEMBLY PLANT	3000 W CHRYSLER DR	BELVIDERE	BOONE	IL	61008	CHRYSLER BELVIDERE ASSEMBLY PLANT	3000 W CHRYSLER DR	BELVIDERE	IL		61008	YES	NO	NO	NO	MAROUANE ACHGUIGA	8155472106	3711							336111						42.236421	-88.8654	001874320								CHRYSLER GROUP LLC	830966904	NO		
2012	DISTRICT MANAGER	KURT NEBEL	60409CDRCY138TH	CID RECYCLING & DISPOSAL FACILITY	138TH ST & INTERSTATE 94	CALUMET CITY	COOK	IL	60409	CID RECYCLING & DISPOSAL FACILITY	PO BOX 1309	CALUMET CITY	IL		604091309	YES	NO	NO	NO	KURT NEBEL	7736463099	4953							562219	562211					41.6425	-87.5702	047577416								WASTE MANAGEMENT INC	047577416	NO	KNEBEL@WM.COM	
2012	DIRECTOR OF OPERATIONS	ALLEN DONAHUE	61080LTTNN481GA	CINETIC LANDIS CORP	481 GARDNER ST	SOUTH BELOIT	WINNEBAGO	IL	61080	CINETIC LANDIS CORP	481 GARDNER ST	SOUTH BELOIT	IL		61080	YES	NO	NO	NO	AL DONAHUE	8153895218	3291							327910						42.493655	-89.03211	614871080								FIVES STEIN	275129450	NO	AL.DONAHUE@FIVESGROUP.COM	
2012	PRESIDENT	LISA ESCZUK	60106CRCMN55WMA	CIRCOM INC	505 W MAIN ST	BENSENVILLE	DUPAGE	IL	60106	CIRCOM INC	505 W MAIN ST	BENSENVILLE	IL		60106	YES	NO	NO	NO	LISA ESCZUK	6305954460	3679							334418						41.95803	-87.94639	049298904										NO	LESCZUK@CIRCOMINC.COM	
2012	PLANT MANAGER	VIPIN PATEL	60143CRCTW751HI	CIRCUIT WORLD INC	751 HILLTOP DR	ITASCA	DUPAGE	IL	60143	CIRCUIT WORLD INC	751 HILLTOP DR	ITASCA	IL		60143	YES	NO	NO	NO	VIPIN PATEL	6302501100	3672							334412						41.978614	-88.039552	102185675										NO		
2012	PLANT MANAGER	CHARLES STARK	60650CTGPT3737S	CITGO PETROLEUM CORP CICERO LUBRICANTS MANUFACTURING PLANT	3737 S CICERO AVE	CICERO	COOK	IL	608044577	CITGO PETROLEUM CORP CICERO LUBRICANTS MANUFACTURING PLANT	3737 S CICERO AVE	CICERO	IL		608044577	YES	NO	NO	NO	CHARLES G. STARK	7087805936	2992							324191						41.823712	-87.742455	122733868								CITGO PETROLEUM CORP	102417268	NO	CSTARK@CITGO.COM	
2012	ENVIRONMENTAL MANAGER	YVONNE JEANNERET	60439NCLCR135TH	CITGO PETROLEUM CORP LEMONT REFINERY	135TH ST & NEW AVE	LEMONT	WILL	IL	604393659	CITGO PETROLEUM CORP LEMONT REFINERY	135TH ST & NEW AVE	LEMONT	IL		60439-3659	YES	NO	NO	NO	YVONNE JEANNERET	6302574085	2911							324110						41.644441	-88.05586	136968968								CITGO PETROLEUM CORP	102417268	NO	YJEANNE@CITGO.COM	
2012	ENGINEER	SCHY WILLMORE	62707CTYWT3100S	CITY WATER LIGHT & POWER CITY OF SPRINGFIELD	3100 STEVENSON DR	SPRINGFIELD	SANGAMON	IL	62707	CITY WATER LIGHT & POWER CITY OF SPRINGFIELD	201 E LAKE SHORE DR	SPRINGFIELD	IL		62707	YES	NO	NO	NO	PATRICK J BECKER	2177578610	4911							221112						39.758237	-89.607638	781719075										NO	PJ.BECKER@CWLP.COM	
2012	ENVIRONMENTAL MANAGER	GARY MYERS	60101CLRMN500VI	CLAIRE SPRAYWAY INC	500 VISTA AVE	ADDISON	DUPAGE	IL	60101	CLAIRE SPRAYWAY INC	500 VISTA AVE	ADDISON	IL		60101	YES	NO	NO	NO	GARY MYERS	6366293400	7389							325998						41.917742	-88.002059	005155973								PLAZE INC	006324669	NO	GMYERS@PLAZE.COM	
2012	ENVIRONMENTAL MANAGER	DENISE RICHARDSON	60185RCNCL675WE	CLARIANT	675 WEGNER DR	WEST CHICAGO	DUPAGE	IL	60185	CLARIANT	675 WEGNER DR	WEST CHICAGO	IL		60185	YES	NO	NO	NO	STEVE SNOW	5088296321	3087	3089						325991						41.874768	-88.227338	108706425								CLARIANT CORP	108706425	NO	STEVE.SNOW@CLARIANT.COM	
2012	FACILITIES MANAGER	ALAN HARNACKE	60071GRDNC5710K	CLAUD S GORDON CO	5710 KENOSHA ST	RICHMOND	MCHENRY	IL	60071	CLAUD S GORDON CO	5710 KENOSHA ST	RICHMOND	IL		60071	YES	NO	NO	NO	NATHAN FROST	8156781024	3823							334513						42.480619	-88.309292	004159596		ILD004159596						WATLOW ELECTRIC MANUFACTURING CO	006275481	NO	NFROST@WATLOW.COM	
2012	GENERAL MANAGER	ALFRED AGHAPOUR	60609SFTYK1445W	CLEAN HARBORS RECYCLING SERVICES OF CHICAGO LLC	1445 W 42ND	CHICAGO	COOK	IL	60609	CLEAN HARBORS RECYCLING SERVICES OF CHICAGO LLC	1445 W 42ND	CHICAGO	IL		60609	YES	NO	NO	NO	ALFRED AGHAPOUR	7732472828	7389							562920						41.817137	-87.660802	042698999								CLEAN HARBORS INC	042698999	NO	AGHAPOUR.ALFRED@CLEANHARBORS.COM	
2012	VICE PRESIDENT, FINANCE	THOMAS WEDOFF	60007CLRLM1950P	CLEAR LAM PACKAGING INC	1950 PRATT BLVD	ELK GROVE VILLAGE	COOK	IL	60007	CLEAR LAM PACKAGING INC	1950 PRATT BLVD	ELK GROVE VILLAGE	IL		60007	YES	NO	NO	NO	THOMAS WEDOFF	8474398570	2671							326112						41.999096	-87.952477	048950216										NO	LJORDAHL@CLEARLAM.COM	
2012	GENERAL MANAGER	RICH FEKETITSCH	60468BNNTT515NF	CLEVELAND STEEL CONTAINER - PE OTONE FACILITY	117 E LINCOLN ST	PEOTONE	WILL	IL	60468	CLEVELAND STEEL CONTAINER - PE OTONE FACILITY	117 E LINCOLN ST	PEOTONE	IL		60468	YES	NO	NO	NO	JOE GIAMMANCO	7082580700	3412							332439						41.338133	-87.789444	004525499								CLEVELAND STEEL CONTAINER CORP	004525499	NO	JGIAMMANCO@CSCPAILS.COM	
2012	FACILITIES MANAGER	GEORGE MARTZ	61820CLFFRNORTH	CLIFFORD-JACOBS FORGING CO	2410 N 5TH ST	CHAMPAIGN	CHAMPAIGN	IL	61822	CLIFFORD-JACOBS FORGING CO	PO BOX 830	CHAMPAIGN	IL		61824	YES	NO	NO	NO	GEORGE MARTZ	2173525172	3462							332111						40.144282	-88.230149	005143482								IMT		NO	GMARTZ@CLIFFORD-JACOBS.COM	
2012	GENERAL MANAGER	TIM SMOCK	6090WCMCCT78EAS	CMC COATING TOLTEC STEEL	780 EASTGATE INDUSTRIAL PKWY	KANKAKEE	KANKAKEE	IL	60901	CMC COATING TOLTEC STEEL	780 EASTGATE INDUSTRIAL PKWY	KANKAKEE	IL		60901	YES	NO	NO	NO	TIM SMOCK	8159289600								332312						41.132101	-87.830264									COMMERCIAL METALS CO		NO	TIM.SMOCK@CMC.COM	
2012	PRESIDENT	MICHAEL LANGENSTRASS	60007CMPND1340H	CMP ANODIZING CORP	1340 HOWARD ST	ELK GROVE VILLAGE	COOK	IL	60007	CMP ANODIZING CORP	1340 HOWARD ST	ELK GROVE VILLAGE	IL		60007	YES	NO	NO	NO	MIKE LANGENSTRASS	8479561313	3471							332813						42.016029	-87.967068											NO	MIKEL@CMPANODIZING.COM	
2012	PLANT MANAGER	BRAIN BLANKENSHIP	61742DM   POBOX	CNH AMERICA LLC	600 E PEORIA ST	GOODFIELD	WOODFORD	IL	61742	CNH AMERICA LLC	PO BOX 65	GOODFIELD	IL		61742	YES	NO	NO	NO	KELLY HRAJNOHA	6308873823	3523							333111						40.625617	-89.263886	005116058								CASE NEW HOLLAND INC		NO	MEDIA.NORTHAMERICA@CNH.COM	
2012	CORPORATE ENVIRONMENTAL COORDINATOR	MARK ROGERS	60085SGNLC14451	COLEMAN CABLE INC WAUKEGAN FACILITY	1445 11TH ST	WAUKEGAN	LAKE	IL	60085	COLEMAN CABLE INC WAUKEGAN FACILITY	1445 11TH ST	WAUKEGAN	IL		60085	YES	NO	NO	NO	MARK ROGERS	8476722422	3357							335929						42.339585	-87.849395	044519098								COLEMAN CABLE INC	044519098	NO	MARK.ROGERS@COLEMANCABLE.COM	
2012	PRESIDENT	STEVE WINTER	60624CLRCM4242W	COLOR COMMUNICATIONS INC	4242 W FILLMORE	CHICAGO	COOK	IL	60624	COLOR COMMUNICATIONS INC	4000 W FILLMORE	CHICAGO	IL		60624	YES	NO	NO	NO	ED SCHROEDER	7736381400	2672	2759	2796	2851				322222	323110	323112	325510			41.868215	-87.731746	059433888										NO	EDSCH@CCICOLOR.COM	
2012	PLANT MANAGER	JORGE  CRUZ	60638CMMRC5757W	COMMERCIAL FORGED PRODUCTS	5757 W 65TH ST	BEDFORD PARK	COOK	IL	60638	COMMERCIAL FORGED PRODUCTS	5757 W 65TH ST	BEDFORD PARK	IL		60638	YES	NO	NO	NO	JORGE CRUZ	7084581220	3462							332111						41.774431	-87.765371									WOZNIAK INDUSTRIES INC		NO	JCRUZ@COMMERCIALFORGED.COM	
2012	SR. SAFETY SPECIALIST	JEFF HITCH	62002CNGRN145WB	CONAGRA FOODS	145 W BROADWAY	ALTON	MADISON	IL	62002	CONAGRA FOODS	145 W BROADWAY	ALTON	IL		62002	YES	NO	NO	NO	JEFF BRASCH	6184634474	2041							311211						38.890416	-90.188791	007258908								CONAGRA FOODS INC		NO	JEFFREY.BRASCH@CONAGRAFOODS.COM	
2012	PLANT SUPERINTENDENT	ALAN BINDEL	62233CNGRNWATER	CONAGRA FOODS INC	101 WATER ST	CHESTER	RANDOLPH	IL	62233	CONAGRA FOODS INC	PO BOX 369	CHESTER	IL		62233	YES	NO	NO	NO	ALAN W. BINDEL	6188262371	2041							311211						37.893292	-89.816306	007258908								CONAGRA FOODS INC	007258908	NO	ALAN.BINDEL@CONAGRAFOODS.COM	
2012	VICE PRESIDENT MANUFACTURING	JESSE SMITH	61104HLDXB22221	CONCENTRIC ROCKFORD INC	2222 15TH ST	ROCKFORD	WINNEBAGO	IL	611047390	CONCENTRIC ROCKFORD INC	2222 15TH ST	ROCKFORD	IL		61104-7390	YES	NO	NO	NO	JESSE SMITH	8153984400	3594							333996						42.244121	-89.064805	116048885								CONCENTRIC AB	353949050	NO	JESSE.SMITH@CONCENTRICAB.COM	
2012	CENTRAL DIVISION TERMINALS MANAGER	BILL SHEPHERD	62048CNCNC2150S	CONOCOPHILLIPS CO HARTFORD TERMINAL	2150 S DELMAR	HARTFORD	MADISON	IL	62048	CONOCOPHILLIPS CO HARTFORD TERMINAL	2150 S DELMAR	HARTFORD	IL		62048	YES	NO	NO	NO	RICH JOHNSON	2812931286	5171	2992						424710						38.812848	-90.095207	001368265								CONOCOPHILLIPS CO	001368265	NO	RICH.JOHNSON@P66.COM	
2012	ENVIRONMENTAL MANAGER	LAWRENCE MILES	62864GNRLTHWY14	CONTINENTAL TIRE THE AMERICAS LLC	11525 N IL HWY 142	MOUNT VERNON	JEFFERSON	IL	628640022	CONTINENTAL TIRE THE AMERICAS LLC	11525 N IL HWY 142	MOUNT VERNON	IL		62864-0022	YES	NO	NO	NO	BENJAMIN G. HARMSE	6182462466	3011							326211						38.29007	-88.890371	068556422		ILD068556422		IL0035017				CONTINENTAL AG	030370307	NO	BENNY.HARMSE@CONTI-NA.COM	
2012	ENGINEERING MANAGER	MICHAEL BARBANENTE	60016CNTRS1217T	CONTOUR SAWS INC	1217 THACKER ST	DES PLAINES	COOK	IL	600166412	CONTOUR SAWS INC	1217 THACKER ST	DES PLAINES	IL		60016-6412	YES	NO	NO	NO	CHARLES B. DAVIS	8477686424	3425							332213						42.037619	-87.893866	005216437										NO	CDAVIS@DOALL.COM	
2012	PLANT MANAGER	CHRIS SELZLER	62249BLNSY509WE	COOPER B-LINE HIGHLAND	509 W MONROE ST	HIGHLAND	MADISON	IL	62249	COOPER B-LINE HIGHLAND	509 W MONROE ST	HIGHLAND	IL		62249	YES	NO	NO	NO	CHRIS DIETRICH	6186549166	3499							332999						38.738007	-89.697391	053969408								EATON US HOLDINGS INC. (F/K/A EATON INC.)	078785914	NO	CHRIS.DIETRICH@COOPERINDUSTRIES.COM	
2012	PLANT MANAGER	CHRIS SELZLER	62294BLNSY816LY	COOPER B-LINE INC TROY	816 LIONS DR	TROY	MADISON	IL	62294	COOPER B-LINE INC TROY	816 LIONS DR	TROY	IL		62294	YES	NO	NO	NO	CHRIS DIETRICH	6186549166	3499	3449						332999						38.71731	-89.887336	143768401								EATON US HOLDINGS INC. (F/K/A EATON INC.)	078785914	NO	CHRIS.DIETRICH@COOPERINDUSTRIES.COM	
2012	TECHNICAL COMPLIANCE SPECIALIST	SUSAN MOORE	60085CRLNC135LE	CORAL CHEMICAL CO	135 LEBARON ST	WAUKEGAN	LAKE	IL	60085	CORAL CHEMICAL CO	1915 INDUSTRIAL AVE	ZION	IL		60099	YES	NO	NO	NO	SCOTT TAYLOR	8472466686	2899							325998						42.362653	-87.880641	002979896										NO	STAYLOR@CORAL.COM	
2012	VICE PRESIDENT ENGINEERING	MIKE CORTRIGHT	60188GRLNN170TU	CORE PIPE PRODUCTS AKA  GERLIN INC	170 TUBEWAY DR	CAROL STREAM	DUPAGE	IL	60188	CORE PIPE PRODUCTS AKA  GERLIN INC	170 TUBEWAY DR	CAROL STREAM	IL		60188	YES	NO	NO	NO	MIKE CORTRIGHT	6306907000	3498							332996	332999					41.895329	-88.12287	121280119								CORE PIPE PRODUCTS INC		NO	MCORTRIGHT@COREPIPE.COM	
2012	DIRECTOR OF OPERATIONS	BOB SMITH	6008WCRPKM11ASB	CORPAK MEDSYSTEMS	1001 ASBURY DR	BUFFALO GROVE	LAKE	IL	600894528	CORPAK MEDSYSTEMS	1001 ASBURY DR	BUFFALO GROVE	IL		60089-4528	YES	NO	NO	NO	ROBIN RUEDIGER	8474033435								339113						42.17661	-87.9364	147530323								CORPAK MEDSYSTEMS INC	147530323	NO	R.RUEDIGER@CORPAK.COM	
2012	PRESIDENT	BRIAN BLACKLIDGE	60657CRFTS1239W	CRAFTSMAN PLATING & TINNING CORP	1239 W SCHOOL ST	CHICAGO	COOK	IL	60657	CRAFTSMAN PLATING & TINNING CORP	1250 W MELROSE ST	CHICAGO	IL		60657	YES	NO	NO	NO	BRIAN BLACKLIDGE	7734771040	3471							332813						41.941717	-87.660669	005123393										NO	BRIAN@CRAFTSMANPLATING.COM	
2012	PLANT MANAGER	MICHAEL KOMMER	60436KMLT 4050C	CRANE COMPOSITES INC	23525 W EAMES ST	CHANNAHON	WILL	IL	604103220	CRANE COMPOSITES INC	23525 W EAMES ST	CHANNAHON	IL		60410-3220	YES	NO	NO	NO	PAUL MARGHERIO	8154678656	3089							326199						41.461609	-88.184151	005084199								CRANE CO	001280726	NO	PMARGHERIO@CRANECOMPOSITES.COM	
2012	STATION DIRECTOR	MARK NAGEL	60623CRWFR3501S	CRAWFORD GENERATING STATION	3501 S PULASKI	CHICAGO	COOK	IL	60623	CRAWFORD GENERATING STATION	3501 S PULASKI	CHICAGO	IL		60623	YES	NO	NO	NO	DOUG MCFARLAN	3125836000	4911							221112						41.828784	-87.721854	114466571								EDISON INTERNATIONAL	195138458	NO	DMCFARLAN@MWGEN.COM	
2012	VICE PRESIDENT	AVIVA LLORENS	60609CRWFR4165S	CRAWFORD LABORATORIES	4165 S EMERALD AVE	CHICAGO	COOK	IL	60609	CRAWFORD LABORATORIES	4165 S EMERALD AVE	CHICAGO	IL		60609	YES	NO	NO	NO	AVIVA LLORENS	7733767132	2851							325510						41.818563	-87.644251	005473350		ILD005473350								NO	AVIVA@FLOROCK.NET	
2012	PEOPLE & CULTURE LEADER	GLORIA GRAMPO	60090CRCTS1475S	CREATION TCHNOLOGIES WHEELING	1475 S WHEELING RD	WHEELING	COOK	IL	60090	CREATION TCHNOLOGIES WHEELING	1475 S WHEELING RD	WHEELING	IL		60090	YES	NO	NO	NO	GLORIA GRAMPO	8472157171	3679							334419						42.110049	-87.927067	069981322								CREATION TECHNOLOGIES	181989203	NO	GLORIA.GRAMPO@CREATIONTECH.COM	
2012	VP  - EHS	MICHAEL ANTRY	60504MDWST3737E	CROWN AEROSOL PACKAGING	3737 E EXCHANGE AVE	AURORA	DUPAGE	IL	605048102	CROWN AEROSOL PACKAGING	3737 E EXCHANGE AVE	AURORA	IL		60504-8102	YES	NO	NO	NO	ROBERT.GIBBONS@CROWNCORK.COM	6308517774	3479							332431						41.764619	-88.26007	002282341								CROWN CORK & SEAL CO (USA) INC	002282341	NO	ROBERT.GIBBONS@CROWNCORK.COM	
2012	PLANT MANAGER	GREGORY JOHANSON	60915CRWNC1035E	CROWN BEVERAGE PACKAGING	1035 E N ST	BRADLEY	KANKAKEE	IL	60915	CROWN BEVERAGE PACKAGING	1035 E N ST	BRADLEY	IL		60915	YES	NO	NO	NO	GREGORY JOHANSON	8159339351	3411							332431						41.148832	-87.849342	002282341								CROWN HOLDINGS	002282341	NO	GREGORY.JOHANSON@CROWNCORK.COM	
2012		MICHAEL J. SPAIN	60445CRWNC471W1	CROWN CHEMICAL INC	4701 W 136TH ST	CRESTWOOD	COOK	IL	60445	CROWN CHEMICAL INC	4701 W 136TH ST	CRESTWOOD	IL		60445	NO	NO	NO	NO	MICHAEL SPAIN	7083716990								325611	325612	325998				41.644943	-87.735397									ECONOMY COMPOUNDS INC		NO	SALES@CROWN-CHEM.COM	
2012	CHIEF OPERATING OFFICER	LYNN WHITWORTH	62896CRWNL11884	CROWNLINE BOATS	11884 COUNTRY CLUB RD	WEST FRANKFORT	FRANKLIN	IL	62896	CROWNLINE BOATS	11884 COUNTRY CLUB RD	WEST FRANKFORT	IL		62896	YES	NO	NO	NO	LYNN WHITWORTH	6189376426	3732							336612						37.87391	-88.93477											NO	LWHITWORTH@CROWNLINE.COM	
2012	SR VICE PRESIDENT AND GM	WALLY CASEY	60915RMRPHRT50A	CSL BEHRING	RT 50 & ARMOUR RD	BRADLEY	KANKAKEE	IL	60915	CSL BEHRING	PO BOX 511	KANKAKEE	IL		60901	YES	NO	NO	NO	WALLY CASEY	8159353100	2836							325414						41.160823	-87.854773									CSL BEHRING LLC		NO	WALTER.CASEY@CSLBEHRING.COM	
2012	PRESIDENT	THOMAS MCNAMEE	60115SMTHH345HA	CST STORAGE - A DIV OF CST INDUSTRIES INC	345 HARVESTORE DR	DEKALB	DEKALB	IL	60115	CST STORAGE - A DIV OF CST INDUSTRIES INC	345 HARVESTORE DR	DEKALB	IL		60115	YES	NO	NO	NO	ROY A KELM	8157561551	3443							332420						41.901729	-88.756486	006085815								CST INDUSTRIES INC	611249707	NO	RKELM@CST-STORAGE.COM	
2012	ENVIRONMENTAL MANAGER	AJAY JAIN	61115CRTSM9917N	CURTIS METAL FINISHING CO	9917 N ALPINE	MACHESNEY PARK	WINNEBAGO	IL	611158212	CURTIS METAL FINISHING CO	9917 N ALPINE	MACHESNEY PARK	IL		61115-8212	YES	NO	NO	NO	NORBERT JAEGER	5869392850	3479							332812						42.372818	-89.024607	091611897								COMMERCIAL STEEL TREATING CORP	005319405	NO	NORBERT.JAEGER@CURTISMETAL.COM	
2012	PRESIDENT	LARRY KRAFT	62260CSTMM700BH	CUSTOM MARBLE INC	850 S MULBERRY ST	MILLSTADT	ST CLAIR	IL	62260	CUSTOM MARBLE INC	PO BOX 306	MILLSTADT	IL		62260	YES	NO	NO	NO	LARRY W. KRAFT	6184761345	3088							326191						38.452531	-90.088709	094393980										NO	LARRY@CUSTOMMARBLE.NET	
2012	OPERATIONS MANAGER	TIM WRIGHT	6011WCVGDK3DIET	CVG DEKALB	300 DIETZ AVE	DE KALB	DEKALB	IL	60115	CVG DEKALB	300 DIETZ AVE	DE KALB	IL		60115	YES	NO	NO	NO	STEVE ZBINDEN	8157568225								336322						41.93127	-88.72853	048562664	150146855							COMMERCIAL VEHICLE GROUP INC	150146855	NO	STEVE.ZBINDEN@CVGRP.COM	
2012	DIRECTOR SPECIAL PROJECTS	JEANINE COSTA	6082WCYGNS34E13	CYGNUS CORP	340 E 138TH ST	CHICAGO	COOK	IL	60827	CYGNUS CORP	340 E 138TH ST	CHICAGO	IL		60827	YES	NO	NO	NO	JEANINE COSTA	7738165164								325611						41.645545	-87.612746	809611747								CYGNUS CORP	809611705	NO	JCOSTA@MARIETTACORP.COM	
2012	SENIOR CHEMIST	LEONARD VAN VOSSEN	60652DLYNT41W76	DALEY INTERNATIONAL	4100 W 76TH ST	CHICAGO	COOK	IL	60652	DALEY INTERNATIONAL	4100 W 76TH ST	CHICAGO	IL		60652	YES	NO	NO	NO	LEONARD M. VAN VOSSEN	7732846565								325611						41.755067	-87.723871	039010483								SWISHER HYGIENE FRANCHISE CORP	185717519	NO	LEN.VANVOSSEN@DALEYINTERNATIONAL.COM	
2012	REGIONAL ENVIRONMENTAL MANAGER	BRUCE TIEJEMA	61081DNCRP2001E	DANA DRIVESHAFT MANUFACTURING LLC	2001 EASTWOOD DR	STERLING	WHITESIDE	IL	61081	DANA DRIVESHAFT MANUFACTURING LLC	2001 EASTWOOD DR	STERLING	IL		61081	YES	NO	NO	NO	JOSH STROUD	8156266700	3714							336350						41.80377	-89.72301	102197175								DANA HOLDING CORP	005040555	NO	JOSH.STROUD@DANA.COM	
2012	QEHS MANAGER	JAMES TRENT	61285STLYMROUTE	DANISCO SWEETENERS INC	10994 THREE MILE RD	THOMSON	CARROLL	IL	61285	DANISCO SWEETENERS INC	10994 THREE MILE RD	THOMSON	IL		61285	YES	NO	NO	NO	DENNY WIEREMA	8152593311	2099							311221						41.99987	-90.109886									E I DU PONT DE NEMOURS & CO	001315704	NO	DENNY.WIEREMA@DUPONT.COM	
2012	MANAGER OF ENVIRONMENTAL AFFAIRS	DAN KILKENNY	62664NTNLB900SM	DARLING INTERNATIONAL INC	900 S MAIN ST	MASON CITY	MASON	IL	62664	DARLING INTERNATIONAL INC	PO BOX 615	DES MOINES	IA		503060615	YES	NO	NO	NO	DAN J. KILKENNY	5158837743	2077	2047	2048					311613						40.192266	-89.697886	071000837								DARLING INTERNATIONAL INC		NO		
2012	PRESIDENT	THOMAS MCNAMEE	61104DSCPR2215K	DASCO PRO INC	2215 KISHWAUKEE ST	ROCKFORD	WINNEBAGO	IL	61104	DASCO PRO INC	2215 KISHWAUKEE ST	ROCKFORD	IL		61104	YES	NO	NO	NO	BRADLEY GROVES	8159629338	3423							332212						42.24391	-89.087415											NO	BGROVES@FIBERGLASSINNOVATIONS.COM	
2012	TREASURER	MICHAEL GADEL	61840DTCMM2949C	DATA COMM FOR BUSINESS INC	2949 COUNTY RD 1000 E	DEWEY	CHAMPAIGN	IL	61840	DATA COMM FOR BUSINESS INC	2949 COUNTY RD 1000 E	DEWEY	IL		61840	YES	NO	NO	NO	RUSSELL STRAAYER	2178976600	3669							334210						40.305833	-88.274167	122578768										NO	RSTRAAYER@DCBNET.COM	
2012	EXECUTIVE VICE-PRESIDENT, OPERATIONS	MARK PAWELSKI	60638DBRTC4700S	DAUBERT CHEMICAL CO	4700 S CENTRAL AVE	CHICAGO	COOK	IL	60638	DAUBERT CHEMICAL CO	4700 S CENTRAL AVE	CHICAGO	IL		60638	YES	NO	NO	NO	ROGER BLAKE	6032036810	2899	2851	2891					324191	325520	325510				41.808502	-87.763555	099200784								DAUBERT INDUSTRIES INC	001747393	NO	RBLAKE@DAUBERT.COM	
2012		ROY GALMAN	60803DBRTC1271S	DAUBERT CROMWELL LLC	12701 S RIDGEWAY AVE	ALSIP	COOK	IL	60803	DAUBERT CROMWELL LLC	12701 S RIDGEWAY AVE	ALSIP	IL		60803	YES	NO	NO	NO	ROY GALMAN	7082937750	2671							322221						41.661534	-87.71195	171945251										NO	ROY@DAUBERTCROMWELL.COM	
2012	PRESIDENT	DERRAN SMITH	60188DVSML350EK	DAVIES MOLDING LLC	350 KEHOE BLVD	CAROL STREAM	DUPAGE	IL	60188	DAVIES MOLDING LLC	350 KEHOE BLVD	CAROL STREAM	IL		60188	YES	NO	NO	NO	JANICE DAVIS	6306147870	3089							326199						41.909591	-88.110923	005146592								PETTIBONE LLC	786533117	NO	JDAVIS@DAVIESMOLDING.COM	
2012	GENERAL MANUFACTURING MANAGER	TIMOTHY ENGELS	60901DYTNS2150B	DAYTON SUPERIOR CORP KANKAKEE FACILITY	2150 STATE RT 45-52 UNIT B	KANKAKEE	KANKAKEE	IL	60901	DAYTON SUPERIOR CORP KANKAKEE FACILITY	2150 STATE RT 45-52 UNIT B	KANKAKEE	IL		60901	YES	NO	NO	NO	TIM ENGELS	8159363300	3449							332312						41.088702	-87.870242	041504463								DAYTON SUPERIOR CORP	041604463	NO	TIMENGELS@DAYTONSUPERIOR.COM	
2012	ENVIRONMENTAL, HEALTH & SAFETY MANAGER	BRANDON MARVIN	60142DNFDS11713	DEAN DAIRY HOLDINGS LLC	11713 MILL ST	HUNTLEY	MCHENRY	IL	60142	DEAN DAIRY HOLDINGS LLC	11713 MILL ST	HUNTLEY	IL		60142	YES	NO	NO	NO	BRANDON R. MARVIN	8476695123	2026							311511						42.166689	-88.425441	005103858								DEAN FOODS CO	005104815	NO	BRANDON_MARVIN@DEANFOODS.COM	
2012	ENVIRONMENTAL, HEALTH & SAFETY MANAGER	BRANDON MARVIN	60033DNFDS6303M	DEAN DAIRY HOLDINGS LLC	6303 MAXON RD	HARVARD	MCHENRY	IL	600338854	DEAN DAIRY HOLDINGS LLC	6303 MAXON RD	HARVARD	IL		60033-8854	YES	NO	NO	NO	BRANDON MARVIN	8159435441	2026							311511						42.417912	-88.666553	025520487								DEAN FOODS CO		NO	BRANDON_MARVIN@DEANFOODS.COM	
2012	PRODUCTION MANAGER	ROBERT MURRAY	61103DNFDS1126K	DEAN FOODS CO	1126 KILBURN AVE	ROCKFORD	WINNEBAGO	IL	61101	DEAN FOODS CO	1126 KILBURN AVE	ROCKFORD	IL		61101	YES	NO	NO	NO	DAVE HOLCOMB	8159620647	2026							424430						42.28642	-89.102907	005103619								DEAN FOODS CO	005104815	NO	DAVE_HOLCOMB@DEANFOODS.COM	
2012	DIRECTOR OF OPERATIONS	JASON PARKER	60651DRBRN4421W	DEARBORN/BELDEN CDT CO (DBA KERRIGANLLEWIS WIRE PRODICTS INC	4421 W RICE ST	CHICAGO	COOK	IL	60651	DEARBORN/BELDEN CDT CO (DBA KERRIGANLLEWIS WIRE PRODICTS INC	4421 W RICE ST	CHICAGO	IL		60651	YES	NO	NO	NO	CAROL KARNER	7737727208	3496	3357						335929						41.895833	-87.736667	023001430								BELDEN INC	009178666	NO	CKARNER@ALPHAWIRE.COM	
2012	CORPORATE ENVIRONMENTAL ENGINEER	PAUL NELSON	62525DCTRF1745N	DECATUR FOUNDRY INC	1745 N ILLINOIS ST	DECATUR	MACON	IL	62525	DECATUR FOUNDRY INC	1745 N ILLINOIS ST	DECATUR	IL		62525	YES	NO	NO	NO	GENE VELCHEK	2174295261	3321							331511						39.860007	-88.943878	005198650								DECATUR FOUNDRY INC	005198650	NO		
2012	PLANT MANAGER	WILLIAM JILESEN	60018WSTGR1855S	DELAVAL MANUFACTURING	1855 S MOUNT PROSPECT RD	DES PLAINES	COOK	IL	600181861	DELAVAL MANUFACTURING	1855 S MOUNT PROSPECT RD	DES PLAINES	IL		60018-1861	YES	NO	NO	NO	WYATT SMITT	8168911553	2841							325611	325612					42.017627	-87.919006	147528723								DELAVAL INC	173704867	NO	WYATT.SMITH@DELAVAL.COM	
2012	PRESIDENT	MIKE CHAUDHARI	60185DLTCR730WH	DELTA CIRCUITS INC	730 W HAWTHORNE LN	WEST CHICAGO	DUPAGE	IL	60185	DELTA CIRCUITS INC	730 W HAWTHORNE LN	WEST CHICAGO	IL		60185	YES	NO	NO	NO	MIKE CHAUDHARI	6308763000	3672							334412						41.89972	-88.24055	838509487										NO	MIKE@DELTACIRCUITS.COM	
2012	EHS MANAGER	ALEX DUDDING-GREVEN	60650LYMPC5000W	DELTA COS GROUP DBA OLYMPIC OIL	5000 W 41ST ST	CICERO	COOK	IL	60804	DELTA COS GROUP DBA OLYMPIC OIL	5000 W 41ST ST	CICERO	IL		60804	YES	NO	NO	NO	ALEX GREVEN	7088767907	2992							324191						41.819595	-87.754767											NO	ALEX.GREVEN@DELTACOGROUP.COM	
2012	GENERAL MANAGER	RAJANI PATEL	60007DLTPR1370L	DELTA PRECISION CIRCUITS	1370 LIVELY BLVD	ELK GROVE VILLAGE	COOK	IL	60007	DELTA PRECISION CIRCUITS	1370 LIVELY BLVD	ELK GROVE VILLAGE	IL		60007	YES	NO	NO	NO	RAJANI PATEL	8477588000	3672							334412	334418					42.00305	-87.96861											NO	RAJANI1@DELTAPCB.COM	
2012	PRODUCTION SUPERINTENDANT	SEAN CAWLEY	60123DNTSP1212A	DENTSPLY-RINN DIV	1212 ABBOTT DR	ELGIN	KANE	IL	601231819	DENTSPLY-RINN DIV	1212 ABBOTT DR	ELGIN	IL		60123-1819	YES	NO	NO	NO	UNITED STATES COMPLIANCE CORPORATION	9522523000	3843							339114						42.05463	-88.308278	795572718								DENTSPLY INTERNATIONAL		NO	EPCRA@USCOMPLIANCE.COM	
2012	MAINTENANCE SUPERVISOR	MARK ARMGARDT	60090CMMRC1444S	DESTACO INDUSTRIAL MOTION CONTROL LLC	1444 S WOLF RD	WHEELING	COOK	IL	60090	DESTACO INDUSTRIAL MOTION CONTROL LLC	1444 S WOLF RD	WHEELING	IL		60090	YES	NO	NO	NO	U.S. COMPLIANCE CORPORATION	9522523000	3599							333512						42.105987	-87.911169	869242958								DOVER CORP	003245271	NO	EPCRA@USCOMPLIANCE.COM	
2012	GM	ROBERT QUARLES	62959DGRPH5307M	DIAGRAPH MSP AN ITW CO	5307 MEADOWLAND PKWY	MARION	WILLIAMSON	IL	62959	DIAGRAPH MSP AN ITW CO	5307 MEADOWLAND PKWY	MARION	IL		62959	YES	NO	NO	NO	DEBORAH JOHNSON	6189971708	3953							339943						37.74012	-89.019574	193004454								ILLINOIS TOOL WORKS INC	005146428	NO	DJOHNSON@DIAGRAPHMS.COM	
2012	PRESIDENT	THOMAS MCNAMEE	61109DMNDH3691P	DIAMOND HEAT TREATING INC	3691 PUBLISHERS DR	ROCKFORD	WINNEBAGO	IL	61109	DIAMOND HEAT TREATING INC	3691 PUBLISHERS DR	ROCKFORD	IL		61109	YES	NO	NO	NO	WILLIAM DENNING	8158731348	3398							332811						42.222121	-89.004403			ILD984919753								NO	BDENNING@DIAMONDHT.COM	
2012	VICE PRESIDENT OF OPERATIONS	JEFF SCHERTZ	62615DCKYJ5200D	DICKEY-JOHN CORP	5200 DICKEY JOHN RD	AUBURN	SANGAMON	IL	62615	DICKEY-JOHN CORP	5200 DICKEY JOHN RD	AUBURN	IL		62615	YES	NO	NO	NO	JEFF SCHERTZ	2174382443	3829							334519						39.580253	-89.743498	041542580								CHURCHILL INDUSTRIES INC	884257502	NO	JSCHERTZ@DICKEY-JOHN.COM	
2012	PURCHASING AND MATERIALS MANAGER	CHAD CLIFFGARD	60160DSLRD1985J	DIESEL RADIATOR CO	1985 JANICE AVE	MELROSE PARK	COOK	IL	60160	DIESEL RADIATOR CO	1985 JANICE AVE	MELROSE PARK	IL		60160	YES	NO	NO	NO	LISA BURKHART	7083459244	3499	3714						332999	336399					41.909639	-87.887128	051928653								DIESEL RADIATOR CO	051928653	NO		
2012	COO/CFO	DAVID FENTON	61434DXLNC26SW4	DIXLINE CORP	26 SW 4TH AVE	GALVA	HENRY	IL	61434	DIXLINE CORP	26. SW 4TH AVE PO BOX 166	GALVA	IL		614340166	YES	NO	NO	NO	DAVID FENTON	3099322011	3429	3471						332510						41.165557	-90.048014	005267810										NO	DFENTON@DIXLINE.COM	
2012	GENERAL MANAGER	JIM JABLONSKY	60559MRCNC40CHE	DIXON BRASS	40 CHESTNUT AVE	WESTMONT	DUPAGE	IL	60559	DIXON BRASS	40 CHESTNUT AVE	WESTMONT	IL		60559	YES	NO	NO	NO	JIM JABLONSKY	6303234442	3451							332721						41.800031	-87.966762									DIXON VALVE	002296713	NO	JJABLONSKY@DIXONVALVE.COM	
2012	DIRECTOR OF GLOBAL SUPPLY CHAIN	DON KEMP	60425DBRCH333W1	DOBER CHEMICAL CORP	333 W 195TH ST	GLENWOOD	COOK	IL	60425	DOBER CHEMICAL CORP	11230 KATHERINE'S CROSSING	WOODRIDGE	IL		60517	YES	NO	NO	NO	US COMPLIANCE CORPORATION	9522523000	2842							325612						41.535135	-87.625744	005258942								DOBER CHEMICAL CORP		NO	EPCRA@USCOMPLIANCE.COM	
2012	DIRECTOR OF GLOBAL SUPPLY CHAIN	DON KEMP	60517DBRNN1123K	DOBER INNOVATION & TECHNOLOGY CENTER	11230 KATHERINE'S CROSSING	WOODRIDGE	DUPAGE	IL	60517	DOBER INNOVATION & TECHNOLOGY CENTER	11230 KATHERINE'S CROSSING	WOODRIDGE	IL		60517	YES	NO	NO	NO	US COMPLIANCE CORPORATION	9522523000								325998						41.684	-88.04365	005258942								DOBER CHEMICAL CORP		NO	EPCRA@USCOMPLIANCE.COM	
2012	GENERAL MANAGER	CARL SALADINO	62540KNCDG4MILE	DOMINION KINCAID GENERATION LLC	RT 104	KINCAID	CHRISTIAN	IL	62540	DOMINION KINCAID GENERATION LLC	PO BOX 260	KINCAID	IL		62540	YES	NO	NO	NO	CJ SALADINO	2172374311	4911							221112						39.591559	-89.497498									DOMINION RESOURCES INC	196579130	NO		
2012	PLANT MANAGER	DOLAN BARTELS	61021DNLDS815PR	DONALDSON CO DIXON ILLINOIS	815 PROGRESS DR	DIXON	LEE	IL	61021	DONALDSON CO DIXON ILLINOIS	815 PROGRESS DR	DIXON	IL		61021	YES	NO	NO	NO	DOLAN BARTELS	8152883374	3599							336399						41.811333	-89.475002	006477301								DONALDSON CO INC	006477301	NO	DOLAN.BARTELS@DONALDSON.COM	
2012	PLANT MANAGER	STEVEN MALONE	62288MRCND1003W	DORMA USA INC	1003 W BROADWAY	STEELEVILLE	RANDOLPH	IL	622881311	DORMA USA INC	1003 W BROADWAY	STEELEVILLE	IL		62288-1311	YES	NO	NO	NO	RYAN JUHL	6189653491	3429							332510	332116	332721	332999	332813		38.013651	-89.6684	006291330								DORMA - ENNEPETAL GERMANY		NO		
2012	SITE LEADER	LISA CASHBAUGH-SANCHEZ	60481DWCHM91EKA	DOW CHEMICAL CO	901 E KANAKEE RIVER DR	WILMINGTON	WILL	IL	60481	DOW CHEMICAL CO	901 E KANAKEE RIVER DR	WILMINGTON	IL		60481	YES	NO	NO	NO	LISA CASHBAUGH-SANCHEZ	8154761152	2821							325211						41.317778	-88.136389	001381581		ILR000122754		ILR006341				THE DOW CHEMICAL CO		NO	LMCASHBAUGH@DOW.COM	
2012	SITE LEADER	GREGORY KUHN	61920THCLT1255N	DOW CHEMICAL CO	1255 N FIFTH ST	CHARLESTON	COLES	IL	61920	DOW CHEMICAL CO	26332 S FRONTAGE RD W	CHANNAHON	IL		60410	YES	NO	NO	NO	GREG KUHN	8154232648	3089							326150						39.513185	-88.176141	006924310								THE DOW CHEMICAL CO	006924310	NO	GGKUHN@DOW.COM	
