TRIFID	DOCUMENT CONTROL NUMBER	CAS NUMBER	CHEMICAL NAME	CLASSIFICATION	REPORTING YEAR	FACILITY NAME	FACILITY STREET	FACILITY CITY	FACILITY COUNTY	FACILITY STATE	FACILITY ZIP CODE	ENTIRE FACILITY IND	PARTIAL FACILITY IND	FEDERAL FACILITY IND	GOCO FACILITY IND	PRIMARY SIC CODE	SIC CODE 2	SIC CODE 3	SIC CODE 4	SIC CODE 5	SIC CODE 6	NAICS ORIGIN	PRIMARY NAICS CODE	NAICS CODE 2	NAICS CODE 3	NAICS CODE 4	NAICS CODE 5	NAICS CODE 6	LATITUDE	LONGITUDE	DB NR A	DB NR B	RCRA NR A	RCRA NR B	NPDES NR A	NPDES NR B	UIC NR A	UIC NR B	PARENT COMPANY NAME	PARENT COMPANY DB NR	SECTION 8.11 DISPOSAL OR OTHER RELEASES, SOURCE REDUCTION, AND RECYCLING ACTIVITIES	ASSIGNED FED. FACILITY FLAG	PUBLIC CONTACT EMAIL	REVISION CODE 1	REVISION CODE 2	METAL INDICATOR	20-NOV-13	
6293WTHMRC985HI	1312210619995	007439976	MERCURY	PBT	2012	THE AMERICAN COAL CO	9085 HWY 34 N	GALATIA	SALINE	IL	62935	YES	NO	NO	NO								212112						37.824348	-88.583754	143486426										SRNA:Reporting required due to naturally-occurring elements in coal.	NO	CSHESTAK@COALSOURCE.COM			YES	 	
60633FRDMT12600	1312210292862	001330207	XYLENE (MIXED ISOMERS)	TRI	2012	FORD MOTOR CO CHICAGO ASSEMBLY	12600 S TORRENCE AVE	CHICAGO	COOK	IL	60633	YES	NO	NO	NO								336111						41.665013	-87.560845	060364882								FORD MOTOR CO	001344746	SRNA:Ford Motor Company has a formal written Environmental Policy focused on protecting human health and the environment. The Company has committed to the International Chamber of Commerce "Principles for Environmental Management" and is a member of the World Business Council for Sustainable Development (WBCSD) and the Coalition for Environmentally Responsible Economies (CERES). Ford Motor Company also issues an annual Sustainability Report, which follows the Global Reporting Initiative (GRI) Guidelines for sustainability reporting. Ford is committed to pollution prevention. All manufacturing facilities worldwide have been third-party certified to the ISO 14001 standard.	NO	ADODSON1@FORD.COM			NO	 	
6154WRNKCN1275S	1312210124691	MIXTURE	MIXTURE	TRI	2012	ROANOKE CONCRETE PRODUCTS CO - EAST PEORIA	1275 SPRING BAY RD	EAST PEORIA	WOODFORD	IL	61611	YES	NO	NO	NO								327320	327331					40.774317	-89.527693	005228598								ROANOKE CONCRETE PRODUCTS CO		SRNA:Ready-mix batch plants and trucks have the proper engineering features to control various sources used in the operation.	NO	DANBENDER@FRONTIER.COM			NO	 	
60438BCHMC2700E	1312210266983	000110827	CYCLOHEXANE	TRI	2012	NB COATINGS INC	2701 E 170TH ST	LANSING	COOK	IL	60438	YES	NO	NO	NO								325510						41.584935	-87.548243	085229448								NIPPON PAINT (USA) INC	787612795	|T01:Improved efficiency of in-house solvent still.  Less off-site solvent waste disposal.	NO	JWICKHAM@NBCOATINGS.COM			NO	 	
60162DYNMC4211W	1312210430637	007440508	COPPER	TRI	2012	DYNAMIC MANUFACTURING INC	4211 W MADISON ST	HILLSIDE	COOK	IL	60162	YES	NO	NO	NO								336350						41.880556	-87.730556	059455170								DYNAMIC MANUFACTURING INC	059455170	Facility personnel reviewed parts washing processes and installed filtering units that increased the life of wash waters; thus reducing the need for changeovers and reducing the amount of wastewaters generated.	NO	GNOEL@DMIMAIL.COM			YES	 	
62864GNRLTHWY14	1312210075394	N982	ZINC COMPOUNDS	TRI	2012	CONTINENTAL TIRE THE AMERICAS LLC	11525 N IL HWY 142	MOUNT VERNON	JEFFERSON	IL	628640022	YES	NO	NO	NO								326211						38.29007	-88.890371	068556422		ILD068556422		IL0035017				CONTINENTAL AG	030370307	Reduction in the amount of scrap and/or waste reduces the discharge of zinc compounds from the facility.	NO	BENNY.HARMSE@CONTI-NA.COM			YES	 	
6155WRNKCN1675S	1312210125187	MIXTURE	MIXTURE	TRI	2012	ROANOKE CONCRETE PRODUCTS CO - PEKIN	1675 S 2ND ST	PEKIN	TAZEWELL	IL	61554	YES	NO	NO	NO								327320						40.551325	-89.664571	005228598								ROANOKE CONCRETE PRODUCTS CO		SRNA:Ready-mix batch plants and trucks have the proper engineering features to control various sources used in the operation.	NO	DANBENDER@FRONTIER.COM			NO	 	
6108WWHLCL29NLC	1312210493944	007440473	CHROMIUM	TRI	2012	WAHL CLIPPER CORP	2900 N LOCUST	STERLING	WHITESIDE	IL	61081	YES	NO	NO	NO								339999						41.817322	-89.696107	005263199										We have been contacting outside vendors to share ideas on equipment for improved market of potential recycled items.|SRNA:We are seeking outlets for our materials that cannot be recycled. Our production also increases year to year.	NO	MJOHNSON@WAHLCLIPPER.COM			YES	 	
60185HLBLC1400N	1312210435311	N120	DIISOCYANATES	TRI	2012	BLACHFORD INC	1400 NUCLEAR DR	WEST CHICAGO	DUPAGE	IL	60185	YES	NO	NO	NO								326150	326199					41.904139	-88.232853	884732314		ILD068586429		IL0067458				BLACHFORD INVESTMENTS INC.	884732314	SRNA:Quality related testing requirements	NO	GSTEUCK@BLACHFORDINC.COM			NO	 	
61046MDLLN15NRC	1312210116911	007440508	COPPER	TRI	2012	ELKAY MANUFACTURING CO	105 N ROCHESTER ST	LANARK	CARROLL	IL	61046	YES	NO	NO	NO								332813						42.104023	-89.828	005080429								ELKAY MANUFACTURING CO		SRNA:Manufacturing of certain brass faucets was moved to an alternate location.	NO	MICHAEL.LONG@ELKAY.COM			YES	 	
60436PLLCL1550M	1312210498135	N040	BARIUM COMPOUNDS	TRI	2012	APOLLO COLORS INC	1550 MOUND RD	ROCKDALE	WILL	IL	60436	YES	NO	NO	NO								325132						41.500651	-88.122259	047578331								APOLLO COLORS INC	047578331	Part II.  Chemical-Specific Information (Barium Compounds) Apollo Colors Inc. uses Barium Chloride for specific Chemical Process Reactions.  The excess/residual Barium salts in all wastewater from reactions are pretreated to Barium Sulfate.  The Barium Sulfate is removed (filtered) from the the wastewater.  The Barium Sulfate (Filtrate) is sent to a Non-Hazardous Landfill.  The filtered wastewater is sent to the local POTW. With the delisting of Barium Sulfate as a reportable Hazardous Substance in 1995 by the U. S. EPA,  Apollo Colors Inc.  has eliminated reporting in Section 6.2  TRANSFERS TO OTHER OFF-SITE LOCATIONS.However,  Apollo Colors Inc. continues to report in Section 6.1 DISCHARGES TO PUBLICLY OWNED TREATMENT WORKS (POTW) because the local POTW does not differentiate between different kinds of Barium in the wastewater - POTW  permits are based on Total Barium.|SRNA:Although production increased in 2012 the amount of barium sulfate sent to the landfill decreased. This decrease can be attributed to the product codes that were produced had reduced barium excess, 31% excess in 2011 vs. 21.4% excess in 2012.	NO	BWRIGHT@APOLLOCOLORS.COM			YES	 	
6123WPTRTR11PAT	1312210587539	000067561	METHANOL	TRI	2012	PATRIOT RENEWABLE FUELS LLC	101 PATRIOT WAY	ANNAWAN	HENRY	IL	61234	YES	NO	NO	NO								325193						41.391795	-89.875198	189371326										SRNA:Pollution prevention previously implemented - addition reduction does not appear technically or economically feasible.	NO	VMCCABE@PATRIOTETHANOL.COM			NO	 	
60002VHCLM151SR	1312210038269	N120	DIISOCYANATES	TRI	2012	VEHICLE IMPROVEMENT PRODUCTS	151 S RAM RD	ANTIOCH	LAKE	IL	60002	YES	NO	NO	NO								336330						42.47041	-88.086133	059459602										We have no releases. All material is consumed in processing.|SRNA:We have no releases. All material is consumed in processing.	NO	JOE.SCHURGER@VIPWHEELS.COM			NO	 	
61641KYSTN7000S	1312210526873	N982	ZINC COMPOUNDS	TRI	2012	KEYSTONE STEEL & WIRE CO	7000 SW ADAMS ST	PEORIA	PEORIA	IL	61641	YES	NO	NO	NO								331111	332618	331222				40.641952	-89.646677	102195377								KEYSTONE CONSOLIDATED INDUSTRIES INC	005129309	Keystone has installed a gravity line to recirculate a portion of the Waste Water Treatment Plant effluent to the Power House Canal.  The water in the Power House Canal is pumped to the Wire Mill to be used as process water and also to the Steel Mill to be used as makeup water for cooling.  The Recirculation Line will significantly decrease the amount of water and trace levels of zinc discharged to the Illinois River.  The recirculation line was implemented in December 2012.	NO	STIRNAMA@KEYSTONESTEEL.COM			YES	 	
60515RRWGR231CU	1312209967975	007439921	LEAD	TRI	2012	ARROW GEAR INC	2301 CURTISS ST	DOWNERS GROVE	DUPAGE	IL	60515	YES	NO	NO	NO								333612						41.791784	-88.0416	005075205										lead is found in the metal alloys at low concentrations as a trace contaminant and cannot be removed.  Materials are spec per national and international standards.	NO	MJCERVINKA@ARROWGEAR.COM			YES	 	
60007MRTNC2401E	1312210382091	000075092	DICHLOROMETHANE	TRI	2012	ROHM & HAAS CHEMICALS LLC	2401 E PRATT BLVD	ELK GROVE VILLAGE	COOK	IL	60007	YES	NO	NO	NO								325520						41.997929	-87.943367									THE DOW CHEMICAL CO	001381581	SRNA:6. Pollution prevention previously implemented- additional reduction does not appear technically or economically feasible	NO	JOANELLIS@DOW.COM			NO	 	
60633FRDMT12600	1312210292645	000100414	ETHYLBENZENE	TRI	2012	FORD MOTOR CO CHICAGO ASSEMBLY	12600 S TORRENCE AVE	CHICAGO	COOK	IL	60633	YES	NO	NO	NO								336111						41.665013	-87.560845	060364882								FORD MOTOR CO	001344746	SRNA:Ford Motor Company has a formal written Environmental Policy focused on protecting human health and the environment. The Company has committed to the International Chamber of Commerce "Principles for Environmental Management" and is a member of the World Business Council for Sustainable Development (WBCSD) and the Coalition for Environmentally Responsible Economies (CERES). Ford Motor Company also issues an annual Sustainability Report, which follows the Global Reporting Initiative (GRI) Guidelines for sustainability reporting. Ford is committed to pollution prevention. All manufacturing facilities worldwide have been third-party certified to the ISO 14001 standard.	NO	ADODSON1@FORD.COM			NO	 	
60633FRDMT12600	1312210292874	N982	ZINC COMPOUNDS	TRI	2012	FORD MOTOR CO CHICAGO ASSEMBLY	12600 S TORRENCE AVE	CHICAGO	COOK	IL	60633	YES	NO	NO	NO								336111						41.665013	-87.560845	060364882								FORD MOTOR CO	001344746	SRNA:Ford Motor Company has a formal written Environmental Policy focused on protecting human health and the environment. The Company has committed to the International Chamber of Commerce "Principles for Environmental Management" and is a member of the World Business Council for Sustainable Development (WBCSD) and the Coalition for Environmentally Responsible Economies (CERES). Ford Motor Company also issues an annual Sustainability Report, which follows the Global Reporting Initiative (GRI) Guidelines for sustainability reporting. Ford is committed to pollution prevention. All manufacturing facilities worldwide have been third-party certified to the ISO 14001 standard.	NO	ADODSON1@FORD.COM			YES	 	
60008LNHNT900CA	1312210803767	007664417	AMMONIA	TRI	2012	FUJIFILM HUNT CHEMICALS USA INC	900 CARNEGIE ST	ROLLING MEADOWS	COOK	IL	60008	YES	NO	NO	NO								325992						42.100327	-88.028673	601250830								FUJIFILM HOLDINGS AMERICA CORP	601250830	|W21:Lot expiration reports and review process.|W25:Sale or exchange of expired/obsolete raw materials|W36:Routine inspections of bulk unloading areas and bulk storage	NO	HAROLD_WILLIAMS@FUJIFILM.COM			NO	 	
60419SFTYK633E1	1312210293825	000108101	METHYL ISOBUTYL KETONE	TRI	2012	SAFETY-KLEEN SYSTEMS	633 E 138TH ST	DOLTON	COOK	IL	60419	YES	NO	NO	NO								562211	562920					41.6445	-87.6062	809368954	130871700							SAFETY-KLEEN HOLDCO INC	809368954	SRNA:Since facility has no control over quantities being brought into facility by clients, we can not estimate any source reduction numbers for this chemical.	NO	LAUBSTEDJ@CLEANHARBORS.COM			NO	 	
61630STPRP600WE	1312210544829	000095636	1,2,4-TRIMETHYLBENZENE	TRI	2012	EAST PEORIA PLANT--TTTD & TBU	901 W WASHINGTON ST	EAST PEORIA	TAZEWELL	IL	616307600	YES	NO	NO	NO								333120						40.67649	-89.58879	005070479								CATERPILLAR INC	005070479	SRNA:6. Pollution prevention previously implemented- additional reduction does not appear technically or economically feasible.  Source emissions are based on production levels and paint formulations used.  No further improvements can be made.	NO	DUGAN_JIM@CAT.COM			NO	 	
61081STRLN101AV	1312210631014	N090	CHROMIUM COMPOUNDS(EXCEPT CHROMITE ORE MINED IN THE TRANSVAAL REGION)	TRI	2012	STERLING STEEL CO LLC	101 AVE K	STERLING	WHITESIDE	IL	610813229	YES	NO	NO	NO								331111						41.786281	-89.709809	106740561								LEGGETT & PLATT INC	007140064	SSC continues to send millscale to a cement company for recycling.  Some grades of cement require additional iron units.  In previous years this material was landfilled.	NO	CROBBINS@SSCLLC.COM			YES	 	
6223WSTHRN1439C	1312210429534	000108952	PHENOL	TRI	2012	SOUTHERN PRECISION SANDS LLC	1439 CUTLER TRICO RD	CUTLER	FRANKLIN	IL	62238	YES	NO	NO	NO								327992						38.003333	-89.568056									FTS INTERNATIONAL LLC		Reduced demand for product.|T11:Reduced demand for product.	NO	WALLY.KANSO@FTSI.COM			NO	 	
61738DPNTLRT24E	1312210196616	001918009	DICAMBA	TRI	2012	DUPONT EL PASO PLANT	2830 US HWY 24	EL PASO	WOODFORD	IL	61738	YES	NO	NO	NO								325320						40.738345	-88.996573	089642474								E I DU PONT DE NEMOURS & CO	001315704	Volume differences can be related to two items. 1. an increase/decrease in production quantity of the material. 2. Better PM estimating techniques.	NO	DONALD.R.SIMONS@USA.DUPONT.COM			NO	 	
6080WBRDFT325SU	1312210654517	007440020	NICKEL	TRI	2012	BRAD FOOTE GEAR WORKS	3250 S CENTRAL AVE	CICERO	COOK	IL	60804	YES	NO	NO	NO								333612						41.832118	-87.763386									BROADWIND ENERGY INC	795420491	|W19:We laid the groundwork for a just-in-time purchase of Raw metal stock to lower the amount of steel purchased and the amount of material left on hand due to cancelled orders.	NO	JEREMY.CANTRELL@BWEN.COM			YES	 	
60623BLLCT2001S	1312210206797	000079016	TRICHLOROETHYLENE	TRI	2012	ABLE ELECTROPOLISHING CO INC	2001 S KILBOURN AVE	CHICAGO	COOK	IL	60623	YES	NO	NO	NO								332813						41.853933	-87.736426	005098611										Able Electropolishing ceased use of TCE in December 2012 and is now using n-Propyl Bromide as a degreasing agent.	NO	DONE@ABLEELECTROPOLISHING.COM			NO	 	
61641KYSTN7000S	1312210526861	N458	MERCURY COMPOUNDS	PBT	2012	KEYSTONE STEEL & WIRE CO	7000 SW ADAMS ST	PEORIA	PEORIA	IL	61641	YES	NO	NO	NO								331111	332618	331222				40.641952	-89.646677	102195377								KEYSTONE CONSOLIDATED INDUSTRIES INC	005129309	Keystone has installed a gravity line to recirculate a portion of the Waste Water Treatment Plant effluent to the Power House Canal.  The water in the Power House Canal is pumped to the Wire Mill to be used as process water and also to the Steel Mill to be used as makeup water for cooling.  The Recirculation Line will significantly decrease the amount of water and trace levels of mercury discharged to the Illinois River.  The recirculation line was implemented in December 2012.	NO	STIRNAMA@KEYSTONESTEEL.COM			YES	 	
60438BCHMC2700E	1312210267062	001330207	XYLENE (MIXED ISOMERS)	TRI	2012	NB COATINGS INC	2701 E 170TH ST	LANSING	COOK	IL	60438	YES	NO	NO	NO								325510						41.584935	-87.548243	085229448								NIPPON PAINT (USA) INC	787612795	|W82:Facility working towards formulating without HAP containing materials	NO	JWICKHAM@NBCOATINGS.COM			NO	 	
60101SGMMT315FA	1312210078364	007439921	LEAD	TRI	2012	QUALITEK INTERNATIONAL INC	315 FAIRBANK ST	ADDISON	DUPAGE	IL	60101	YES	NO	NO	NO								325998						41.922379	-88.017667	050677772										Qualitek International, Inc. has an internal recycling program whereby lead containing waste is reclaimed and converted into lead containing alloys to eliminate external lead waste.	NO	RDLAB@QUALITEK.COM			YES	 	
60072MRTNT5005B	1312210247351	000079107	ACRYLIC ACID	TRI	2012	ROHM & HAAS CHEMICALS LLC	5005 BARNARD MILL RD	RINGWOOD	MCHENRY	IL	60072	YES	NO	NO	NO								325520	325211					42.389221	-88.295089	062410550								THE DOW CHEMICAL CO	001381581	SRNA:Pollution prevention has been implemented at the site and additional reduction does not appear to be feasible.	NO				NO	 	
60419SFTYK633E1	1312210293890	000108883	TOLUENE	TRI	2012	SAFETY-KLEEN SYSTEMS	633 E 138TH ST	DOLTON	COOK	IL	60419	YES	NO	NO	NO								562211	562920					41.6445	-87.6062	809368954	130871700							SAFETY-KLEEN HOLDCO INC	809368954	SRNA:Since facility has no control over quantities being brought into facility by clients, we can not estimate any source reduction numbers for this chemical.	NO	LAUBSTEDJ@CLEANHARBORS.COM			NO	 	
60501SHLLC8600W	1312210320519	000071363	N-BUTYL ALCOHOL	TRI	2012	MOMENTIVE SPECIALTY CHEMICALS INC	8600 W 71ST ST	BEDFORD PARK	COOK	IL	60501	YES	NO	NO	NO								325211						41.764532	-87.835256	001338797								MOMENTIVE PERFORMANCE MATERIALS HOLDINGS LLC	965214146	|W36:Began a LDAR program for system that contains this constituent.|W39:As open-ended lines are discovered, they are capped or plugged.	NO	RONALD.KUNSA@MOMENTIVE.COM			NO	 	
60085CRLNC135LE	1312209981315	007664393	HYDROGEN FLUORIDE	TRI	2012	CORAL CHEMICAL CO	135 LEBARON ST	WAUKEGAN	LAKE	IL	60085	YES	NO	NO	NO								325998						42.362653	-87.880641	002979896										SRNA:Concern that product quality may decline as a result of source reduction.	NO	STAYLOR@CORAL.COM			NO	 	
62441TRWTR902SS	1312210582058	007439921	LEAD	TRI	2012	TRW AUTOMOTIVE	902 S 2ND ST	MARSHALL	CLARK	IL	62441	YES	NO	NO	NO								334418						39.383501	-87.699464	005476700								TRW INC	005476700	SRNA:Product quality may decline as a result of source reduction	NO	TIM.DOWNS@TRW.COM			YES	 	
6143WBGRVR11SE2	1312210505982	007664417	AMMONIA	TRI	2012	BIG RIVER RESOURCES GALVA LLC	1100 SE 2ND ST	GALVA	HENRY	IL	61434	YES	NO	NO	NO								325193						41.170329	-90.023549	610247681								BIG RIVER RESOURCES LLC	809163152	SRNA:Pollution prevention previously implemented - additional reduction does not appear technically or economically feasible.	NO	BRIAN.SCHASEL@BIGRIVERRESOURCES.COM			NO	 	
61920THCLT1255N	1312210356388	N120	DIISOCYANATES	TRI	2012	DOW CHEMICAL CO	1255 N FIFTH ST	CHARLESTON	COLES	IL	61920	YES	NO	NO	NO								326150						39.513185	-88.176141	006924310								THE DOW CHEMICAL CO	006924310	|W58:Plant ceased operations at the end of September|T11:Plant ceased operations at the end of September	NO	GGKUHN@DOW.COM			NO	 	
60501CRNPR6400A	1312210504748	000107028	ACROLEIN	TRI	2012	INGREDION INC ARGO PLANT	6400 S ARCHER AVE	BEDFORD PARK	COOK	IL	60501	YES	NO	NO	NO								311221	311225					41.775132	-87.822356	043581532								INGREDION INC	004811423	Effluent sampled and no acrolein was detected.	NO				NO	 	
6155WRNKCN1391L	1312210124956	MIXTURE	MIXTURE	TRI	2012	ROANOKE CONCRETE PRODUCTS CO - MOSSVILLE	13910 OLD GALENA RD	MOSSVILLE	PEORIA	IL	61552	YES	NO	NO	NO								327320						40.856367	-89.563043	005228598								ROANOKE CONCRETE PRODUCTS CO		SRNA:Ready-mix batch plants and trucks have the proper engineering features to control various sources used in the operation.	NO	DANBENDER@FRONTIER.COM			NO	 	
60501SHLLC8600W	1312210320483	000108101	METHYL ISOBUTYL KETONE	TRI	2012	MOMENTIVE SPECIALTY CHEMICALS INC	8600 W 71ST ST	BEDFORD PARK	COOK	IL	60501	YES	NO	NO	NO								325211						41.764532	-87.835256	001338797								MOMENTIVE PERFORMANCE MATERIALS HOLDINGS LLC	965214146	|W36:Began a LDAR program for system that contains this constituent.|W39:As open-ended lines are discovered, they are capped or plugged.	NO	RONALD.KUNSA@MOMENTIVE.COM			NO	 	
61630STPRP600WE	1312210544894	N450	MANGANESE COMPOUNDS	TRI	2012	EAST PEORIA PLANT--TTTD & TBU	901 W WASHINGTON ST	EAST PEORIA	TAZEWELL	IL	616307600	YES	NO	NO	NO								333120						40.67649	-89.58879	005070479								CATERPILLAR INC	005070479	SRNA:6. Pollution prevention previously implemented- additional reduction does not appear technically or economically feasible.	NO	DUGAN_JIM@CAT.COM			YES	 	
6016WDYNMC43WMA	1312210430548	007440508	COPPER	TRI	2012	DYNAMIC MANUFACTURING INC	4300 W MADISON ST	HILLSIDE	COOK	IL	60162	YES	NO	NO	NO								336350						41.87756	-87.89105	059455170								DYNAMIC MANUFACTURING INC	059455170	Facility personnel reviewed parts washing process and initiated changes to the process that included substituting the soap utilized in the washers to reduce the need for changeovers and thus reducing the amount of wastewaters generated.	NO	GNOEL@DMIMAIL.COM			YES	 	
61265JHNDR5013R	1312210175396	N090	CHROMIUM COMPOUNDS(EXCEPT CHROMITE ORE MINED IN THE TRANSVAAL REGION)	TRI	2012	JOHN DEERE SEEDING & CYLINDER	501 RIVER DR	MOLINE	ROCK ISLAND	IL	61265	YES	NO	NO	NO								333111						41.508446	-90.532961	144322419								DEERE & CO	005267471	|T05:Converted final rinse in paintbooth from hexavalent chrome to trivalent chrome rinse.  This washer will be replaced with a non chromate rinse in 2014.	NO	GOLDENKENNETHB@JOHNDEERE.COM			YES	 	
6045WNRTHF34EAS	1312210267744	007439921	LEAD	TRI	2012	NORTHFIELD BLOCK MORRIS	3400 E BUNGALOW RD	MORRIS	GRUNDY	IL	60450	YES	NO	NO	NO								327331						41.38788	-88.36433									NORTHFIELD BLOCK CO		SRNA:Lead is part or a component of Cement used to make our products.  We manufacture concrete products which use Cement and Flyash.  The reduction must come from the manufacturer of the flyash or cement.	NO	CRAIG.BELASCO@OLDCASTLE.COM			YES	 	
60608FSKGN1111W	1312210423113	007647010	HYDROCHLORIC ACID (1995 AND AFTER "ACID AEROSOLS" ONLY)	TRI	2012	FISK GENERATING STATION	1111 WCERMAK	CHICAGO	COOK	IL	60608	YES	NO	NO	NO								221112						41.8508	-87.6533	114466571								EDISON INTERNATIONAL	195138458	SRNA:Facility closure on September 1, 2012	NO				NO	 	
60658CLBRT3737W	1312210242970	000080626	METHYL METHACRYLATE	TRI	2012	GC AMERICA INC	3737 W 127TH ST	ALSIP	COOK	IL	608031541	YES	NO	NO	NO								339114						41.661514	-87.71375	005473608										Through close material management practices and procedural practices waste has been reduced by over 6% even thought overall usage increased 41 percent.	NO	CORNELIUS_CAREY@GCAMERICA.COM			NO	 	
60419SFTYK633E1	1312210293849	000872504	N-METHYL-2-PYRROLIDONE	TRI	2012	SAFETY-KLEEN SYSTEMS	633 E 138TH ST	DOLTON	COOK	IL	60419	YES	NO	NO	NO								562211	562920					41.6445	-87.6062	809368954	130871700							SAFETY-KLEEN HOLDCO INC	809368954	SRNA:Since facility has no control over quantities being brought into facility by clients, we can not estimate any source reduction numbers for this chemical.	NO	LAUBSTEDJ@CLEANHARBORS.COM			NO	 	
62959DGRPH5307M	1312210135570	001330207	XYLENE (MIXED ISOMERS)	TRI	2012	DIAGRAPH MSP AN ITW CO	5307 MEADOWLAND PKWY	MARION	WILLIAMSON	IL	62959	YES	NO	NO	NO								339943						37.74012	-89.019574	193004454								ILLINOIS TOOL WORKS INC	005146428	Diagragh MSP will be eliminating the use of xylene in our products within the next two years.	NO	DJOHNSON@DIAGRAPHMS.COM			NO	 	
61821LLYNG17WWA	1312210064174	007440484	COBALT	TRI	2012	ILLINOIS NI CAST (DBA) ALLOY ENGINEERING & CASTING CO	1700 W WASHINGTON ST	CHAMPAIGN	CHAMPAIGN	IL	61821	YES	NO	NO	NO								331513						40.120832	-88.274951									WIRCO INC		All metal scrap material are reused in the melt process.	NO	JOE.WELLS@AECCO.COM			YES	 	
6055WPRDCR196BU	1312210099091	000108883	TOLUENE	TRI	2012	PRODUCERS CHEMICAL CO	1960 BUCKTAIL LN	SUGAR GROVE	KANE	IL	605549609	YES	NO	NO	NO								424690						41.761385	-88.487853	060179344										SRNA:Pollution prevention previously implemented- additional reduction does not appear technically or economically feasible.	NO	ROGERH@PRODUCERSCHEMICAL.COM			NO	 	
60434CTRPLROUTE	1312210234631	007440473	CHROMIUM	TRI	2012	CATERPILLAR INC- IMPLEMENT & STEERING SYSTEM (JOLIET IL)	2200 CHANNAHON RD	JOLIET	WILL	IL	60436	YES	NO	NO	NO								333120						41.490331	-88.13316	078409863								CATERPILLAR INC	005070479	Spent metal powder has been sent to a recycling facility to get reused to make  other products.	NO	DUGAN_JIM@CAT.COM			YES	 	
62510GSGRP14EIL	1312210320622	007440020	NICKEL	TRI	2012	GSI GROUP LLC	1004 E ILLINOIS ST	ASSUMPTION	CHRISTIAN	IL	62510	YES	NO	NO	NO								332999						39.518438	-89.037421	024928343								AGCO INC	618938260	The Lean manufacturing system was utilized to reduce waste.	NO	GDUDLEY@GSIAG.COM			YES	 	
6123WPTRTR11PAT	1312210587503	007664417	AMMONIA	TRI	2012	PATRIOT RENEWABLE FUELS LLC	101 PATRIOT WAY	ANNAWAN	HENRY	IL	61234	YES	NO	NO	NO								325193						41.391795	-89.875198	189371326										SRNA:Pollution prevention previously implemented - addition reduction does not appear technically or economically feasible.	NO	VMCCABE@PATRIOTETHANOL.COM			NO	 	
6170WRNKCN2152T	1312210124208	MIXTURE	MIXTURE	TRI	2012	ROANOKE CONCRETE PRODUCTS CO - BLOOMINGTON	2152 TRI-LAKES RD	BLOOMINGTON	MCLEAN	IL	61702	YES	NO	NO	NO								327320						40.45462	-88.97846	005228598								ROANOKE CONCRETE PRODUCTS CO		SRNA:Ready-mix batch plants and trucks have the proper engineering features to control various sources used in the operation.	NO	DANBENDER@FRONTIER.COM			NO	 	
6010WRNMLS55SPI	1312210527014	007664417	AMMONIA	TRI	2012	RANA MEAL SOLUTIONS LLC	550 SPITZER RD	BARTLETT	DUPAGE	IL	60103	YES	NO	NO	NO								311823						41.984995	-88.227681	042408163								RANA USA INC.		2012 was first year of production at this location.  Fugitive releases to atmosphere during shakedown of new refrigeration system; no other losses, releases, or disposal of this chemical.	NO	DIRELAN@RANAUSA.COM			NO	 	
60436KMLT 4050C	1312210594228	N096	COBALT COMPOUNDS	TRI	2012	CRANE COMPOSITES INC	23525 W EAMES ST	CHANNAHON	WILL	IL	604103220	YES	NO	NO	NO								326199						41.461609	-88.184151	005084199								CRANE CO	001280726	|W29:Minimize in-process material to prevent waste	NO	PMARGHERIO@CRANECOMPOSITES.COM			YES	 	
60436RVNCCI55FR	1312210281109	N120	DIISOCYANATES	TRI	2012	ROVANCO PIPING SYSTEMS INC	20535 SE FRONTAGE RD	JOLIET	WILL	IL	60431	YES	NO	NO	NO								332996						41.510386	-88.195835	878042993		ILD062481155								SRNA:Pollution prevention previously implemented- additional reduction does not appear technically or economically feasible.	NO	CHARLIERAY@ROVANCO.COM			NO	 	
6055WPRDCR196BU	1312210099065	000067561	METHANOL	TRI	2012	PRODUCERS CHEMICAL CO	1960 BUCKTAIL LN	SUGAR GROVE	KANE	IL	605549609	YES	NO	NO	NO								424690						41.761385	-88.487853	060179344										SRNA:Pollution prevention previously implemented- additional reduction does not appear technically or economically feasible.	NO	ROGERH@PRODUCERSCHEMICAL.COM			NO	 	
60506NTNLM900NR	1312210753529	007440508	COPPER	TRI	2012	NATIONAL METALWARES LP	900 N RUSSEL AVE	AURORA	KANE	IL	60506	YES	NO	NO	NO								331210						41.775126	-88.332366	059424598										|T11:Sent unused copper-based material for metal recycling off-site.	NO	THENDRICKS@NATIONALMETALWARES.COM			YES	 	
61109CHMPR3910L	1312210092678	000079016	TRICHLOROETHYLENE	TRI	2012	CHEM PROCESSING INC	3910 LINDEN OAKS DR	ROCKFORD	WINNEBAGO	IL	61109	YES	NO	NO	NO								332813						42.219121	-89.025004	055413801										In the latter half of 2011 and the beginning of 2012 we were using single stabilized TCE. THis resulted in multiple cleanings of our degreaser whcih generated a lot of waste.  We switched to a double stabilized TCE which has increased the efficiency of our degreaser and reduced the waste.|W41:In 2012 we switched from single to double stabilized TCE	NO	CCEDARLEAF@CHEMPROCESSING.COM			NO	 	
61602RCHRDFOOTO	1312210498008	000071432	BENZENE	TRI	2012	ADM	1 EDMUND ST	PEORIA	PEORIA	IL	616021737	YES	NO	NO	NO								325193						40.677272	-89.604665	038412078								ARCHER DANIELS MIDLAND CO	001307586	SRNA:Pollution prevention previously implemented- additional reduction does not appear technically or economically feasible.	NO	MEDIA@ADM.COM			NO	 	
60180TCHLLOLSON	1312210662060	007440020	NICKEL	TRI	2012	TECHALLOY CO INC	6509 OLSON RD	UNION	MCHENRY	IL	60180	YES	NO	NO	NO								331222						42.234383	-88.532091	002351070								TECHALLOY CO INC	002351070	6. Pollution prevention previously implemented- Additional reduction does not appear technically or economically feasible.   In addition waste quantity is directly related to production.  If productions goes up, waste generation goes up.  In addition, there are some "one time" events that may occur once every three or four years.	NO	RJOHNSON@CENTRALWIRE.COM			YES	 	
6156WRNKCN11CNC	1312210125492	MIXTURE	MIXTURE	TRI	2012	ROANOKE CONCRETE PRODUCTS CO - ROANOKE	101 CONCRETE DR	ROANOKE	WOODFORD	IL	61561	YES	NO	NO	NO								327320						40.797535	-89.191982	005228598								ROANOKE CONCRETE PRODUCTS CO		SRNA:Ready-mix batch plants and trucks have the proper engineering features to control various sources used in the operation.	NO	DANBENDER@FRONTIER.COM			NO	 	
60188KNSCS475RA	1312210181931	000108952	PHENOL	TRI	2012	KNS COS INC	475 RANDY RD	CAROL STREAM	DUPAGE	IL	60188	YES	NO	NO	NO								325510						41.907179	-88.104669	005171418										|W49:Use, storage and processing of pure Phenol solvent was discontinued. However, this is an important formulating agent which is a part of raw materials used in manufacturing.	NO	ATIETZ@KNSCOMPANIES.COM			NO	 	
61615PRDSP4349W	1312210563805	N495	NICKEL COMPOUNDS	TRI	2012	PEORIA DISPOSAL CO #1	4349 W SOUTHPORT RD	PEORIA	PEORIA	IL	61615	YES	NO	NO	NO								562212						40.721221	-89.661481	009848193								COULTER COS INC	618560221	NO|SRNA:The releases included in this report resulted from activities regulated by and in compliance with permits issued by the Illinois Environmental Protection Agency.  Most reported releases simply reflect the proper management and disposal of waste in permitted landfills which are designed and operated to prevent releases of TRI constituents to the environment from occurring.	NO	RWELK@PDCAREA.COM			YES	 	
60623CRWFR3501S	1312210415802	N458	MERCURY COMPOUNDS	PBT	2012	CRAWFORD GENERATING STATION	3501 S PULASKI	CHICAGO	COOK	IL	60623	YES	NO	NO	NO								221112						41.828784	-87.721854	114466571								EDISON INTERNATIONAL	195138458	SRNA:Facility closure on September 1, 2012	NO	DMCFARLAN@MWGEN.COM			YES	 	
6154WRNKCN1275S	1312210124703	MIXTURE	MIXTURE	TRI	2012	ROANOKE CONCRETE PRODUCTS CO - EAST PEORIA	1275 SPRING BAY RD	EAST PEORIA	WOODFORD	IL	61611	YES	NO	NO	NO								327320	327331					40.774317	-89.527693	005228598								ROANOKE CONCRETE PRODUCTS CO		SRNA:Ready-mix batch plants and trucks have the proper engineering features to control various sources used in the operation.	NO	DANBENDER@FRONTIER.COM			NO	 	
6154WRNKCN1275S	1312210124739	MIXTURE	MIXTURE	TRI	2012	ROANOKE CONCRETE PRODUCTS CO - EAST PEORIA	1275 SPRING BAY RD	EAST PEORIA	WOODFORD	IL	61611	YES	NO	NO	NO								327320	327331					40.774317	-89.527693	005228598								ROANOKE CONCRETE PRODUCTS CO		SRNA:Ready-mix batch plants and trucks have the proper engineering features to control various sources used in the operation.	NO	DANBENDER@FRONTIER.COM			NO	 	
62040MRCNS1700W	1312210175802	N120	DIISOCYANATES	TRI	2012	AMSTED RAIL CO INC	1700 WALNUT	GRANITE CITY	MADISON	IL	62040	YES	NO	NO	NO								331513						38.70316	-90.158809	826334729								AMSTED INDUSTRIES INC	046374062	Reduction in emissions directly related to production.	NO	JRICHARDSON@AMSTEDRAIL.COM			NO	 	
61265JHNDR5013R	1312210175384	N230	CERTAIN GLYCOL ETHERS	TRI	2012	JOHN DEERE SEEDING & CYLINDER	501 RIVER DR	MOLINE	ROCK ISLAND	IL	61265	YES	NO	NO	NO								333111						41.508446	-90.532961	144322419								DEERE & CO	005267471	The paint system that utilizes certain glycol ethers as part of its constituent products will be replaced in the second half of 2014.  The vast majority of the releses of glycol ethers will be removed from this plant.|SRNA:This paint system will be replaced in 2014.	NO	GOLDENKENNETHB@JOHNDEERE.COM			NO	 	
60901HNKLCSKENS	1312210420598	000108883	TOLUENE	TRI	2012	BASF CORP	2525 S KENSINGTON RD	KANKAKEE	KANKAKEE	IL	60901	YES	NO	NO	NO								325211						41.085542	-87.880542	114571107								BASF CORP	114571107	The Kankakee site was able to find a co-product opportunity for the recovered toluene waste stream.	NO	STEVE.HULL@BASF.COM			NO	 	
60160DSLRD1985J	1312210819367	007440508	COPPER	TRI	2012	DIESEL RADIATOR CO	1985 JANICE AVE	MELROSE PARK	COOK	IL	60160	YES	NO	NO	NO								332999	336399					41.909639	-87.887128	051928653								DIESEL RADIATOR CO	051928653	SRNA:Improved programming and nesting of sheet materials.  Scrap reduction through better utilization of raw materials through these programs.	NO				YES	 	
62525CTRPL27THP	1312210683660	007439965	MANGANESE	TRI	2012	CATERPILLAR INC DECATUR FAC	27TH ST & E PERSHING RD	DECATUR	MACON	IL	625261819	YES	NO	NO	NO								333120						39.878041	-88.917223	005070479								CATERPILLAR INC	005070479	Decrease in total release for this chemical was due to a a significant change in manufacturing process materials.  Change of fabrication media.	NO	DUGAN_JIM@CAT.COM			YES	 	
61641KYSTN7000S	1312210526810	N090	CHROMIUM COMPOUNDS(EXCEPT CHROMITE ORE MINED IN THE TRANSVAAL REGION)	TRI	2012	KEYSTONE STEEL & WIRE CO	7000 SW ADAMS ST	PEORIA	PEORIA	IL	61641	YES	NO	NO	NO								331111	332618	331222				40.641952	-89.646677	102195377								KEYSTONE CONSOLIDATED INDUSTRIES INC	005129309	Keystone has installed a gravity line to recirculate a portion of the Waste Water Treatment Plant effluent to the Power House Canal.  The water in the Power House Canal is pumped to the Wire Mill to be used as process water and also to the Steel Mill to be used as makeup water for cooling.  The Recirculation Line will significantly decrease the amount of water and trace levels of chromium discharged to the Illinois River.  The recirculation line was implemented in December 2012.	NO	STIRNAMA@KEYSTONESTEEL.COM			YES	 	
60044JSSPM1701R	1312210003063	000108883	TOLUENE	TRI	2012	JESSUP MANUFACTURING CO	1701 ROCKLAND RD	LAKE BLUFF	LAKE	IL	60044	YES	NO	NO	NO								313320						42.280633	-87.901472	005189006								JESSUP MANUFACTURING CO	005189006	See Form R for Hexane- Pertain to this chemical as well|W42:Alternative products used in manufacturing that do not contain this chemical.|T05:Collaboration with vendors to reduce costs and thus reduce the solvents used in manufacturting have helped lower the usage of this chemical.	NO	RJESSUP@JESSUPMFG.COM			NO	 	
60438BCHMC2700E	1312210267009	000067561	METHANOL	TRI	2012	NB COATINGS INC	2701 E 170TH ST	LANSING	COOK	IL	60438	YES	NO	NO	NO								325510						41.584935	-87.548243	085229448								NIPPON PAINT (USA) INC	787612795	|W82:Facility working towards formulating without HAP containing materials	NO	JWICKHAM@NBCOATINGS.COM			NO	 	
60614ZNGCH2001N	1312210196109	007439976	MERCURY	PBT	2012	OZINGA READY-MIX CONCRETE - NORTH SIDE YARD	2001 N MENDELL ST	CHICAGO	COOK	IL	60614	YES	NO	NO	NO								327320						41.918282	-87.665955									OZINGA BROS INC		SRNA:Use of material is a necessary component of production, and varies only as production varies depending on economic and market conditions.	NO	LLOYDMEYER@OZINGA.COM			YES	 	
60515RRWGR231CU	1312209967987	007440020	NICKEL	TRI	2012	ARROW GEAR INC	2301 CURTISS ST	DOWNERS GROVE	DUPAGE	IL	60515	YES	NO	NO	NO								333612						41.791784	-88.0416	005075205										SRNA:6. Pollution prevention previously implemented- additional reduction does not appear technically or economically feasible.	NO	MJCERVINKA@ARROWGEAR.COM			YES	 	
61630STPRP600WE	1312210544843	N230	CERTAIN GLYCOL ETHERS	TRI	2012	EAST PEORIA PLANT--TTTD & TBU	901 W WASHINGTON ST	EAST PEORIA	TAZEWELL	IL	616307600	YES	NO	NO	NO								333120						40.67649	-89.58879	005070479								CATERPILLAR INC	005070479	SRNA:6. Pollution prevention previously implemented- additional reduction does not appear technically or economically feasible.	NO	DUGAN_JIM@CAT.COM			NO	 	
62301HRRSC3200W	1312209971112	007439921	LEAD	TRI	2012	HARRIS CORP BROADCAST COMMUNICATION DIV	3200 WISMANN LN	QUINCY	ADAMS	IL	62305	YES	NO	NO	NO								334220						39.957179	-91.367458	021507686								HARRIS CORP	021507686	RoHS and continued phase-out of legacy product built using lead-based solder will drive these numbers down even further with ultimate elimination of this chemical by 2015.|SRNA:No barriers.  We are just continuing reductions utilizing plans made in years prior.	NO	JBURKE@HARRIS.COM			YES	 	
6008WCRPKM11ASB	1312210279966	000075092	DICHLOROMETHANE	TRI	2012	CORPAK MEDSYSTEMS	1001 ASBURY DR	BUFFALO GROVE	LAKE	IL	600894528	YES	NO	NO	NO								339113						42.17661	-87.9364	147530323								CORPAK MEDSYSTEMS INC	147530323	|T11:We changed delivery of chemical to stainless steel containers instead of drums.  The dispensing method is in a fume hood, and not transported through the room.  Fugitive losses have been significantly reduced.	NO	R.RUEDIGER@CORPAK.COM			NO	 	
61738DPNTLRT24E	1312210196642	021087649	METRIBUZIN	TRI	2012	DUPONT EL PASO PLANT	2830 US HWY 24	EL PASO	WOODFORD	IL	61738	YES	NO	NO	NO								325320						40.738345	-88.996573	089642474								E I DU PONT DE NEMOURS & CO	001315704	Volume differences can be related to two items. 1. an increase/decrease in production quantity of the material. 2. Better PM estimating techniques.	NO	DONALD.R.SIMONS@USA.DUPONT.COM			NO	 	
60085MDLND17EWA	1312209931260	N230	CERTAIN GLYCOL ETHERS	TRI	2012	AKZONOBEL AEROSPACE COATINGS	1 E WATER ST	WAUKEGAN	LAKE	IL	60085	YES	NO	NO	NO								325510						42.35804	-87.825897	174716113								AKZO NOBEL NV	062999347	|T04:Formulation adjustments on large batches were made to use the cleaning solvent in the next batch. Colaboration between R&D and production.	NO	CUSTOMER.SERVICE@AKZONOBEL.COM			NO	 	
6154WRNKCN1275S	1312210124653	MIXTURE	MIXTURE	TRI	2012	ROANOKE CONCRETE PRODUCTS CO - EAST PEORIA	1275 SPRING BAY RD	EAST PEORIA	WOODFORD	IL	61611	YES	NO	NO	NO								327320	327331					40.774317	-89.527693	005228598								ROANOKE CONCRETE PRODUCTS CO		SRNA:Ready-mix batch plants and trucks have the proper engineering features to control various sources used in the operation.	NO	DANBENDER@FRONTIER.COM			NO	 	
60438BCHMC2700E	1312210267035	000071363	N-BUTYL ALCOHOL	TRI	2012	NB COATINGS INC	2701 E 170TH ST	LANSING	COOK	IL	60438	YES	NO	NO	NO								325510						41.584935	-87.548243	085229448								NIPPON PAINT (USA) INC	787612795	|T01:Improved efficiency of in-house solvent still.  Less off-site solvent waste disposal.	NO	JWICKHAM@NBCOATINGS.COM			NO	 	
60438BCHMC2700E	1312210267047	000100425	STYRENE	TRI	2012	NB COATINGS INC	2701 E 170TH ST	LANSING	COOK	IL	60438	YES	NO	NO	NO								325510						41.584935	-87.548243	085229448								NIPPON PAINT (USA) INC	787612795	|W50:Continuous improvement in resin reaction process and cleaning process reduces reactant and cleaning solvent usage.	NO	JWICKHAM@NBCOATINGS.COM			NO	 	
60650LYMPC5000W	1312210817728	N982	ZINC COMPOUNDS	TRI	2012	DELTA COS GROUP DBA OLYMPIC OIL	5000 W 41ST ST	CICERO	COOK	IL	60804	YES	NO	NO	NO								324191						41.819595	-87.754767											Delta Companies Group has a continuous improvement system in place to monitor, track, record, and then improve upon packaging efficiencies and eliminating waste. Through this progrma Delta has worked with site employees and management to create a focused group working to eliminate waste.	NO	ALEX.GREVEN@DELTACOGROUP.COM			YES	 	
62839HLLLC111VI	1312210017428	007439921	LEAD	TRI	2012	HELLA ELECTRONICS CORP	1101 VINCENNES AVE	FLORA	CLAY	IL	62839	YES	NO	NO	NO								336322						38.670833	-88.468889	315970798								HELLA N.A.		|T01:Continue the process of replacing leaded solder paste with the lead free product.	NO	CARLOS.BOTERO@HELLA.COM			YES	 	
60180TCHLLOLSON	1312210662072	N511	NITRATE COMPOUNDS	TRI	2012	TECHALLOY CO INC	6509 OLSON RD	UNION	MCHENRY	IL	60180	YES	NO	NO	NO								331222						42.234383	-88.532091	002351070								TECHALLOY CO INC	002351070	6. Pollution prevention previously implemented- additional reduction does not appear technically or economically feasible.   In addition waste quantity is directly related to production.  If productions goes up, waste generation goes up.  I addition, there are some "one time" events that may occur once every three or four years.	NO	RJOHNSON@CENTRALWIRE.COM			NO	 	
60633FRDMT12600	1312210292722	000067561	METHANOL	TRI	2012	FORD MOTOR CO CHICAGO ASSEMBLY	12600 S TORRENCE AVE	CHICAGO	COOK	IL	60633	YES	NO	NO	NO								336111						41.665013	-87.560845	060364882								FORD MOTOR CO	001344746	SRNA:Ford Motor Company has a formal written Environmental Policy focused on protecting human health and the environment. The Company has committed to the International Chamber of Commerce "Principles for Environmental Management" and is a member of the World Business Council for Sustainable Development (WBCSD) and the Coalition for Environmentally Responsible Economies (CERES). Ford Motor Company also issues an annual Sustainability Report, which follows the Global Reporting Initiative (GRI) Guidelines for sustainability reporting. Ford is committed to pollution prevention. All manufacturing facilities worldwide have been third-party certified to the ISO 14001 standard.	NO	ADODSON1@FORD.COM			NO	 	
60185MTKNT1725W	1312210204145	N420	LEAD COMPOUNDS	PBT	2012	AMETEK NATIONAL CONTROLS CORP	1725 WESTERN DR	WEST CHICAGO	DUPAGE	IL	60185	YES	NO	NO	NO								335314						41.890574	-88.238088									AMETEK INC	001345149	SRNA:Reduced manufacturing at this facility as Company continues to move existing products to their Mexico facility. Transfers are being done in different phases.	NO	TONY.MALTESE@AMETEK.COM			YES	 	
62301MRMNM1000N	1312210301596	N982	ZINC COMPOUNDS	TRI	2012	ADM ALLIANCE NUTRITION INC	1000 N 30TH ST	QUINCY	ADAMS	IL	62305	YES	NO	NO	NO								311119						39.947546	-91.368249	849684428								ARCHER DANIELS MIDLAND CO	001307586	SRNA:Business volume drop due to drought.	NO	MEDIA@ADM.COM			YES	 	
62441TRWTR902SS	1312210582045	007440508	COPPER	TRI	2012	TRW AUTOMOTIVE	902 S 2ND ST	MARSHALL	CLARK	IL	62441	YES	NO	NO	NO								334418						39.383501	-87.699464	005476700								TRW INC	005476700	SRNA:Product quality may decline if source is reduced	NO	TIM.DOWNS@TRW.COM			YES	 	
6012WZNGRD125GI	1312210196236	007439921	LEAD	TRI	2012	OZINGA READY MIX CONCRETE INC - ELGIN	1250 GIFFORD RD	ELGIN	KANE	IL	60120	YES	NO	NO	NO								327320						42.008469	-88.242749									OZINGA BROS INC		SRNA:Use of material is a necessary component of production, and varies only as production varies depending on economic and market conditions.	NO	MIKECONQUEST@OZINGA.COM			YES	 	
60651DRBRN4421W	1312210162766	N100	COPPER COMPOUNDS	TRI	2012	DEARBORN/BELDEN CDT CO (DBA KERRIGANLLEWIS WIRE PRODICTS INC	4421 W RICE ST	CHICAGO	COOK	IL	60651	YES	NO	NO	NO								335929						41.895833	-87.736667	023001430								BELDEN INC	009178666	Implement lean principles - inventory management	NO	CKARNER@ALPHAWIRE.COM			YES	 	
6155WRNKCN1675S	1312210125175	MIXTURE	MIXTURE	TRI	2012	ROANOKE CONCRETE PRODUCTS CO - PEKIN	1675 S 2ND ST	PEKIN	TAZEWELL	IL	61554	YES	NO	NO	NO								327320						40.551325	-89.664571	005228598								ROANOKE CONCRETE PRODUCTS CO		SRNA:Ready-mix batch plants and trucks have the proper engineering features to control various sources used in the operation.	NO	DANBENDER@FRONTIER.COM			NO	 	
60608FSKGN1111W	1312210422984	N040	BARIUM COMPOUNDS	TRI	2012	FISK GENERATING STATION	1111 WCERMAK	CHICAGO	COOK	IL	60608	YES	NO	NO	NO								221112						41.8508	-87.6533	114466571								EDISON INTERNATIONAL	195138458	SRNA:Facility closure on September 1, 2012	NO				YES	 	
60176MRCNN9515W	1312210448320	007440473	CHROMIUM	TRI	2012	AMERICAN NTN BEARING MANUFACTURING CORP	9515 WINONA AVE	SCHILLER PARK	COOK	IL	60176	YES	NO	NO	NO								332991						41.971104	-87.865541	929312676								NTN USA CORP	621430610	SRNA:IMPLEMENTED RECYCLING OF GRINDING SWARF WHICH WAS THE ONLY LARGE GENERATOR OF WASTE FROM THE METAL GRINDING PROCESS	NO				YES	 	
6170WRNKCN2152T	1312210124222	MIXTURE	MIXTURE	TRI	2012	ROANOKE CONCRETE PRODUCTS CO - BLOOMINGTON	2152 TRI-LAKES RD	BLOOMINGTON	MCLEAN	IL	61702	YES	NO	NO	NO								327320						40.45462	-88.97846	005228598								ROANOKE CONCRETE PRODUCTS CO		SRNA:Ready-mix batch plants and trucks have the proper engineering features to control various sources used in the operation.	NO	DANBENDER@FRONTIER.COM			NO	 	
60521GRFFT7775Q	1312210139477	000107211	ETHYLENE GLYCOL	TRI	2012	STERIGENICS US LLC - WILLOWBROOK IL FACILITY	7775 S QUINCY ST	WILLOWBROOK	DUPAGE	IL	60527	YES	NO	NO	NO								561910						41.747778	-87.941389	118087779								STERIGENICS INTERNATIONAL INC	098499569	100% of the ethylene glycol manufactured as a byproduct material at the facility is sent to an off-site processor where it is used completely as an ingredient in the manufacture of anti-freeze.	NO	KHOFFMANN@STERIGENICS.COM			NO	 	
61802PLNGN2401N	1312209964396	N458	MERCURY COMPOUNDS	PBT	2012	APL ENGINEERED MATERIALS INC	2401 N WILLOW RD	URBANA	CHAMPAIGN	IL	61802	YES	NO	NO	NO								325188						40.1375	-88.20249	108630484								ADVANCED LIGHTING TECHNOLOGIES INC	107115396	SRNA:Pollution prevention previously implemented- additional reduction does not appear technically or economically feasible	NO	DENNIS_MILLER@ADLT.COM			YES	 	
60622NVRSL1523W	1312210221394	007440508	COPPER	TRI	2012	UNIVERSAL ELECTRIC FOUNDRY INC	1523 W HUBBARD ST	CHICAGO	COOK	IL	60642	YES	NO	NO	NO								331525	331513					41.889582	-87.666362											SCRAP MATERIAL IS BROKERED TO RECYCLER|SRNA:SCRAP IS EITHER REMELTED IF USABLE  OR SHIPPED TO BROKER FOR RESALE TO USER	NO	JIM@UNIVERSALFOUNDRY.COM			YES	 	
60658CLBRT3737W	1312210242982	N495	NICKEL COMPOUNDS	TRI	2012	GC AMERICA INC	3737 W 127TH ST	ALSIP	COOK	IL	608031541	YES	NO	NO	NO								339114						41.661514	-87.71375	005473608										SRNA:Pollution prevention previously implemented- additional reduction does not appear technically or economically feasible.	NO	CORNELIUS_CAREY@GCAMERICA.COM			YES	 	
61820DVNCD3206F	1312209994197	N120	DIISOCYANATES	TRI	2012	ADVANCED FILTRATION SYSTEMS INC	3206 FARBER DR	CHAMPAIGN	CHAMPAIGN	IL	618221084	YES	NO	NO	NO								336399						40.154382	-88.268451	155151418								DONALDSON CO INC	006477301	|W13:AFSI continued improvements to process and production scheduling, as well as production forecasting.	NO	JBAILEY@AFSIFILTERS.COM			NO	 	
60501SHLLC8600W	1312210320572	001330207	XYLENE (MIXED ISOMERS)	TRI	2012	MOMENTIVE SPECIALTY CHEMICALS INC	8600 W 71ST ST	BEDFORD PARK	COOK	IL	60501	YES	NO	NO	NO								325211						41.764532	-87.835256	001338797								MOMENTIVE PERFORMANCE MATERIALS HOLDINGS LLC	965214146	|W36:Began a LDAR program for system that contains this constituent.|W39:As open-ended lines are discovered, they are capped or plugged.	NO	RONALD.KUNSA@MOMENTIVE.COM			NO	 	
6156WRNKCN11CNC	1312210125441	MIXTURE	MIXTURE	TRI	2012	ROANOKE CONCRETE PRODUCTS CO - ROANOKE	101 CONCRETE DR	ROANOKE	WOODFORD	IL	61561	YES	NO	NO	NO								327320						40.797535	-89.191982	005228598								ROANOKE CONCRETE PRODUCTS CO		SRNA:Ready-mix batch plants and trucks have the proper engineering features to control various sources used in the operation.	NO	DANBENDER@FRONTIER.COM			NO	 	
60085MDLND17EWA	1312209931334	001330207	XYLENE (MIXED ISOMERS)	TRI	2012	AKZONOBEL AEROSPACE COATINGS	1 E WATER ST	WAUKEGAN	LAKE	IL	60085	YES	NO	NO	NO								325510						42.35804	-87.825897	174716113								AKZO NOBEL NV	062999347	|T04:Formulation adjustments on large batches were made to use the cleaning sovlent in the next batch. Colaboration between R&D and production.	NO	CUSTOMER.SERVICE@AKZONOBEL.COM			NO	 	
61615PRDSP4349W	1312210563829	N982	ZINC COMPOUNDS	TRI	2012	PEORIA DISPOSAL CO #1	4349 W SOUTHPORT RD	PEORIA	PEORIA	IL	61615	YES	NO	NO	NO								562212						40.721221	-89.661481	009848193								COULTER COS INC	618560221	NO|SRNA:The releases included in this report resulted from activities regulated by and in compliance with permits issued by the Illinois Environmental Protection Agency.  Most reported releases simply reflect the proper management and disposal of waste in permitted landfills which are designed and operated to prevent releases of TRI constituents to the environment from occurring.	NO	RWELK@PDCAREA.COM			YES	 	
60623CRWFR3501S	1312210415624	N040	BARIUM COMPOUNDS	TRI	2012	CRAWFORD GENERATING STATION	3501 S PULASKI	CHICAGO	COOK	IL	60623	YES	NO	NO	NO								221112						41.828784	-87.721854	114466571								EDISON INTERNATIONAL	195138458	SRNA:This facility was closed September 1, 2012	NO	DMCFARLAN@MWGEN.COM			YES	 	
61761DMNDS100ND	1312210569950	000100414	ETHYLBENZENE	TRI	2012	MITSUBISHI MOTORS NA INC	100 N MITSUBISHI MOTORWAY	NORMAL	MCLEAN	IL	61761	YES	NO	NO	NO								336111						40.508036	-89.054378	148393200								MITSUBISHI MOTORS N.A. INC		|W49:Amount of Ethyl Benzene in Purge solvent lowered.	NO	GARY.SHULTZ@MMMA-BN.COM			NO	 	
61738DPNTLRT24E	1312210196655	101200480	TRIBENURON METHYL	TRI	2012	DUPONT EL PASO PLANT	2830 US HWY 24	EL PASO	WOODFORD	IL	61738	YES	NO	NO	NO								325320						40.738345	-88.996573	089642474								E I DU PONT DE NEMOURS & CO	001315704	Volume differences can be related to two items. 1. an increase/decrease in production quantity of the material. 2. Better PM estimating techniques.	NO	DONALD.R.SIMONS@USA.DUPONT.COM			NO	 	
61802GRDNW601GU	1312210446302	N495	NICKEL COMPOUNDS	TRI	2012	GUARDIAN WEST	601 GUARDIAN DR	URBANA	CHAMPAIGN	IL	61802	YES	NO	NO	NO								336399						40.118482	-88.185046	048140698								FLEX-N-GATE CORP	048140698	SRNA:CONCERN THAT PRODUCT QUALITY MAY DECLINE AS A RESULT OF SOURCE REDUCTION	NO	GARY.REED@FLEX-N-GATE.COM			YES	 	
6170WRNKCN2152T	1312210124184	MIXTURE	MIXTURE	TRI	2012	ROANOKE CONCRETE PRODUCTS CO - BLOOMINGTON	2152 TRI-LAKES RD	BLOOMINGTON	MCLEAN	IL	61702	YES	NO	NO	NO								327320						40.45462	-88.97846	005228598								ROANOKE CONCRETE PRODUCTS CO		SRNA:Ready-mix batch plants and trucks have the proper engineering features to control various sources used in the operation.	NO	DANBENDER@FRONTIER.COM			NO	 	
6155WRNKCN1391L	1312210124970	MIXTURE	MIXTURE	TRI	2012	ROANOKE CONCRETE PRODUCTS CO - MOSSVILLE	13910 OLD GALENA RD	MOSSVILLE	PEORIA	IL	61552	YES	NO	NO	NO								327320						40.856367	-89.563043	005228598								ROANOKE CONCRETE PRODUCTS CO		SRNA:Ready-mix batch plants and trucks have the proper engineering features to control various sources used in the operation.	NO	DANBENDER@FRONTIER.COM			NO	 	
61615PRDSP4349W	1312210563767	N420	LEAD COMPOUNDS	PBT	2012	PEORIA DISPOSAL CO #1	4349 W SOUTHPORT RD	PEORIA	PEORIA	IL	61615	YES	NO	NO	NO								562212						40.721221	-89.661481	009848193								COULTER COS INC	618560221	NO|SRNA:The releases included in this report resulted from activities regulated by and in compliance with permits issued by the Illinois Environmental Protection Agency.  Most reported releases simply reflect the proper management and disposal of waste in permitted landfills which are designed and operated to prevent releases of TRI constituents to the environment from occurring.	NO	RWELK@PDCAREA.COM			YES	 	
60419SFTYK633E1	1312210293787	000100414	ETHYLBENZENE	TRI	2012	SAFETY-KLEEN SYSTEMS	633 E 138TH ST	DOLTON	COOK	IL	60419	YES	NO	NO	NO								562211	562920					41.6445	-87.6062	809368954	130871700							SAFETY-KLEEN HOLDCO INC	809368954	SRNA:Since facility has no control over quantities being brought into facility by clients, we can not estimate any source reduction numbers for this chemical.	NO	LAUBSTEDJ@CLEANHARBORS.COM			NO	 	
60419SFTYK633E1	1312210293876	000127184	TETRACHLOROETHYLENE	TRI	2012	SAFETY-KLEEN SYSTEMS	633 E 138TH ST	DOLTON	COOK	IL	60419	YES	NO	NO	NO								562211	562920					41.6445	-87.6062	809368954	130871700							SAFETY-KLEEN HOLDCO INC	809368954	SRNA:Since facility has no control over quantities being brought into facility by clients, we can not estimate any source reduction numbers for this chemical.	NO	LAUBSTEDJ@CLEANHARBORS.COM			NO	 	
61081STRLN101AV	1312210631293	N458	MERCURY COMPOUNDS	PBT	2012	STERLING STEEL CO LLC	101 AVE K	STERLING	WHITESIDE	IL	610813229	YES	NO	NO	NO								331111						41.786281	-89.709809	106740561								LEGGETT & PLATT INC	007140064	SSC continues to send millscale to a cement company for recycling.  Some grades of cement require additional iron units.  In previous years this material was landfilled.	NO	CROBBINS@SSCLLC.COM			YES	 	
60473GRTLR15475	1312210366605	N230	CERTAIN GLYCOL ETHERS	TRI	2012	GURTLER INDUSTRIES INC	15475 S LASALLE ST	SOUTH HOLLAND	COOK	IL	60473	YES	NO	NO	NO								325611						41.614935	-87.621246	018101329										|W42:Replacing EB with more environmentally preferred DPM and reformulating products to use less glycol ethers.|T09:participating in TRSA's environmental stewardship program and converting from NPE surfactants to LAE surfactants	NO	SJTINKER@GURTLER.COM			NO	 	
61630STPRP600WE	1312210544920	007632000	SODIUM NITRITE	TRI	2012	EAST PEORIA PLANT--TTTD & TBU	901 W WASHINGTON ST	EAST PEORIA	TAZEWELL	IL	616307600	YES	NO	NO	NO								333120						40.67649	-89.58879	005070479								CATERPILLAR INC	005070479	SRNA:6. Pollution prevention previously implemented- additional reduction does not appear technically or economically feasible.	NO	DUGAN_JIM@CAT.COM			YES	 	
6143WBRNCH52SEI	1312210473183	N100	COPPER COMPOUNDS	TRI	2012	BRANCHFIELD CASTING	502 SE INDUSTRIAL AVE	GALVA	HENRY	IL	61434	YES	NO	NO	NO								331513	331528					41.161777	-90.022913											SRNA:Pollution prevention previously implemented- additional reduction does not appear technically or economically feasible	NO	TODDB@QCML.COM			YES	 	
61938NMTNCEASTR	1312210591234	007440508	COPPER	TRI	2012	ANAMET ELECTRICAL INC	1000 BROADWAY E	MATTOON	COLES	IL	61938	YES	NO	NO	NO								332999						39.482534	-88.366848	109135715								ANAMET INC		SRNA:Increased productivity at the previous scrap rate.	NO	RON@ANAMETELECTRICAL.COM			YES	 	
6049WSRTGF771WC	1312210496699	007632000	SODIUM NITRITE	TRI	2012	SARATOGA FOOD SPECIALTIES	771 W CROSSROADS PKWY	BOLINGBROOK	WILL	IL	60490	YES	NO	NO	NO								311942						41.66235	-88.09979	829397533								PATRICK CUDAHY	043205053	SRNA:Production demands for this product decreased from 2011 to 2012, thus the reduction in raw materials used.	NO	JBEJNA@SARATOGAFS.COM			YES	 	
6001WZNGRD2WJAR	1312210196287	007439921	LEAD	TRI	2012	OZINGA READY-MIX CONCRETE DESPLAINES YARD	200 W JARVIS RD	DES PLAINES	COOK	IL	60016	YES	NO	NO	NO								327320						42.012952	-87.924302									OZINGA BROS INC		SRNA:Use of material is a necessary component of production, and varies only as production varies depending on economic and market conditions.	NO	LLOYDMEYER@OZINGA.COM			YES	 	
60510DYNTR1333N	1312210756639	N511	NITRATE COMPOUNDS	TRI	2012	VARN INTERNATIONAL	1333 N KIRK RD	BATAVIA	KANE	IL	60510	YES	NO	NO	NO								325998						41.864671	-88.28096	836292151								FLINT GROUP	623339066	SRNA:3	NO	FRANK.SCHREINER@FLINTGRP.COM			NO	 	
61615PRDSP4349W	1312210563704	N090	CHROMIUM COMPOUNDS(EXCEPT CHROMITE ORE MINED IN THE TRANSVAAL REGION)	TRI	2012	PEORIA DISPOSAL CO #1	4349 W SOUTHPORT RD	PEORIA	PEORIA	IL	61615	YES	NO	NO	NO								562212						40.721221	-89.661481	009848193								COULTER COS INC	618560221	NO|SRNA:The releases included in this report resulted from activities regulated by and in compliance with permits issued by the Illinois Environmental Protection Agency.  Most reported releases simply reflect the proper management and disposal of waste in permitted landfills which are designed and operated to prevent releases of TRI constituents to the environment from occurring.	NO	RWELK@PDCAREA.COM			YES	 	
61615PRDSP4349W	1312210563716	N100	COPPER COMPOUNDS	TRI	2012	PEORIA DISPOSAL CO #1	4349 W SOUTHPORT RD	PEORIA	PEORIA	IL	61615	YES	NO	NO	NO								562212						40.721221	-89.661481	009848193								COULTER COS INC	618560221	NO|SRNA:The releases included in this report resulted from activities regulated by and in compliance with permits issued by the Illinois Environmental Protection Agency.  Most reported releases simply reflect the proper management and disposal of waste in permitted landfills which are designed and operated to prevent releases of TRI constituents to the environment from occurring.	NO	RWELK@PDCAREA.COM			YES	 	
60466MCNTY1000G	1312210595878	000067561	METHANOL	TRI	2012	RHODIA INC	24601 GOVERNORS HWY	UNIVERSITY PARK	WILL	IL	60484	YES	NO	NO	NO								325613						41.442734	-87.730645	074421462								SOLVAY AMERICA INC		Improved pressure control of methanol stripping steps during batch reactions.	NO	JEFFREY.CHOU@SOLVAY.COM			NO	 	
60123MRCNN1500H	1312210804009	007440020	NICKEL	TRI	2012	AMERICAN NTN BEARING MANUFACTURING CORP	1500 HOLMES RD	ELGIN	KANE	IL	60123	YES	NO	NO	NO								332991						42.071076	-88.31488	054336565								NTN USA CORP	621430610	Facility continues to see production growth at rate of 25% in 2012 verses 2011 production data.	NO	BFUHRER@ANBMNTN.COM			YES	 	
61641KYSTN7000S	1312210526834	N100	COPPER COMPOUNDS	TRI	2012	KEYSTONE STEEL & WIRE CO	7000 SW ADAMS ST	PEORIA	PEORIA	IL	61641	YES	NO	NO	NO								331111	332618	331222				40.641952	-89.646677	102195377								KEYSTONE CONSOLIDATED INDUSTRIES INC	005129309	Keystone has installed a gravity line to recirculate a portion of the Waste Water Treatment Plant effluent to the Power House Canal.  The water in the Power House Canal is pumped to the Wire Mill to be used as process water and also to the Steel Mill to be used as makeup water for cooling.  The Recirculation Line will significantly decrease the amount of water and trace levels of copper discharged to the Illinois River.  The recirculation line was implemented in December 2012.	NO	STIRNAMA@KEYSTONESTEEL.COM			YES	 	
60623CRWFR3501S	1312210415598	007664417	AMMONIA	TRI	2012	CRAWFORD GENERATING STATION	3501 S PULASKI	CHICAGO	COOK	IL	60623	YES	NO	NO	NO								221112						41.828784	-87.721854	114466571								EDISON INTERNATIONAL	195138458	SRNA:This facility was retired September 1, 2012	NO	DMCFARLAN@MWGEN.COM			NO	 	
6154WRNKCN1275S	1312210124689	MIXTURE	MIXTURE	TRI	2012	ROANOKE CONCRETE PRODUCTS CO - EAST PEORIA	1275 SPRING BAY RD	EAST PEORIA	WOODFORD	IL	61611	YES	NO	NO	NO								327320	327331					40.774317	-89.527693	005228598								ROANOKE CONCRETE PRODUCTS CO		SRNA:Ready-mix batch plants and trucks have the proper engineering features to control various sources used in the operation.	NO	DANBENDER@FRONTIER.COM			NO	 	
60438BCHMC2700E	1312210266995	000100414	ETHYLBENZENE	TRI	2012	NB COATINGS INC	2701 E 170TH ST	LANSING	COOK	IL	60438	YES	NO	NO	NO								325510						41.584935	-87.548243	085229448								NIPPON PAINT (USA) INC	787612795	|W82:Facility working towards formulating without HAP containing materials.	NO	JWICKHAM@NBCOATINGS.COM			NO	 	
60419SFTYK633E1	1312210293801	000067561	METHANOL	TRI	2012	SAFETY-KLEEN SYSTEMS	633 E 138TH ST	DOLTON	COOK	IL	60419	YES	NO	NO	NO								562211	562920					41.6445	-87.6062	809368954	130871700							SAFETY-KLEEN HOLDCO INC	809368954	SRNA:Since facility has no control over quantities being brought into facility by clients, we can not estimate any source reduction numbers for this chemical.	NO	LAUBSTEDJ@CLEANHARBORS.COM			NO	 	
60608MRSCM2857S	1312210726244	000067561	METHANOL	TRI	2012	ENGINEERED GLASS PRODUCTS LLC	2857 S HALSTED	CHICAGO	COOK	IL	606085945	YES	NO	NO	NO								327215						41.841893	-87.646052	005473129								ENGINEERED GLASS PRODUCTS LLC		Process work standards changed to minimize waste generation	NO	FREDF@EGPGLASS.COM			NO	 	
60180TCHLLOLSON	1312210662058	007439965	MANGANESE	TRI	2012	TECHALLOY CO INC	6509 OLSON RD	UNION	MCHENRY	IL	60180	YES	NO	NO	NO								331222						42.234383	-88.532091	002351070								TECHALLOY CO INC	002351070	6. Pollution prevention previously implemented- Additional reduction does not appear technically or economically feasible.   In addition waste quantity is directly related to production.  If productions goes up, waste generation goes up.  In addition, there are some "one time" events that may occur once every three or four years.	NO	RJOHNSON@CENTRALWIRE.COM			YES	 	
60633FRDMT12600	1312210292621	007440508	COPPER	TRI	2012	FORD MOTOR CO CHICAGO ASSEMBLY	12600 S TORRENCE AVE	CHICAGO	COOK	IL	60633	YES	NO	NO	NO								336111						41.665013	-87.560845	060364882								FORD MOTOR CO	001344746	SRNA:Ford Motor Company has a formal written Environmental Policy focused on protecting human health and the environment. The Company has committed to the International Chamber of Commerce "Principles for Environmental Management" and is a member of the World Business Council for Sustainable Development (WBCSD) and the Coalition for Environmentally Responsible Economies (CERES). Ford Motor Company also issues an annual Sustainability Report, which follows the Global Reporting Initiative (GRI) Guidelines for sustainability reporting. Ford is committed to pollution prevention. All manufacturing facilities worldwide have been third-party certified to the ISO 14001 standard.	NO	ADODSON1@FORD.COM			YES	 	
60510DYNTR1333N	1312210756615	000107211	ETHYLENE GLYCOL	TRI	2012	VARN INTERNATIONAL	1333 N KIRK RD	BATAVIA	KANE	IL	60510	YES	NO	NO	NO								325998						41.864671	-88.28096	836292151								FLINT GROUP	623339066	SRNA:3	NO	FRANK.SCHREINER@FLINTGRP.COM			NO	 	
6154WRNKCN1275S	1312210124754	MIXTURE	MIXTURE	TRI	2012	ROANOKE CONCRETE PRODUCTS CO - EAST PEORIA	1275 SPRING BAY RD	EAST PEORIA	WOODFORD	IL	61611	YES	NO	NO	NO								327320	327331					40.774317	-89.527693	005228598								ROANOKE CONCRETE PRODUCTS CO		SRNA:Ready-mix trucks and batch plants have the proper engineering features to control various sources used in the operation.	NO	DANBENDER@FRONTIER.COM			NO	 	
60438BCHMC2700E	1312210267011	000108101	METHYL ISOBUTYL KETONE	TRI	2012	NB COATINGS INC	2701 E 170TH ST	LANSING	COOK	IL	60438	YES	NO	NO	NO								325510						41.584935	-87.548243	085229448								NIPPON PAINT (USA) INC	787612795	|T01:Improved efficiency of in-house solvent still.  Less off-site solvent waste disposal.	NO	JWICKHAM@NBCOATINGS.COM			NO	 	
61630STPRP600WE	1312210544831	007664417	AMMONIA	TRI	2012	EAST PEORIA PLANT--TTTD & TBU	901 W WASHINGTON ST	EAST PEORIA	TAZEWELL	IL	616307600	YES	NO	NO	NO								333120						40.67649	-89.58879	005070479								CATERPILLAR INC	005070479	SRNA:6. Pollution prevention previously implemented- additional reduction does not appear technically or economically feasible.	NO	DUGAN_JIM@CAT.COM			NO	 	
60434CTRPLROUTE	1312210234643	N090	CHROMIUM COMPOUNDS(EXCEPT CHROMITE ORE MINED IN THE TRANSVAAL REGION)	TRI	2012	CATERPILLAR INC- IMPLEMENT & STEERING SYSTEM (JOLIET IL)	2200 CHANNAHON RD	JOLIET	WILL	IL	60436	YES	NO	NO	NO								333120						41.490331	-88.13316	078409863								CATERPILLAR INC	005070479	Spent metal powder has been sent to a recycling facility to get reused to make  other products.	NO	DUGAN_JIM@CAT.COM			YES	 	
6053WZNGRD122SU	1312210196313	007439976	MERCURY	PBT	2012	OZINGA READY MIX CONCRETE INC - MONTGOMERY	1220 S LAKE ST	MONTGOMERY	KANE	IL	60538	YES	NO	NO	NO								327320						41.736499	-88.341571									OZINGA BROS INC		SRNA:Use of material is a necessary component of production, and varies only as production varies depending on economic and market conditions.	NO	MIKECONQUEST@OZINGA.COM			YES	 	
61641KYSTN7000S	1312210526859	N450	MANGANESE COMPOUNDS	TRI	2012	KEYSTONE STEEL & WIRE CO	7000 SW ADAMS ST	PEORIA	PEORIA	IL	61641	YES	NO	NO	NO								331111	332618	331222				40.641952	-89.646677	102195377								KEYSTONE CONSOLIDATED INDUSTRIES INC	005129309	Keystone has installed a gravity line to recirculate a portion of the Waste Water Treatment Plant effluent to the Power House Canal.  The water in the Power House Canal is pumped to the Wire Mill to be used as process water and also to the Steel Mill to be used as makeup water for cooling.  The Recirculation Line will significantly decrease the amount of water and trace levels of manganese discharged to the Illinois River.  The recirculation line was implemented in December 2012.	NO	STIRNAMA@KEYSTONESTEEL.COM			YES	 	
60438BCHMC2700E	1312210266932	000095636	1,2,4-TRIMETHYLBENZENE	TRI	2012	NB COATINGS INC	2701 E 170TH ST	LANSING	COOK	IL	60438	YES	NO	NO	NO								325510						41.584935	-87.548243	085229448								NIPPON PAINT (USA) INC	787612795	|T01:Improved efficiency of in-house solvent still.  Less off-site solvent waste disposal.	NO	JWICKHAM@NBCOATINGS.COM			NO	 	
60406BTLSP131ST	1312209962341	000098828	CUMENE	TRI	2012	BLUE ISLAND PHENOL LLC	3350 W 131ST ST	ALSIP	COOK	IL	60803	YES	NO	NO	NO								325110	325199					41.656662	-87.705559	828384342								BLUE ISLAND PHENOL LLC	828384342	Blue Island Phenol LLC (BIP) utilizes a larger Carbon Bed for adsorption at the end of the Phenol Unit.  This larger Carbon Bed system adsorbs more benzene and cumene than the old, much smaller Carbon Bed. Thus, the amount of benzene and cumene that filter through On-Site Treatment Processes (Gaseous and Wastewater) after the Carbon Bed system, has decreased significantly. Therefore, the value in Section 8.6 for 'Quantity Treated On Site' has decreased significantly.  The 2011 values in Section 8.6 were a gross overestimation.  The large Carbon Bed was installed in 2010, and thus the 2011 values in Section 8.6 should have been less.	NO	BILL.MOFFATT@BIPHENOL.COM			NO	 	
60633FRDMT12600	1312210292811	N511	NITRATE COMPOUNDS	TRI	2012	FORD MOTOR CO CHICAGO ASSEMBLY	12600 S TORRENCE AVE	CHICAGO	COOK	IL	60633	YES	NO	NO	NO								336111						41.665013	-87.560845	060364882								FORD MOTOR CO	001344746	SRNA:Ford Motor Company has a formal written Environmental Policy focused on protecting human health and the environment. The Company has committed to the International Chamber of Commerce "Principles for Environmental Management" and is a member of the World Business Council for Sustainable Development (WBCSD) and the Coalition for Environmentally Responsible Economies (CERES). Ford Motor Company also issues an annual Sustainability Report, which follows the Global Reporting Initiative (GRI) Guidelines for sustainability reporting. Ford is committed to pollution prevention. All manufacturing facilities worldwide have been third-party certified to the ISO 14001 standard.	NO	ADODSON1@FORD.COM			NO	 	
6156WRNKCN11CNC	1312210125478	MIXTURE	MIXTURE	TRI	2012	ROANOKE CONCRETE PRODUCTS CO - ROANOKE	101 CONCRETE DR	ROANOKE	WOODFORD	IL	61561	YES	NO	NO	NO								327320						40.797535	-89.191982	005228598								ROANOKE CONCRETE PRODUCTS CO		SRNA:Ready-mix batch plants and trucks have the proper engineering features to control various sources used in the operation.	NO	DANBENDER@FRONTIER.COM			NO	 	
60178SYMRF917CR	1312210486965	000100414	ETHYLBENZENE	TRI	2012	SEYMOUR OF SYCAMORE INC	917 CROSBY AVE	SYCAMORE	DEKALB	IL	601781394	YES	NO	NO	NO								325510						41.993488	-88.698188	005100789										SRNA:This product saw an increase in use in our final products.	NO	BZANELLATO@SEYMOURPAINT.COM			NO	 	
61554HNNST220HA	1312210475796	N090	CHROMIUM COMPOUNDS(EXCEPT CHROMITE ORE MINED IN THE TRANSVAAL REGION)	TRI	2012	HANNA STEEL CORP	220 HANNA DR	PEKIN	TAZEWELL	IL	61554	YES	NO	NO	NO								332812	331210					40.544809	-89.658304	041919379								HANNA STEEL CORP		Used Paint that was chrome free. The only chrome used was a component of the steel.	NO	DFRANTZ@HANNASTEEL.COM			YES	 	
6154WRNKCN1275S	1312210124715	MIXTURE	MIXTURE	TRI	2012	ROANOKE CONCRETE PRODUCTS CO - EAST PEORIA	1275 SPRING BAY RD	EAST PEORIA	WOODFORD	IL	61611	YES	NO	NO	NO								327320	327331					40.774317	-89.527693	005228598								ROANOKE CONCRETE PRODUCTS CO		SRNA:Ready-mix batch plants and trucks have the proper engineering features to control various sources used in the operation.	NO	DANBENDER@FRONTIER.COM			NO	 	
61630STPRP600WE	1312210544906	000067561	METHANOL	TRI	2012	EAST PEORIA PLANT--TTTD & TBU	901 W WASHINGTON ST	EAST PEORIA	TAZEWELL	IL	616307600	YES	NO	NO	NO								333120						40.67649	-89.58879	005070479								CATERPILLAR INC	005070479	SRNA:6. Pollution prevention previously implemented- additional reduction does not appear technically or economically feasible.	NO	DUGAN_JIM@CAT.COM			NO	 	
60411FRDMT1000E	1312210378358	007439921	LEAD	TRI	2012	FORD MOTOR CO CHICAGO STAMPING PLANT	1000 E LINCOLN HWY	CHICAGO HEIGHTS	COOK	IL	60411	YES	NO	NO	NO								336370						41.503522	-87.601409	005180641								FORD MOTOR CO	001344746	SRNA:Ford Motor Company has a formal written Environmental Policy focused on protecting human health and the environment. The Company has committed to the International Chamber of Commerce "Principles for Environmental Management" and is a member of the World Business Council for Sustainable Development (WBCSD) and the Coalition for Environmentally Responsible Economies (CERES). Ford Motor Company also issues an annual Sustainability Report, which follows the Global Reporting Initiative (GRI) Guidelines for sustainability reporting. Ford is committed to pollution prevention. All manufacturing facilities worldwide have been third-party certified to the ISO 14001 standard.	NO	CCHERVEN@FORD.COM			YES	 	
61554HNNST220HA	1312210475772	000095636	1,2,4-TRIMETHYLBENZENE	TRI	2012	HANNA STEEL CORP	220 HANNA DR	PEKIN	TAZEWELL	IL	61554	YES	NO	NO	NO								332812	331210					40.544809	-89.658304	041919379								HANNA STEEL CORP		Currently operating at maximum efficiency with air scrubber of 95.5% removal and an oxidizer system that has a 99.9% removal rating. The remainder of the chemicals used are shipped to two energy recovery companies to be used for fuel. This applies to all chemicals except chrome which, we have changed products to virtually all chrome free paint. The remaining chrome is a component of the steel product itself and scrap steel is also reclaimed for reuse.|SRNA:Current barriers to reduction are that chrome has not been removed from hot or cold rolled steel and the other chemicals can not be removed from paint or suitably replaced at this time by the manufacturers.	NO	DFRANTZ@HANNASTEEL.COM			NO	 	
61761DMNDS100ND	1312210570065	000108883	TOLUENE	TRI	2012	MITSUBISHI MOTORS NA INC	100 N MITSUBISHI MOTORWAY	NORMAL	MCLEAN	IL	61761	YES	NO	NO	NO								336111						40.508036	-89.054378	148393200								MITSUBISHI MOTORS N.A. INC		SRNA:reformulation of purge solvent to remove toluene is not feasible at this time.	NO	GARY.SHULTZ@MMMA-BN.COM			NO	 	
60007RCTRN1150P	1312210610681	007439921	LEAD	TRI	2012	ARC-TRONICS INC	1150 PAGNI DR	ELK GROVE VILLAGE	COOK	IL	60007	YES	NO	NO	NO								334418						42.027613	-87.968025	059428250										Lead-Free solders continue to increase in our industry. Out of our current customer base only 15% are requiring lead-free solders. We continue to see increase in customers designed product that will require lead-free solder. The additional lead-free requirements should have a direct effect on the leaded products we build, resulting in a reduction in use of leaded solders.|SRNA:Source reduction has been an ongoing process at our facility. Our manufacturing equipment and maintenance programs have all been setup to minimize the lead waste. All lead waste streams that are generated are send off site for recycling. Our industry has been and is continuing it's journey in replacing leaded solders with lead-free solders. Since we are custom assembly manufacture, and we do not design the products we build, we must rely on our customers to design out the use of leaded solders. Many of our customers are medical, defense and aerospace, which currently have exemptions in the use of lead-free solders. These exemptions will be expired in the 12 - 24 months, so we anticipate our customers redesigning their products, using lead-free solders. These redesigns will have a direct effect on our use of leaded solders, therefore we will see a reduction in the use of these materials.	NO	MATTHEWG@ARC-TRONICS.COM			YES	 	
61554QKRTS1650S	1312210344127	N420	LEAD COMPOUNDS	PBT	2012	GRAPHIC PACKAGING INTERNATIONAL INC	1525 S SECOND ST	PEKIN	TAZEWELL	IL	61554	YES	NO	NO	NO								322130						40.552449	-89.665804									GRAPHIC PACKAGING INTERNATIONAL INC	808839062	|W51:Increased the ability to recycle more mill water, instead of bringing in more fresh water, which closes up our system, reducing our effluent discharge.	NO	JEFFREY.LYMAN@GRAPHICPKG.COM			YES	 	
61630STPRP600WE	1312210544882	000107211	ETHYLENE GLYCOL	TRI	2012	EAST PEORIA PLANT--TTTD & TBU	901 W WASHINGTON ST	EAST PEORIA	TAZEWELL	IL	616307600	YES	NO	NO	NO								333120						40.67649	-89.58879	005070479								CATERPILLAR INC	005070479	SRNA:6. Pollution prevention previously implemented- additional reduction does not appear technically or economically feasible.	NO	DUGAN_JIM@CAT.COM			NO	 	
60466MCNTY1000G	1312210595803	000079118	CHLOROACETIC ACID	TRI	2012	RHODIA INC	24601 GOVERNORS HWY	UNIVERSITY PARK	WILL	IL	60484	YES	NO	NO	NO								325613						41.442734	-87.730645	074421462								SOLVAY AMERICA INC		SRNA:Chemical is essential to certain product families; storage is already a closed system with negligible emissions.	NO	JEFFREY.CHOU@SOLVAY.COM			NO	 	
61081STRLN101AV	1312210631166	N420	LEAD COMPOUNDS	PBT	2012	STERLING STEEL CO LLC	101 AVE K	STERLING	WHITESIDE	IL	610813229	YES	NO	NO	NO								331111						41.786281	-89.709809	106740561								LEGGETT & PLATT INC	007140064	SSC continues to send millscale to a cement company for recycling.  Some grades of cement require additional iron units.  In previous years this material was landfilled.	NO	CROBBINS@SSCLLC.COM			YES	 	
61821LLYNG17WWA	1312210064162	007440473	CHROMIUM	TRI	2012	ILLINOIS NI CAST (DBA) ALLOY ENGINEERING & CASTING CO	1700 W WASHINGTON ST	CHAMPAIGN	CHAMPAIGN	IL	61821	YES	NO	NO	NO								331513						40.120832	-88.274951									WIRCO INC		All scrap materials are reused in the melt process.	NO	JOE.WELLS@AECCO.COM			YES	 	
60633FRDMT12600	1312210292746	000108101	METHYL ISOBUTYL KETONE	TRI	2012	FORD MOTOR CO CHICAGO ASSEMBLY	12600 S TORRENCE AVE	CHICAGO	COOK	IL	60633	YES	NO	NO	NO								336111						41.665013	-87.560845	060364882								FORD MOTOR CO	001344746	SRNA:Ford Motor Company has a formal written Environmental Policy focused on protecting human health and the environment. The Company has committed to the International Chamber of Commerce "Principles for Environmental Management" and is a member of the World Business Council for Sustainable Development (WBCSD) and the Coalition for Environmentally Responsible Economies (CERES). Ford Motor Company also issues an annual Sustainability Report, which follows the Global Reporting Initiative (GRI) Guidelines for sustainability reporting. Ford is committed to pollution prevention. All manufacturing facilities worldwide have been third-party certified to the ISO 14001 standard.	NO	ADODSON1@FORD.COM			NO	 	
6183WRGDNV3NAND	1312210474108	000067561	METHANOL	TRI	2012	REG DANVILLE LLC	300 N ANDERSON ST	DANVILLE	VERMILION	IL	61832	YES	NO	NO	NO								325199						40.128787	-87.61792									RENEWABLE ENERGY GROUP INC		|W58:Implemented fresh feedstock to scrubber flow to reduce methanol air emissions.	NO	BRUCE.LUTES@REGI.COM			NO	 	
60406BTLSP131ST	1312209962339	000071432	BENZENE	TRI	2012	BLUE ISLAND PHENOL LLC	3350 W 131ST ST	ALSIP	COOK	IL	60803	YES	NO	NO	NO								325110	325199					41.656662	-87.705559	828384342								BLUE ISLAND PHENOL LLC	828384342	Blue Island Phenol LLC (BIP) utilizes a larger Carbon Bed for adsorption at the end of the Phenol Unit.  This larger Carbon Bed system adsorbs more benzene and cumene than the old, much smaller Carbon Bed. Thus, the amount of benzene and cumene that filter through On-Site Treatment Processes (Gaseous and Wastewater) after the Carbon Bed system, has decreased significantly. Therefore, the value in Section 8.6 for 'Quantity Treated On Site' has decreased significantly.  The 2011 values in Section 8.6 were a gross overestimation.  The large Carbon Bed was installed in 2010, and thus the 2011 values in Section 8.6 should have been less.	NO	BILL.MOFFATT@BIPHENOL.COM			NO	 	
6132WMRQSN11953	1312210507000	000071432	BENZENE	TRI	2012	MARQUIS ENERGY LLC	11953 PRAIRIE INDUSTRIAL PKWY	HENNEPIN	PUTNAM	IL	61327	YES	NO	NO	NO								325193						41.276975	-89.31724	783374692										See explanation in Section 9.1 regarding change is waste treated and releases.	NO	MARKMARQUIS@MARQUISENERGY.COM			NO	 	
6143WBGRVR11SE2	1312210506061	000067561	METHANOL	TRI	2012	BIG RIVER RESOURCES GALVA LLC	1100 SE 2ND ST	GALVA	HENRY	IL	61434	YES	NO	NO	NO								325193						41.170329	-90.023549	610247681								BIG RIVER RESOURCES LLC	809163152	SRNA:Pollution prevention previously implemented - additional reduction does not appear technically or economically feasible.	NO	BRIAN.SCHASEL@BIGRIVERRESOURCES.COM			NO	 	
62401QBCRW420WE	1312210530681	000095636	1,2,4-TRIMETHYLBENZENE	TRI	2012	QG LLC	420 W INDUSTRIAL AVE	EFFINGHAM	EFFINGHAM	IL	62401	YES	NO	NO	NO								323110						39.098842	-88.55015	006265649		ILD006272546		ILR006116				QUAD/GRAPHICS INC	055302756	|T01:Changed cleaning product.New product contains 7.91% 1,2,4 Trimethylbenzene.Previous product used contained 15% 1,2,4 Trimethylbenzene.	NO	DAVE.WARREN@QG.COM			NO	 	
61641KYSTN7000S	1312210526846	N420	LEAD COMPOUNDS	PBT	2012	KEYSTONE STEEL & WIRE CO	7000 SW ADAMS ST	PEORIA	PEORIA	IL	61641	YES	NO	NO	NO								331111	332618	331222				40.641952	-89.646677	102195377								KEYSTONE CONSOLIDATED INDUSTRIES INC	005129309	Keystone has installed a gravity line to recirculate a portion of the Waste Water Treatment Plant effluent to the Power House Canal.  The water in the Power House Canal is pumped to the Wire Mill to be used as process water and also to the Steel Mill to be used as makeup water for cooling.  The Recirculation Line will significantly decrease the amount of water and trace levels of lead discharged to the Illinois River.  The recirculation line was implemented in December 2012.	NO	STIRNAMA@KEYSTONESTEEL.COM			YES	 	
61834LLDSGNO5BR	1312210619843	000306832	2,2-DICHLORO-1,1,1-TRIFLUOROETHANE	TRI	2012	HONEYWELL INTERNATIONAL INC DANVILLE WORKS	209 BREWER RD	DANVILLE	VERMILION	IL	61834	YES	NO	NO	NO								325120						40.128113	-87.560637	005463344								HONEYWELL INTERNATIONAL INC	139691877	Release quantities significantly changed due to decrease in sales of this particular product.|W29:Release quantities significantly changed due to decrease in sales of this particular product.|T11:Release quantities significantly changed due to decrease in sales of this particular product.	NO	MATTHEW.DIBBERN@HONEYWELL.COM			NO	 	
6155WRNKCN1391L	1312210124968	MIXTURE	MIXTURE	TRI	2012	ROANOKE CONCRETE PRODUCTS CO - MOSSVILLE	13910 OLD GALENA RD	MOSSVILLE	PEORIA	IL	61552	YES	NO	NO	NO								327320						40.856367	-89.563043	005228598								ROANOKE CONCRETE PRODUCTS CO		SRNA:Ready-mix batch plants and trucks have the proper engineering features to control various sources used in the operation.	NO	DANBENDER@FRONTIER.COM			NO	 	
61938NMTNCEASTR	1312210591246	000117817	DI(2-ETHYLHEXYL) PHTHALATE	TRI	2012	ANAMET ELECTRICAL INC	1000 BROADWAY E	MATTOON	COLES	IL	61938	YES	NO	NO	NO								332999						39.482534	-88.366848	109135715								ANAMET INC		Better management practices	NO	RON@ANAMETELECTRICAL.COM			NO	 	
62301MRMNM1000N	1312210301584	N450	MANGANESE COMPOUNDS	TRI	2012	ADM ALLIANCE NUTRITION INC	1000 N 30TH ST	QUINCY	ADAMS	IL	62305	YES	NO	NO	NO								311119						39.947546	-91.368249	849684428								ARCHER DANIELS MIDLAND CO	001307586	SRNA:Compounds are key to nutient quality of end product.  IF reduction is made, end product will not meet the needs of the animal.	NO	MEDIA@ADM.COM			YES	 	
61821LLYNG17WWA	1312210115642	007440020	NICKEL	TRI	2012	ILLINOIS NI CAST (DBA) ALLOY ENGINEERING & CASTING CO	1700 W WASHINGTON ST	CHAMPAIGN	CHAMPAIGN	IL	61821	YES	NO	NO	NO								331513						40.120832	-88.274951									WIRCO INC		Scrap metal materials are reused in the melt process.	NO	JOE.WELLS@AECCO.COM			YES	 	
62202CHMTC3500M	1312210348619	007664393	HYDROGEN FLUORIDE	TRI	2012	SOLVAY FLUORIDES LLC	3500 MISSOURI AVE	ALORTON	ST CLAIR	IL	622053104	YES	NO	NO	NO								325188						38.598351	-90.127109	947315453								SOLVAY FLUORIDES LLC - HOUSTON TX	017354999	|W49:Began using dillute raw material source in place of water and concentrated raw material there by reducing the heat generated in the process which reduces emissions|T10:Vendor had lower concentrated raw material available	NO	HOMERO.VILLARREAL@SOLVAY.COM			NO	 	
6123WPTRTR11PAT	1312210587491	000107028	ACROLEIN	TRI	2012	PATRIOT RENEWABLE FUELS LLC	101 PATRIOT WAY	ANNAWAN	HENRY	IL	61234	YES	NO	NO	NO								325193						41.391795	-89.875198	189371326										SRNA:Pollution prevention previously implemented - addition reduction does not appear technically or economically feasible.	NO	VMCCABE@PATRIOTETHANOL.COM			NO	 	
60608FSKGN1111W	1312210423291	N458	MERCURY COMPOUNDS	PBT	2012	FISK GENERATING STATION	1111 WCERMAK	CHICAGO	COOK	IL	60608	YES	NO	NO	NO								221112						41.8508	-87.6533	114466571								EDISON INTERNATIONAL	195138458	SRNA:Facility closure on September 1, 2012	NO				YES	 	
60076FLPRN7450N	1312210521555	N982	ZINC COMPOUNDS	TRI	2012	FEDERAL-MOGUL SEALING SYSTEMS	7450 N MCCORMICK BLVD	SKOKIE	COOK	IL	600768103	YES	NO	NO	NO								339991	493110					42.015965	-87.712679	006557045								FEDERAL MOGUL CORP	006557045	SRNA:The Zinc Oxide that is discarded is a component of rubber that is scrapped. We have investigated but have not been able to find a recycler to take cured rubber scrap at this time.We will continue to search for alternate methods to reduce this waste stream.	NO	YVETTE.BORREGO@FEDERALMOGUL.COM			YES	 	
61834LLDSGNO5BR	1312210619870	000075718	DICHLORODIFLUOROMETHANE	TRI	2012	HONEYWELL INTERNATIONAL INC DANVILLE WORKS	209 BREWER RD	DANVILLE	VERMILION	IL	61834	YES	NO	NO	NO								325120						40.128113	-87.560637	005463344								HONEYWELL INTERNATIONAL INC	139691877	Release quantities significantly changed due to decrease in sales of this particular product.|W84:Release quantities significantly changed due to decrease in sales of this particular product.|T11:Release quantities significantly changed due to decrease in sales of this particular product.	NO	MATTHEW.DIBBERN@HONEYWELL.COM			NO	 	
6010WRNMLS55SPI	1312210527026	007439921	LEAD	TRI	2012	RANA MEAL SOLUTIONS LLC	550 SPITZER RD	BARTLETT	DUPAGE	IL	60103	YES	NO	NO	NO								311823						41.984995	-88.227681	042408163								RANA USA INC.		SRNA:Lead is in sealed batteries, no releases from units.  Equipment new for 2012, anticipate future recycling of sealed batteries.	NO	DIRELAN@RANAUSA.COM			YES	 	
60411RHDNC12STA	1312210544351	007439921	LEAD	TRI	2012	RHODIA INC	1020 STATE ST	CHICAGO HEIGHTS	COOK	IL	60411	YES	NO	NO	NO								325188						41.512845	-87.618543	002959810								RHODIA INC	002959810	For this facility, lead is a source in several of the raw materials received.  The site monitors the amount of lead in the raw materials in order to continue to track compliance.	NO	DAVID.KLUCSIK@SOLVAY.COM			YES	 	
60633FRDMT12600	1312210292773	000071363	N-BUTYL ALCOHOL	TRI	2012	FORD MOTOR CO CHICAGO ASSEMBLY	12600 S TORRENCE AVE	CHICAGO	COOK	IL	60633	YES	NO	NO	NO								336111						41.665013	-87.560845	060364882								FORD MOTOR CO	001344746	SRNA:Ford Motor Company has a formal written Environmental Policy focused on protecting human health and the environment. The Company has committed to the International Chamber of Commerce "Principles for Environmental Management" and is a member of the World Business Council for Sustainable Development (WBCSD) and the Coalition for Environmentally Responsible Economies (CERES). Ford Motor Company also issues an annual Sustainability Report, which follows the Global Reporting Initiative (GRI) Guidelines for sustainability reporting. Ford is committed to pollution prevention. All manufacturing facilities worldwide have been third-party certified to the ISO 14001 standard.	NO	ADODSON1@FORD.COM			NO	 	
60448ZNGLR18825	1312210196186	007439921	LEAD	TRI	2012	OZINGA IL RMC - MOKENA	18825 OLD LAGRANGE RD	MOKENA	WILL	IL	60448	YES	NO	NO	NO								327320						41.548443	-87.849952									OZINGA BROS. INC.		SRNA:Use of material is a necessary component of production, and varies only as production varies depending on economic and market conditions.	NO	MIKECONQUEST@OZINGA.COM			YES	 	
6154WRNKCN1275S	1312210124766	MIXTURE	MIXTURE	TRI	2012	ROANOKE CONCRETE PRODUCTS CO - EAST PEORIA	1275 SPRING BAY RD	EAST PEORIA	WOODFORD	IL	61611	YES	NO	NO	NO								327320	327331					40.774317	-89.527693	005228598								ROANOKE CONCRETE PRODUCTS CO		SRNA:Ready-mix batch plants and trucks have the proper engineering features to control various sources used in the operation.	NO	DANBENDER@FRONTIER.COM			NO	 	
60515RRWGR231CU	1312209967963	007440473	CHROMIUM	TRI	2012	ARROW GEAR INC	2301 CURTISS ST	DOWNERS GROVE	DUPAGE	IL	60515	YES	NO	NO	NO								333612						41.791784	-88.0416	005075205										SRNA:6. Pollution prevention previously implemented- additional reduction does not appear technically or economically feasible	NO	MJCERVINKA@ARROWGEAR.COM			YES	 	
61068TNCRP200EA	1312210377432	007439921	LEAD	TRI	2012	AG MANUFACTURING INC	200 E AVE G	ROCHELLE	OGLE	IL	610682172	YES	NO	NO	NO								336350						41.916046	-89.057093	832849363										Lead is being phased out of manufacturing operations, primarily by replacing lead-based solder with welded assemblies.	NO	CHACKER@AGMFG-IL.COM			YES	 	
60436PLLCL1550M	1312210498150	007632000	SODIUM NITRITE	TRI	2012	APOLLO COLORS INC	1550 MOUND RD	ROCKDALE	WILL	IL	60436	YES	NO	NO	NO								325132						41.500651	-88.122259	047578331								APOLLO COLORS INC	047578331	Part II.  Chemical-Specific Information (Sodium Nitrite) Apollo Colors Inc. uses Sodium Nitrite (CAS No. 7632-00) for specific Chemical Process Reactions.  Upon completion of the Chemical Process Reactions, there is no remaining/residual Sodium Nitrite - this is verified after the Chemical Process Reactions have been completed.  Therefore, there is no residual Sodium Nitrite to be reported in Sections 5, 6, or 7.	NO	BWRIGHT@APOLLOCOLORS.COM			YES	 	
60633FRDMT12600	1312210292850	000108883	TOLUENE	TRI	2012	FORD MOTOR CO CHICAGO ASSEMBLY	12600 S TORRENCE AVE	CHICAGO	COOK	IL	60633	YES	NO	NO	NO								336111						41.665013	-87.560845	060364882								FORD MOTOR CO	001344746	SRNA:Ford Motor Company has a formal written Environmental Policy focused on protecting human health and the environment. The Company has committed to the International Chamber of Commerce "Principles for Environmental Management" and is a member of the World Business Council for Sustainable Development (WBCSD) and the Coalition for Environmentally Responsible Economies (CERES). Ford Motor Company also issues an annual Sustainability Report, which follows the Global Reporting Initiative (GRI) Guidelines for sustainability reporting. Ford is committed to pollution prevention. All manufacturing facilities worldwide have been third-party certified to the ISO 14001 standard.	NO	ADODSON1@FORD.COM			NO	 	
6063WZNGRD6445S	1312210196147	007439976	MERCURY	PBT	2012	OZINGA READY MIX CONCRETE INC - STATE ST	6445 S STATE ST	CHICAGO	COOK	IL	60637	YES	NO	NO	NO								327320						41.776829	-87.625218									OZINGA BROS INC		SRNA:Use of material is a necessary component of production, and varies only as production varies depending on economic and market conditions.	NO	MIKECONQUEST@OZINGA.COM			YES	 	
61615PRDSP4349W	1312210563728	N150	DIOXIN AND DIOXIN-LIKE COMPOUNDS	DIOXIN	2012	PEORIA DISPOSAL CO #1	4349 W SOUTHPORT RD	PEORIA	PEORIA	IL	61615	YES	NO	NO	NO								562212						40.721221	-89.661481	009848193								COULTER COS INC	618560221	NO|SRNA:The releases included in this report resulted from activities regulated by and in compliance with permits issued by the Illinois Environmental Protection Agency.  Most reported releases simply reflect the proper management and disposal of waste in permitted landfills which are designed and operated to prevent releases of TRI constituents to the environment from occurring.	NO	RWELK@PDCAREA.COM			NO	 	
60623CRWFR3501S	1312210415699	N150	DIOXIN AND DIOXIN-LIKE COMPOUNDS	DIOXIN	2012	CRAWFORD GENERATING STATION	3501 S PULASKI	CHICAGO	COOK	IL	60623	YES	NO	NO	NO								221112						41.828784	-87.721854	114466571								EDISON INTERNATIONAL	195138458	SRNA:Facility Closure on September 1, 2012	NO	DMCFARLAN@MWGEN.COM			NO	 	
61081STRLN101AV	1312210631255	N450	MANGANESE COMPOUNDS	TRI	2012	STERLING STEEL CO LLC	101 AVE K	STERLING	WHITESIDE	IL	610813229	YES	NO	NO	NO								331111						41.786281	-89.709809	106740561								LEGGETT & PLATT INC	007140064	SSC continues to send millscale to a cement company for recycling.  Some grades of cement require additional iron units.  In previous years this material was landfilled.	NO	CROBBINS@SSCLLC.COM			YES	 	
61085TWDND301SO	1312210720924	007439965	MANGANESE	TRI	2012	DURA AUTOMOTIVE SYSTEMS	301 S SIMMONS ST	STOCKTON	JO DAVIESS	IL	61085	YES	NO	NO	NO								336399						42.345808	-89.999483	039616917										We have reduced the run time of our Autophoretic paint line and incrased staffing to maximize energy use during uptime. We have also started a water recyling program within the paint line processing. Water that comes from rinse tanks is reused as possible.  This has reduced water use of 10,000 gallons per day.|W52:We have adjusted part layouts to reduce overages of steel, in turn, reducing manganese.	NO	ARAND.M@DURAAUTO.COM			YES	 	
60089PLXSC2400M	1312210096830	N420	LEAD COMPOUNDS	PBT	2012	PLEXUS CORP	2400 MILLBROOK DR	BUFFALO GROVE	LAKE	IL	60089	YES	NO	NO	NO								334418						42.192235	-87.944572	098544398								PLEXUS CORP	098544398	|T11:Increased use of lead-free materials	NO	JIM.JACKSON@PLEXUS.COM			YES	 	
6063WZNGRD6445S	1312210196123	007439921	LEAD	TRI	2012	OZINGA READY MIX CONCRETE INC - STATE ST	6445 S STATE ST	CHICAGO	COOK	IL	60637	YES	NO	NO	NO								327320						41.776829	-87.625218									OZINGA BROS INC		SRNA:Use of material is a necessary component of production, and varies only as production varies depending on economic and market conditions.	NO	MIKECONQUEST@OZINGA.COM			YES	 	
60608FSKGN1111W	1312210423051	N150	DIOXIN AND DIOXIN-LIKE COMPOUNDS	DIOXIN	2012	FISK GENERATING STATION	1111 WCERMAK	CHICAGO	COOK	IL	60608	YES	NO	NO	NO								221112						41.8508	-87.6533	114466571								EDISON INTERNATIONAL	195138458	SRNA:Facility closure on September 1, 2012	NO				NO	 	
61802PLNGN2401N	1312209964384	007439976	MERCURY	PBT	2012	APL ENGINEERED MATERIALS INC	2401 N WILLOW RD	URBANA	CHAMPAIGN	IL	61802	YES	NO	NO	NO								325188						40.1375	-88.20249	108630484								ADVANCED LIGHTING TECHNOLOGIES INC	107115396	SRNA:Pollution prevention previously implemented- additional reduction does not appear technically or economically feasible	NO	DENNIS_MILLER@ADLT.COM			YES	 	
60007LCNDS1201P	1312210107811	007439921	LEAD	TRI	2012	LA-CO INDUSTRIES INC	1201 PRATT BLVD	ELK GROVE VILLAGE	COOK	IL	60007	YES	NO	NO	NO								339942						41.997577	-87.968369	005085386										SRNA:We phased out our use of lead as a raw material in the 4th quarter of 2012.  We will no longer be manufacturing our lead-containing specialty solder product.  We've consumed all of the lead-containing raw material, and have none left on-site.	NO	EPERSON@LACO.COM			YES	 	
60134BRGSSSOUTH	1312210290375	007664417	AMMONIA	TRI	2012	BURGESS-NORTON MANUFACTURING CO PLANT 2	500 WESTERN AVE	GENEVA	KANE	IL	60134	YES	NO	NO	NO								332117						41.882238	-88.322675	144915790								AMSTED INDUSTRIES INC	005146667	|W58:The company is investigating the use of hydrogen in place of anhydrous ammonia. As a result, the company may stop using anhydrous ammonia. However, we will not know if this is technically feasible until late 2013 or 2014.|T11:Chemical substituion	NO	RCSEILLER@BURGESSNORTON.COM			NO	 	
60436PLLCL1550M	1312210498147	N230	CERTAIN GLYCOL ETHERS	TRI	2012	APOLLO COLORS INC	1550 MOUND RD	ROCKDALE	WILL	IL	60436	YES	NO	NO	NO								325132						41.500651	-88.122259	047578331								APOLLO COLORS INC	047578331	Apollo Colors continued to reduce glycol ethers in its floor cleaning soap through formulation. Better work practices also contributed to a cleaner workplace which reduced the need for some floor cleaning.|W82:Floor soap formulation was altered to reduce glycol ether use.|T04:Employees used less soap and more water when cleaning floors.	NO	BWRIGHT@APOLLOCOLORS.COM			NO	 	
6143WBRNCH52SEI	1312210473195	N420	LEAD COMPOUNDS	PBT	2012	BRANCHFIELD CASTING	502 SE INDUSTRIAL AVE	GALVA	HENRY	IL	61434	YES	NO	NO	NO								331513	331528					41.161777	-90.022913											SRNA:Pollution prevention previously implemented- additional reduction does not appear technically or economically feasible.	NO	TODDB@QCML.COM			YES	 	
62321MTHDL111WB	1312210226890	N420	LEAD COMPOUNDS	PBT	2012	METHODE ELECTONICS INC	111 W BUCHANAN	CARTHAGE	HANCOCK	IL	62321	YES	NO	NO	NO								336322						40.416241	-91.149568	122579824		ILD075632497						METHODE ELECTRONICS INC	005092135	2013 will be last year lead is used in this facility|SRNA:Insufficient capital to install new source reduction equipment or implement new source reduction activities/initiatives.	NO	JOHN.MEYER@METHODE.COM			YES	 	
6154WRNKCN1275S	1312210124677	MIXTURE	MIXTURE	TRI	2012	ROANOKE CONCRETE PRODUCTS CO - EAST PEORIA	1275 SPRING BAY RD	EAST PEORIA	WOODFORD	IL	61611	YES	NO	NO	NO								327320	327331					40.774317	-89.527693	005228598								ROANOKE CONCRETE PRODUCTS CO		SRNA:Ready-mix batch plants and trucks have the proper engineering features to control various sources used in the operation.	NO	DANBENDER@FRONTIER.COM			NO	 	
60438BCHMC2700E	1312210266969	000098828	CUMENE	TRI	2012	NB COATINGS INC	2701 E 170TH ST	LANSING	COOK	IL	60438	YES	NO	NO	NO								325510						41.584935	-87.548243	085229448								NIPPON PAINT (USA) INC	787612795	|T01:Improved efficiency of in-house solvent still.  Less off-site solvent waste disposal.	NO	JWICKHAM@NBCOATINGS.COM			NO	 	
61761DMNDS100ND	1312210570089	N982	ZINC COMPOUNDS	TRI	2012	MITSUBISHI MOTORS NA INC	100 N MITSUBISHI MOTORWAY	NORMAL	MCLEAN	IL	61761	YES	NO	NO	NO								336111						40.508036	-89.054378	148393200								MITSUBISHI MOTORS N.A. INC		SRNA:Zinc is part of the corrosion treatment program.  Investigation is made into the Zirconium based treatment but cost issues prohibit the change over at this time.	NO	GARY.SHULTZ@MMMA-BN.COM			YES	 	
60501SHLLC8600W	1312210320558	000108883	TOLUENE	TRI	2012	MOMENTIVE SPECIALTY CHEMICALS INC	8600 W 71ST ST	BEDFORD PARK	COOK	IL	60501	YES	NO	NO	NO								325211						41.764532	-87.835256	001338797								MOMENTIVE PERFORMANCE MATERIALS HOLDINGS LLC	965214146	|W39:As open-ended lines are discovered, they are capped or plugged.|W36:Began a LDAR program for system that contains this constituent.	NO	RONALD.KUNSA@MOMENTIVE.COM			NO	 	
60633FRDMT12600	1312210292672	000107211	ETHYLENE GLYCOL	TRI	2012	FORD MOTOR CO CHICAGO ASSEMBLY	12600 S TORRENCE AVE	CHICAGO	COOK	IL	60633	YES	NO	NO	NO								336111						41.665013	-87.560845	060364882								FORD MOTOR CO	001344746	SRNA:Ford Motor Company has a formal written Environmental Policy focused on protecting human health and the environment. The Company has committed to the International Chamber of Commerce "Principles for Environmental Management" and is a member of the World Business Council for Sustainable Development (WBCSD) and the Coalition for Environmentally Responsible Economies (CERES). Ford Motor Company also issues an annual Sustainability Report, which follows the Global Reporting Initiative (GRI) Guidelines for sustainability reporting. Ford is committed to pollution prevention. All manufacturing facilities worldwide have been third-party certified to the ISO 14001 standard.	NO	ADODSON1@FORD.COM			NO	 	
60633FRDMT12600	1312210292823	007697372	NITRIC ACID	TRI	2012	FORD MOTOR CO CHICAGO ASSEMBLY	12600 S TORRENCE AVE	CHICAGO	COOK	IL	60633	YES	NO	NO	NO								336111						41.665013	-87.560845	060364882								FORD MOTOR CO	001344746	SRNA:Ford Motor Company has a formal written Environmental Policy focused on protecting human health and the environment. The Company has committed to the International Chamber of Commerce "Principles for Environmental Management" and is a member of the World Business Council for Sustainable Development (WBCSD) and the Coalition for Environmentally Responsible Economies (CERES). Ford Motor Company also issues an annual Sustainability Report, which follows the Global Reporting Initiative (GRI) Guidelines for sustainability reporting. Ford is committed to pollution prevention. All manufacturing facilities worldwide have been third-party certified to the ISO 14001 standard.	NO	ADODSON1@FORD.COM			NO	 	
6132WMRQSN11953	1312210507024	000110543	N-HEXANE	TRI	2012	MARQUIS ENERGY LLC	11953 PRAIRIE INDUSTRIAL PKWY	HENNEPIN	PUTNAM	IL	61327	YES	NO	NO	NO								325193						41.276975	-89.31724	783374692										See explanation in Section 9 regarding reduction in waste treated and releases.	NO	MARKMARQUIS@MARQUISENERGY.COM			NO	 	
6252WVNRTR69EKE	1312210148110	007439965	MANGANESE	TRI	2012	VOESTALPINE NORTRAK INC	690 E KENWOOD AVE	DECATUR	MACON	IL	62526	YES	NO	NO	NO								331513						39.867947	-88.949178											SRNA:We make manganese castings.  There is no source reduction activity associated with manganese.	NO	JAMES.RITTMUELLER@VOESTALPINE.COM			YES	 	
61802GRDNW601GU	1312210446276	N090	CHROMIUM COMPOUNDS(EXCEPT CHROMITE ORE MINED IN THE TRANSVAAL REGION)	TRI	2012	GUARDIAN WEST	601 GUARDIAN DR	URBANA	CHAMPAIGN	IL	61802	YES	NO	NO	NO								336399						40.118482	-88.185046	048140698								FLEX-N-GATE CORP	048140698	Better system maintenance, and management controls	NO	GARY.REED@FLEX-N-GATE.COM			YES	 	
60411FRDMT1000E	1312210378345	007440508	COPPER	TRI	2012	FORD MOTOR CO CHICAGO STAMPING PLANT	1000 E LINCOLN HWY	CHICAGO HEIGHTS	COOK	IL	60411	YES	NO	NO	NO								336370						41.503522	-87.601409	005180641								FORD MOTOR CO	001344746	SRNA:Ford Motor Company has a formal written Environmental Policy focused on protecting human health and the environment. The Company has committed to the International Chamber of Commerce "Principles for Environmental Management" and is a member of the World Business Council for Sustainable Development (WBCSD) and the Coalition for Environmentally Responsible Economies (CERES). Ford Motor Company also issues an annual Sustainability Report, which follows the Global Reporting Initiative (GRI) Guidelines for sustainability reporting. Ford is committed to pollution prevention. All manufacturing facilities worldwide have been third-party certified to the ISO 14001 standard.	NO	CCHERVEN@FORD.COM			YES	 	
60658CLBRT3737W	1312210242968	N010	ANTIMONY COMPOUNDS	TRI	2012	GC AMERICA INC	3737 W 127TH ST	ALSIP	COOK	IL	608031541	YES	NO	NO	NO								339114						41.661514	-87.71375	005473608										SRNA:Pollution prevention previously implemented- additional reduction does not appear technically or economically feasible.	NO	CORNELIUS_CAREY@GCAMERICA.COM			YES	 	
61834LLDSGNO5BR	1312210619882	000076142	DICHLOROTETRAFLUOROETHANE (CFC-114)	TRI	2012	HONEYWELL INTERNATIONAL INC DANVILLE WORKS	209 BREWER RD	DANVILLE	VERMILION	IL	61834	YES	NO	NO	NO								325120						40.128113	-87.560637	005463344								HONEYWELL INTERNATIONAL INC	139691877	Release quantities significantly changed due to decrease in sales of this particular product.|W84:Release quantities significantly changed due to decrease in sales of this particular product.|T11:Release quantities significantly changed due to decrease in sales of this particular product.	NO	MATTHEW.DIBBERN@HONEYWELL.COM			NO	 	
61834LLDSGNO5BR	1312210619894	000075694	TRICHLOROFLUOROMETHANE	TRI	2012	HONEYWELL INTERNATIONAL INC DANVILLE WORKS	209 BREWER RD	DANVILLE	VERMILION	IL	61834	YES	NO	NO	NO								325120						40.128113	-87.560637	005463344								HONEYWELL INTERNATIONAL INC	139691877	Release quantities significantly changed due to decrease in sales of this particular product.|W84:Release quantities significantly changed due to decrease in sales of this particular product.|T11:Release quantities significantly changed due to decrease in sales of this particular product.	NO	MATTHEW.DIBBERN@HONEYWELL.COM			NO	 	
