TRIFID	DOCUMENT CONTROL NUMBER	CAS NUMBER	CHEMICAL NAME	CLASSIFICATION	REPORTING YEAR	FACILITY NAME	FACILITY STREET	FACILITY CITY	FACILITY COUNTY	FACILITY STATE	FACILITY ZIP CODE	ENTIRE FACILITY IND	PARTIAL FACILITY IND	FEDERAL FACILITY IND	GOCO FACILITY IND	PRIMARY SIC CODE	SIC CODE 2	SIC CODE 3	SIC CODE 4	SIC CODE 5	SIC CODE 6	NAICS ORIGIN	PRIMARY NAICS CODE	NAICS CODE 2	NAICS CODE 3	NAICS CODE 4	NAICS CODE 5	NAICS CODE 6	LATITUDE	LONGITUDE	DB NR A	DB NR B	RCRA NR A	RCRA NR B	NPDES NR A	NPDES NR B	UIC NR A	UIC NR B	PARENT COMPANY NAME	PARENT COMPANY DB NR	SECTION 8.11 DISPOSAL OR OTHER RELEASES, SOURCE REDUCTION, AND RECYCLING ACTIVITIES	ASSIGNED FED. FACILITY FLAG	PUBLIC CONTACT EMAIL	REVISION CODE 1	REVISION CODE 2	METAL INDICATOR	10-18-2012	
29153CTRPL1355N	1311209264720	N090	CHROMIUM COMPOUNDS(EXCEPT CHROMITE ORE MINED IN THE TRANSVAAL REGION)	TRI	2011	CATERPILLAR PRECISION PIN PRODUCTS GROUP	1355 N WISE DR	SUMTER	SUMTER	SC	29153	YES	NO	NO	NO								332721						33.97402	-80.36152	008754637								CATERPILLAR INC	005070479	REPORTING CHROMIUM METAL AS SEPARATE LINE ITEM, NO SPECIFIC REDUCTION ACTIVITIES APPLY.	NO	DUGAN_JIM@CAT.COM			YES	 	
29153CTRPL1355N	1311209264718	007440473	CHROMIUM	TRI	2011	CATERPILLAR PRECISION PIN PRODUCTS GROUP	1355 N WISE DR	SUMTER	SUMTER	SC	29153	YES	NO	NO	NO								332721						33.97402	-80.36152	008754637								CATERPILLAR INC	005070479	REPORTED IN PREVIOUS YEARS ON SAME LINE ITEM AS CHROMIUM CONPOUNDS	NO	DUGAN_JIM@CAT.COM			YES	 	
29801HBBLL2200R	1311209100217	N982	ZINC COMPOUNDS	TRI	2011	HUBBELL POWER SYSTEMS INC	1850 RICHLAND AVE E	AIKEN	AIKEN	SC	29801	YES	NO	NO	NO								335999	334413					33.564907	-81.744683	054202080								HUBBELL INC	001181858	IN CY 2011 THIS FACILITY CHANGED ONE OF THE PRODUCTS USED IN THE MANUFACTURING PROCESS. AS A RESULT WE WERE UNABLE TO RECYCLE RUBBER USING OUR CURRENT VENDOR. WE WILL BE INVESTIGATING OTHER RECYCLING OPTIONS.	NO	JMULVIHI@HUBBELL.COM			YES	 	
29606MCMPNPERIM	1311209364797	000108883	TOLUENE	TRI	2011	3M CO - GREENVILLE	1400 PERIMETER RD	GREENVILLE	GREENVILLE	SC	296055467	YES	NO	NO	NO								326113	322222	333315				34.74411	-82.35851	073704975								3M CO	006173082	WE ARE WORKING ON MOVING PRODUCTS TO WATER BASED WHEN POSSIBLE.	NO	BLSTONE@MMM.COM			NO	 	
29606MCMPNPERIM	1311209364809	001330207	XYLENE (MIXED ISOMERS)	TRI	2011	3M CO - GREENVILLE	1400 PERIMETER RD	GREENVILLE	GREENVILLE	SC	296055467	YES	NO	NO	NO								326113	322222	333315				34.74411	-82.35851	073704975								3M CO	006173082	WATER BASED UTILIZED WHEN POSSIBLE.	NO	BLSTONE@MMM.COM			NO	 	
29532JMSRV126AV	1311209086711	007664417	AMMONIA	TRI	2011	DIXIE CONSUMER PRODUCTS LLC	126 A AVE	DARLINGTON	DARLINGTON	SC	29532	YES	NO	NO	NO								322215						34.299686	-79.865834									KOCH INDUSTRIES INC	006944334	THE FACILITY IS CURRENTLY INVESTIGATING THE USAGE OF PRODUCTS WITH LOWER AMMONIA CONTENT.	NO	JASON.BERRY@GAPAC.COM			NO	 	
29440VCHMCPENNY	1311209840230	000075092	DICHLOROMETHANE	TRI	2011	3V INC	888 WOODSTOCK ST	GEORGETOWN	GEORGETOWN	SC	294404789	YES	NO	NO	NO								325998						33.362222	-79.383056	009104381										-W35:INSTALLED CRYOGENIC CONDENSATION RECOVERY SYSTEM.	NO	M.BONE@3VUSA.COM	RR5		NO	 	
29440VCHMCPENNY	1311209690748	000107051	ALLYL CHLORIDE	TRI	2011	3V INC	888 WOODSTOCK ST	GEORGETOWN	GEORGETOWN	SC	294404789	YES	NO	NO	NO								325998						33.362222	-79.383056	009104381										THE INVENTORY OF THIS SUBSTANCE WAS EXHAUSTED IN 2011. NO PLANS TO USE THE SUBSTANCE AGAIN CURRENTLY IN PLACE.	NO	M.BONE@3VUSA.COM			NO	 	
29135LGLSSRURAL	1311209737725	000100425	STYRENE	TRI	2011	ALAGLASS POOLS	165 SWEETBAY RD	SAINT MATTHEWS	CALHOUN	SC	291357934	YES	NO	NO	NO								326199						33.70794	-80.9193											WE MANUFACTURED TWO PRODUCTS THIS YEAR USING A RESIN TRANSFER MOLDING METHODOLOGY WHICH ELIMINATED A SIGNIFICANT AMOUNT OF AIR EMISSIONS.  WE PLAN TO IMPLEMENT THIS METHODOLOGY FOR OUR BIGGEST SELLING ON A REGULAR BASIS IN 2013.	NO	MONTY@ALAGLAS.COM			NO	 	
29729TLDYNHWY9	1311209007754	N511	NITRATE COMPOUNDS	TRI	2011	ALLVAC RICHBURG PLANT	4374 LANCASTER HWY 9	RICHBURG	CHESTER	SC	29729	YES	NO	NO	NO								331491						34.700392	-80.978729	195026133								ALLEGHENY TECHNOLOGIES INC	195026133	THE NITRATES ARE PRODUCED DURING THE PASSIFICATION PROCESS IN THE PICKLE TANKS. THE WASTE ACID IS TREATED IN THE ON-SITE WASTE WATER TREATMENT PROCESS. THE WASTE IS PROCESSED THRU THE SLUGE PRESS AND IS DISPOSED OF AS SOLID FILTERCAKE. THE PH IS TAKEN TO A RANGE OF 8.0 - 11.0	NO	TINA.HUBERT@ATIMETALS.COM			NO	 	
29853DMRLCINDUS	1311209788266	N120	DIISOCYANATES	TRI	2011	DIXIE-NARCO	3330 DIXIE NARCO BLVD	WILLISTON	BARNWELL	SC	29853	YES	NO	NO	NO								333311						33.401111	-81.416667	003062650								CRANE CO	001280726	-W13:SWITCHED TO MORE HEAVY-DUTY HOSES AND INCREASED PREVENTATIVE MAINTENANCE TO MINIMIZE HOSE BREAKS.;T04:CHANGES DETERMINED BY MANAGEMENT STAFF.;T05:CHANGES SUGGESTED BY FACILITY MAINTENANCE LEAD.	NO	DSPIVEY@CRANEMS.COM			NO	 	
29662NTNLC200OL	1311209129206	N100	COPPER COMPOUNDS	TRI	2011	COMPX NATIONAL (NATIONAL CABINET LOCK)	26 OLD MILL RD	GREENVILLE	GREENVILLE	SC	29607	YES	NO	NO	NO								332510						34.79275	-82.30148	807639901								COMPX INTERNATIONAL INC	006967822	-W13:USE MAINTENANCE PROGRAM TO KEEP UP WITH MAINTENANCE ACTIVITIES;T01:AUDIT THE PLATING LINES MONTHLY.;T03:EACH WEEK AN INVENTORY IS DONE ON THE CHEMICALS	NO	BEDWARDS@COMPX.COM			YES	 	
29636RYMTLBOX38	1311209703836	N495	NICKEL COMPOUNDS	TRI	2011	ROY METAL FINISHING CO INC	112 CONESTEE RD	GREENVILLE	GREENVILLE	SC	29607	YES	NO	NO	NO								332813						34.77232	-82.342799	003341849								ROY METAL FINISHING CO INC		-T04:TEAM LEADER MEETINGS TO OPTIMIZE PRODUCTION TO RUN AT 100%.	NO	JPAZDAN@ROYMETAL.COM			YES	 	
29636RYMTLBOX38	1311209703851	N982	ZINC COMPOUNDS	TRI	2011	ROY METAL FINISHING CO INC	112 CONESTEE RD	GREENVILLE	GREENVILLE	SC	29607	YES	NO	NO	NO								332813						34.77232	-82.342799	003341849								ROY METAL FINISHING CO INC		-T04:TEAM LEADER AND PRODUCTION MEETINGS TO OPTIMIZE PROCESS TO RUN AT 100% CAPACITY.;T06:TEAM LEADER MEETINGS.  VITAL SIGNS MEETING WITH SUGGESTIONS.	NO	JPAZDAN@ROYMETAL.COM			YES	 	
29636RYMTLBOX38	1311209703848	N511	NITRATE COMPOUNDS	TRI	2011	ROY METAL FINISHING CO INC	112 CONESTEE RD	GREENVILLE	GREENVILLE	SC	29607	YES	NO	NO	NO								332813						34.77232	-82.342799	003341849								ROY METAL FINISHING CO INC		-T04:TEAM LEADER MEETINGS TO OPTIMIZE PROCESS TO RUN AT 100% WHEN RUNNING.;T04:PROCESS TO BE RAN WHEN NEEDED AT 100% CAPACITY.	NO	JPAZDAN@ROYMETAL.COM			NO	 	
29250WSTNGPOBOX	1311209407980	007664417	AMMONIA	TRI	2011	WESTINGHOUSE ELECTRIC CO LLC	5801 BLUFF RD	HOPKINS	RICHLAND	SC	29061	YES	NO	NO	NO								325188						33.881944	-80.920556	133416862								WESTINGHOUSE ELECTRIC CO LLC	062661272	IN AUGUST 2011, THE WESTINGHOUSE COLUMBIA LOCATION ELIMINATED THE USE OF ANHYDROUS AMMONIA ON SITE, AND REPLACED IT WITH THE LESS RISKY AMMONIUM HYDROXIDE.	NO	SIMMONPA@WESTINGHOUSE.COM			NO	 	
29706SQCHMONESE	1311209052859	000123386	PROPIONALDEHYDE	TRI	2011	OMNOVA SOLUTIONS INC	1455 J A COCHRAN BY-PASS	CHESTER	CHESTER	SC	29706	YES	NO	NO	NO								325211	325613	325998				34.695556	-81.196667	096929729								OMNOVA SOLUTIONS INC	088498618	BATCHES ARE SCHEDULED SO THAT TANKER CAN BE PUMPED DIRECTLY TO THE REACTOR.  ELIMINATED BREATHING AND WORKING LOSSES FROM BULK STORAGE TANK.	NO	AARON.HUGHES@OMNOVA.COM			NO	 	
29650RMXNC1649S	1311209799547	N120	DIISOCYANATES	TRI	2011	RMAX OPERATING LLC	1649 S BATESVILLE RD.,	GREER	GREENVILLE	SC	29650	YES	NO	NO	NO								326150						34.85458	-82.23247	091365452								RMAX OPERATING LLC	091365452	-W13:CONTINUOUS LOGGING OF PROCESS FLOWS OF MDI AND REGULAR READING OF SUCH DATA TO BETTER ACERTAIN MAINTAINENCE INTERVALS;T03:CHECK OF FLOW INSTRUMENTATION CALIBRATION IN REPONSE TO INVENTORY ADJUST MENTS	NO	MOWEN@RMAX.COM			NO	 	
29520STNLY100ST	1311209490578	N495	NICKEL COMPOUNDS	TRI	2011	STANLEY WORKS INC TOOLS DIV	100 STANLEY DR	CHERAW	CHESTERFIELD	SC	29520	YES	NO	NO	NO								332212	332213	332813	332811	326199		34.682168	-79.894569	067012781								STANLEY BLACK & DECKER	001152461	-W68:INSTALLED EVAPORATORS ON THE PLANTING LINES;T01:GEMBA WALKS IN AREA TO POINT OUT IMPROVEMENT OPPURTIUINTIES	NO	FRED.HANSEN@SBDINC.COM			YES	 	
29360BFSHW150OL	1311209085873	007440020	NICKEL	TRI	2011	BF SHAW INC	366 OLD AIRPORT RD	LAURENS	LAURENS	SC	29360	YES	NO	NO	NO								332996						34.503129	-81.972919	180038465								THE SHAW GROUP INC	180038382	THE DRASTIC CHANGE IN EMISSIONS FROM RY10 TO RY11 ARE DUE TO AN UPDATE IN CALCULATION METHODOLOGY.	NO	JOE.HARRISON@SHAWGRP.COM			YES	 	
29360BFSHW150OL	1311209085846	007440473	CHROMIUM	TRI	2011	BF SHAW INC	366 OLD AIRPORT RD	LAURENS	LAURENS	SC	29360	YES	NO	NO	NO								332996						34.503129	-81.972919	180038465								THE SHAW GROUP INC	180038382	THE DRASTIC CHANGE IN EMISSIONS FROM RY10 TO RY11 ARE DUE TO AN UPDATE IN CALCULATION METHODOLOGY.	NO	JOE.HARRISON@SHAWGRP.COM			YES	 	
29360BFSHW150OL	1311209085859	007440508	COPPER	TRI	2011	BF SHAW INC	366 OLD AIRPORT RD	LAURENS	LAURENS	SC	29360	YES	NO	NO	NO								332996						34.503129	-81.972919	180038465								THE SHAW GROUP INC	180038382	THE DRASTIC CHANGE IN EMISSIONS FROM RY10 TO RY11 ARE DUE TO AN UPDATE IN CALCULATION METHODOLOGY.	NO	JOE.HARRISON@SHAWGRP.COM			YES	 	
29127GRGPCHIGHW	1311209284924	000067561	METHANOL	TRI	2011	GEORGIA-PACIFIC WOOD PRODUCTS LLC PROSPERITY COMPLEX	600 GEORGIA PACIFIC BLVD	PROSPERITY	NEWBERRY	SC	29127	YES	NO	NO	NO								321212	321113					34.212622	-81.493068									KOCH INDUSTRIES INC	006944334	-W49:INSTALLED EQUIPMENT TO MONITOR RAW MATERIAL QUALITY;T10:EVALUATED AND REFORMULATED RAW MATERIALS USED IN THE PRODUCTION PROCESS.;W14:IMPLEMENTED NEW SHIFT AND PRODUCTION PLANNING SCHEDULING SYSTEM;T01:CONDUCTED EQUIPMENT INSPECTIONS AND AUDITS TO MINIMIZE EXCESS EMISSIONS.;W13:IMPLEMENTED ADVANCED MAINTENANCE PLANNING AND SCHEDULING PROGRAM;T04:HIRED ADDITION SUPERVISORS TO MONITOR PROCESS MORE EFFECTIVELY	NO	ERIC.ABERCROMBIE@GAPAC.COM			NO	 	
29633GRNFLUS123	1311209228788	007440473	CHROMIUM	TRI	2011	GREENFIELD INDUSTRIES (FORMERLY KENNAMETAL)	2501 DAVIS CREEK RD	SENECA	OCONEE	SC	29678	YES	NO	NO	NO								333515						34.685	-82.833333	831061325								TOP EASTERN DRILLS	831061325	OFF-SITE RELEASES OF CHROMIUM WAS REDUCED IN 2011 COMPARED TO PREVIOUS YEARS BECAUSE METAL THAT CONTAINS CHROMIUM WAS RECYLED BY RE-MELTING AT AN OFF-SITE FACILITY.	NO	SUSAN.MILLER@GFII.COM			YES	 	
29653WLBRN5502H	1311209092004	007440484	COBALT	TRI	2011	WALBAR INC DBA TURBINE COMPONENT SERVICES GOODRICH CORP	5502 HWY 25N	HODGES	GREENWOOD	SC	29653	YES	NO	NO	NO								333611						34.314716	-82.222763	825401375								GOODRICH CORP	008962920	-T01:INCREASED UTILIZATION OF RECYCLING BROKERS AND CHANGED BROKERS FOR IMPROVED PERFORMANCE.	NO	KIM.ASHLEY@GOODRICH.COM			YES	 	
29653WLBRN5502H	1311209092016	007440020	NICKEL	TRI	2011	WALBAR INC DBA TURBINE COMPONENT SERVICES GOODRICH CORP	5502 HWY 25N	HODGES	GREENWOOD	SC	29653	YES	NO	NO	NO								333611						34.314716	-82.222763	825401375								GOODRICH CORP	008962920	-T01:INCREASED UTILIZATION OF RECYCLING BROKERS AND CHANGED BROKERS FOR IMPROVED PERFORMANCE.	NO	KIM.ASHLEY@GOODRICH.COM			YES	 	
29653WLBRN5502H	1311209091990	007440473	CHROMIUM	TRI	2011	WALBAR INC DBA TURBINE COMPONENT SERVICES GOODRICH CORP	5502 HWY 25N	HODGES	GREENWOOD	SC	29653	YES	NO	NO	NO								333611						34.314716	-82.222763	825401375								GOODRICH CORP	008962920	-T01:INCREASED UTILIZATION OF RECYCLING BROKERS AND CHANGED BROKERS FOR IMPROVED PERFORMANCE.	NO	KIM.ASHLEY@GOODRICH.COM			YES	 	
29678NGLHR554MO	1311209549106	N511	NITRATE COMPOUNDS	TRI	2011	BASF CORP	554 ENGELHARD DR	SENECA	OCONEE	SC	29678	YES	NO	NO	NO								325188						34.650437	-82.956115	157499179								BASF CORP	001307032	KAISEN ANALYSIS YIELDED AN OPPORTUNITY TO REDUCE CONSUMPTION OF NITRIC ACID THEREBY REDUCING THE AMOUNT OF NITRATE COMPOUNDS, PRODUCED AS BY PRODUCT.	NO	FRANK.LAMSON-SCRIBNER@BASF.COM			NO	 	
29678NGLHR554MO	1311209549017	007782505	CHLORINE	TRI	2011	BASF CORP	554 ENGELHARD DR	SENECA	OCONEE	SC	29678	YES	NO	NO	NO								325188						34.650437	-82.956115	157499179								BASF CORP	001307032	CHLORINE USAGE HAS BEEN FAIRLY CONSTANT.	NO	FRANK.LAMSON-SCRIBNER@BASF.COM			NO	 	
29678NGLHR554MO	1311209549005	007664417	AMMONIA	TRI	2011	BASF CORP	554 ENGELHARD DR	SENECA	OCONEE	SC	29678	YES	NO	NO	NO								325188						34.650437	-82.956115	157499179								BASF CORP	001307032	SITE DID NOT RECOVER AS MUCH AMMONIA IN 2011 AS IT DID IN 2010.	NO	FRANK.LAMSON-SCRIBNER@BASF.COM			NO	 	
29678NGLHR554MO	1311209549082	007647010	HYDROCHLORIC ACID (1995 AND AFTER "ACID AEROSOLS" ONLY)	TRI	2011	BASF CORP	554 ENGELHARD DR	SENECA	OCONEE	SC	29678	YES	NO	NO	NO								325188						34.650437	-82.956115	157499179								BASF CORP	001307032	HCL IS RECOVERED USING A CONCENTRATOR.	NO	FRANK.LAMSON-SCRIBNER@BASF.COM			NO	 	
29678NGLHR554MO	1311209549031	N100	COPPER COMPOUNDS	TRI	2011	BASF CORP	554 ENGELHARD DR	SENECA	OCONEE	SC	29678	YES	NO	NO	NO								325188						34.650437	-82.956115	157499179								BASF CORP	001307032	COPPER REMOVAL HAS INCREASED ONSITE IN 2011 DUE TO LOWER COPPER WASTERWATER LMITS	NO	FRANK.LAMSON-SCRIBNER@BASF.COM			YES	 	
29678NGLHR554MO	1311209549118	007697372	NITRIC ACID	TRI	2011	BASF CORP	554 ENGELHARD DR	SENECA	OCONEE	SC	29678	YES	NO	NO	NO								325188						34.650437	-82.956115	157499179								BASF CORP	001307032	KAISEN ANALYSIS YIELDED AN OPPORTUNITY TO REDUCE CONSUMPTION OF NITRIC ACID.	NO	FRANK.LAMSON-SCRIBNER@BASF.COM			NO	 	
29644TKNRP600OL	1311209544170	000117817	DI(2-ETHYLHEXYL) PHTHALATE	TRI	2011	TEKNOR APEX - CAROLINA CO	1092 N OLD LAURENS RD	FOUNTAIN INN	LAURENS	SC	29644	YES	NO	NO	NO								325991						34.559116	-82.082933	122855005								TEKNOR APEX CO	045367968	THE AMOUNT OF DHEP TO THE LANDFILL VARIES WITH THE AMOUNT OF SCRAP PROCESSED.	NO	TCATALFOMO@TEKNORAPEX.COM			NO	 	
29644TKNRP600OL	1311209544194	N458	MERCURY COMPOUNDS	PBT	2011	TEKNOR APEX - CAROLINA CO	1092 N OLD LAURENS RD	FOUNTAIN INN	LAURENS	SC	29644	YES	NO	NO	NO								325991						34.559116	-82.082933	122855005								TEKNOR APEX CO	045367968	ALL MERCURY USED IS AN IMPURITY IN CARBON BLACK, CLAY & LIME. MERCURY RECYCLED WAS FROM LIGHT BULBS & COMPUTER MONITORS.	NO	TCATALFOMO@TEKNORAPEX.COM			YES	 	
29644TKNRP600OL	1311209544143	N010	ANTIMONY COMPOUNDS	TRI	2011	TEKNOR APEX - CAROLINA CO	1092 N OLD LAURENS RD	FOUNTAIN INN	LAURENS	SC	29644	YES	NO	NO	NO								325991						34.559116	-82.082933	122855005								TEKNOR APEX CO	045367968	THE AMOUNT OF ANTIMONY TO THE LANDFILL VARIES WITH THE AMOUNT OF SCRAP PROCESSED.	NO	TCATALFOMO@TEKNORAPEX.COM			YES	 	
29644TKNRP600OL	1311209544182	N420	LEAD COMPOUNDS	PBT	2011	TEKNOR APEX - CAROLINA CO	1092 N OLD LAURENS RD	FOUNTAIN INN	LAURENS	SC	29644	YES	NO	NO	NO								325991						34.559116	-82.082933	122855005								TEKNOR APEX CO	045367968	ZERO USAGE OF LEAD, ONLY PRESENT AS AN IMPURITY IN ANTIMONY OXIDE..	NO	TCATALFOMO@TEKNORAPEX.COM			YES	 	
29341SHKSH552HY	1311209140704	000091203	NAPHTHALENE	TRI	2011	FREIGHTLINER CUSTOM CHASSIS CORP	552 HYATT ST	GAFFNEY	CHEROKEE	SC	29341	YES	NO	NO	NO								336211						35.073292	-81.684157	009029687								DAIMLER AG	884639378	MONTHLY GREEN TEAM MEETINGS	NO	ROBERT.HARBIN@DAIMLER.COM			NO	 	
29341SHKSH552HY	1311209140680	000107211	ETHYLENE GLYCOL	TRI	2011	FREIGHTLINER CUSTOM CHASSIS CORP	552 HYATT ST	GAFFNEY	CHEROKEE	SC	29341	YES	NO	NO	NO								336211						35.073292	-81.684157	009029687								DAIMLER AG	884639378	GREEN TEAM MEETINGS HELD MONTHLY	NO	ROBERT.HARBIN@DAIMLER.COM			NO	 	
29687MRTNC1116T	1311209768098	000067561	METHANOL	TRI	2011	EVERGREEN BIODIESEL PRODUCTION FACILITY LLC	1116 TANNER RD	TAYLORS	GREENVILLE	SC	29687	YES	NO	NO	NO								325199						34.9233	-82.3346											THE REGULATED SUBSTANCE IS STRIPPED OFF BY DEMETHYLALIZATION AND REUSED BACK IN OUR PROCESS.  PROCESS: INCLUDES STRIPPING BY VACUUM, AND BY HEATH. THE MATERIAL IS THEN RECEIVED IN A RECEIVER TANK AND REUSED.-W58:THE WET METHANOL FROM THE STRIPPING PROCESS WAS PREVIOUSLY SOLD TO A CUSTOMER. WE CURRENTLY REUSED THIS METHANOL BACK IN OUR PROCESS.	NO	TDEAS@EVERGREENSE.COM			NO	 	
29673DRVTM12MNA	1311209687021	N982	ZINC COMPOUNDS	TRI	2011	DRIVE AUTOMOTIVE INDUSTRIES OF AMERICA INC	120 MOON ACRES RD	PIEDMONT	GREENVILLE	SC	29673	YES	NO	NO	NO								336370						34.722039	-82.382121	945582054								COSMA INTERNATIONAL	181839879	-W68:CHANGED INDUSTRIAL DEGREASER FROM MONSTER GREEN TO GATOR GREEN.;W22:BEGAN TESTING CERTAIN ADHESIVES AND SEALANTS TO SEE IF THEY COULD BE USED PAST THE INITIAL EXPIRATION DATE. ALSO USED BETTER QUALITY CONTROL AND FIFO TECHNIQUES TO MAKE SURE DRUMS WERE USED IN CORRECT ROTATION.;W52:ADDED CUPS ALONG ASSEMBLY LINES FOR PURGING SYSTEMS THAT LIMITED THE AMOUNT OF WASTE COMING FROM SEALER/ADHESIVE APPLICATION DRUM EXCHANGE.	NO	CRLANE@COSMA.COM			YES	 	
29817GSTFBROUTE	1311209619535	000075092	DICHLOROMETHANE	TRI	2011	AUGUSTA FIBERGLASS COATINGS INC	86 LAKE CYNTHIA RD	BLACKVILLE	BARNWELL	SC	298174126	YES	NO	NO	NO								326199						33.339013	-81.284673	075872267		SCD075872267		SCR001342				AUGUSTA FIBERGLASS COATINGS INC	075872267	BATCH DISTILLATION OF DICHLOROMETHANE	NO	D.CRIDER@AUGUSTAFIBERGLASS.COM			NO	 	
29706PPGND1497L	1311209081114	007439921	LEAD	TRI	2011	PPG INDUSTRIES FIBER GLASS PRODUCTS INC	1497 LANCASTER HWY	CHESTER	CHESTER	SC	29706	YES	NO	NO	NO								327212						34.727397	-81.136476	933390080		SCR000000026		SCR000000				PPG INDUSTRIES INC	001344803	PPG INDUSTRIES FIBER GLASS PRODUCTS INC., BELIEVES WE ARE NOT REQUIRED TO REPORT LEAD BASED ON A REGULATORY REVIEW, BUT ARE DOING SO VOLUNTARILY BECAUSE WE HAVE DONE SO HISTORICALLY.	NO	WWALTON@PPG.COM			YES	 	
29205NCHRC2000S	1311209344670	000108883	TOLUENE	TRI	2011	INTERTAPE POLYMER GROUP COLUMBIA DIV	2000 S BELTLINE BLVD	COLUMBIA	RICHLAND	SC	29201	YES	NO	NO	NO								322222						33.96152	-80.98106	003344843								INTERTAPE POLYMER GROUP	077759681	ELIMINATED USE OF SOLVENT BASED COATING ON ONE OF THE PROCESS LINES.  THIS IS CONTINUATION OF WORK TO ELIMINATE SOLVENT BASED COATINGS.	NO	BHILDRET@ITAPE.COM			NO	 	
29607RYMTL12MCD	1311209703812	N511	NITRATE COMPOUNDS	TRI	2011	ROY METAL FINISHING CO INC	120 MCDOUGAL CT	GREENVILLE	GREENVILLE	SC	29607	YES	NO	NO	NO								332813						34.79403	-82.306946	003341849								ROY METAL FINISHING CO INC		-T10:PH MODIFICATION TO USE LESS PRODUCT.	NO	JPAZDAN@ROYMETAL.COM			NO	 	
29607RYMTL12MCD	1311209703824	N982	ZINC COMPOUNDS	TRI	2011	ROY METAL FINISHING CO INC	120 MCDOUGAL CT	GREENVILLE	GREENVILLE	SC	29607	YES	NO	NO	NO								332813						34.79403	-82.306946	003341849								ROY METAL FINISHING CO INC		-W14:ADJUST SCHEDULING TO MAXIMIZE PRODUCTION AND ELIMINATE RUNNING AT LESS THAN FULL PRODUCTION.;T04:TEAM MEETINGS TO OPTIMIZE SCHEDULING	NO	JPAZDAN@ROYMETAL.COM			YES	 	
29501NTRNT1435N	1311208999565	N090	CHROMIUM COMPOUNDS(EXCEPT CHROMITE ORE MINED IN THE TRANSVAAL REGION)	TRI	2011	INTERNATIONAL KNIFE & SAW INC	1435 N CASHUA RD	FLORENCE	FLORENCE	SC	29501	YES	NO	NO	NO								332710						34.219609	-79.796577									INTERNATIONAL KNIFE & SAW INC		BEGINNING AN ON-GOING RECYCLING PROGRAM	NO	MGRAY@IKSINC.COM			YES	 	
2965WSTJDM253FI	1311209846676	N511	NITRATE COMPOUNDS	TRI	2011	ST JUDE MEDICAL CRM DIV	253 FINANCIAL BLVD	LIBERTY	PICKENS	SC	29657	YES	NO	NO	NO								334414								080232168								ST JUDE MEDICAL	080232168	THIS IS THE FIRST YEAR WE REALIZED THIS MATERIAL SHOULD BE REPORTED SO IT TOOK A LITTLE EXTRA TIME TO PREPARE THIS FORM.  SORRY FOR THE DELAY.	NO	GFANDRICH@SJM.COM			NO	 	
29646CPSGL535NE	1311209423274	000071363	N-BUTYL ALCOHOL	TRI	2011	CAPSUGEL	535 N EMERALD RD	GREENWOOD	GREENWOOD	SC	29646	YES	NO	NO	NO								325412						34.207395	-82.123782									CAPSUGEL INC	967496733	-W58:REUSE OF INKS IN PROCESS.	NO	DEBBIE.WALLING@CAPSUGEL.COM			NO	 	
29472RCCRB19COU	1311209735683	000085018	PHENANTHRENE	TRI	2011	SHOWA DENKO CARBON INC	478 RIDGE RD	RIDGEVILLE	DORCHESTER	SC	29472	YES	NO	NO	NO								335991						33.091667	-80.345556	001368114								SHOWA INVESTMENT KK	690914619	-W19:REUSE;W51:REUSE	NO	CLUCAS@SDKC.COM			NO	 	
29472RCCRB19COU	1311209735671	000191242	BENZO(G,H,I)PERYLENE	PBT	2011	SHOWA DENKO CARBON INC	478 RIDGE RD	RIDGEVILLE	DORCHESTER	SC	29472	YES	NO	NO	NO								335991						33.091667	-80.345556	001368114								SHOWA INVESTMENT KK	690914619	-W19:REUSE;W51:REUSE	NO	CLUCAS@SDKC.COM			NO	 	
29472RCCRB19COU	1311209735695	N590	POLYCYCLIC AROMATIC COMPOUNDS	PBT	2011	SHOWA DENKO CARBON INC	478 RIDGE RD	RIDGEVILLE	DORCHESTER	SC	29472	YES	NO	NO	NO								335991						33.091667	-80.345556	001368114								SHOWA INVESTMENT KK	690914619	-W19:REUSE;W51:REUSE	NO	CLUCAS@SDKC.COM			NO	 	
29078STHCR2BUSI	1311209784394	007440473	CHROMIUM	TRI	2011	SOUTH CAROLINA YUTAKA TECHNOLOGIES INC	2 BUSINESS PKWY	LUGOFF	KERSHAW	SC	29078	YES	NO	NO	NO								336330						34.1793	-80.68523									CARDINGTON YUTAKA TECHNOLOGIES INC	938948379	WE REMOVED THE E-COAT LINE IN DECEMBER	NO	JEDWARDS@YUTAKATECH.COM			YES	 	
2965WDRCRL2375H	1311209549841	007440020	NICKEL	TRI	2011	DUER/CAROLINA COIL INC	2375 HWY 101 S	GREER	SPARTANBURG	SC	29651	YES	NO	NO	NO								332611						34.87093	-82.14306	098404759								SSS MANAGEMENT CORP	098404759	DUER/CAROLINA COIL UTILIZES CONTINUOUS IMPROVEMENT OF THE PROCESSES AND TO REDUCE WASTE.	NO	RICKE@DCCOIL.COM			YES	 	
2965WDRCRL2375H	1311209549827	007440508	COPPER	TRI	2011	DUER/CAROLINA COIL INC	2375 HWY 101 S	GREER	SPARTANBURG	SC	29651	YES	NO	NO	NO								332611						34.87093	-82.14306	098404759								SSS MANAGEMENT CORP	098404759	DUER/CAROLINA COIL UTILIZES A CONTINUOUS IMPROVEMENT PROGRAM TO IMPROVE PRODUCTION PROCESSES AND REDUCE WASTE.	NO	RICKE@DCCOIL.COM			YES	 	
2965WDRCRL2375H	1311209549854	001330207	XYLENE (MIXED ISOMERS)	TRI	2011	DUER/CAROLINA COIL INC	2375 HWY 101 S	GREER	SPARTANBURG	SC	29651	YES	NO	NO	NO								332611						34.87093	-82.14306	098404759								SSS MANAGEMENT CORP	098404759	DUER/CAROLINA COIL UTILIZES CONTINUOUS IMPROVEMENT TO REDUCE WASTE FORM OUR PROCESSES.	NO	RICKE@DCCOIL.COM			NO	 	
2965WDRCRL2375H	1311209549815	007440473	CHROMIUM	TRI	2011	DUER/CAROLINA COIL INC	2375 HWY 101 S	GREER	SPARTANBURG	SC	29651	YES	NO	NO	NO								332611						34.87093	-82.14306	098404759								SSS MANAGEMENT CORP	098404759	DUER/CAROLINA COIL UTILIZES A CONTINUOUS IMPROVEMENT APPROACH TO OUR PRODUCTION PROCESSES.	NO	RICKE@DCCOIL.COM			YES	 	
2965WDRCRL2375H	1311209549839	007439965	MANGANESE	TRI	2011	DUER/CAROLINA COIL INC	2375 HWY 101 S	GREER	SPARTANBURG	SC	29651	YES	NO	NO	NO								332611						34.87093	-82.14306	098404759								SSS MANAGEMENT CORP	098404759	DUER/CAROLINA COIL UTILIZES CONTINUOUS IMPROVEMENT TO IMPROVE PROCESSES AND REDUCE WASTE.	NO	RICKE@DCCOIL.COM			YES	 	
29526HNYWL440AL	1311209116856	N096	COBALT COMPOUNDS	TRI	2011	METGLAS INC	440 ALLIED DR	CONWAY	HORRY	SC	29526	YES	NO	NO	NO								332999						33.79818	-78.99619	139727395								HITACHI METALS OF AMERICA LTD	070572482	COBALT RELATED SALES PRODUCTS WERE DOWN FOR CY 2011	NO	DODD.SMITH@METGLAS.COM			YES	 	
29016KYCRP1006N	1311209255431	007440508	COPPER	TRI	2011	KOYO CORP OF USA	1006 NORTHPOINT BLVD	BLYTHEWOOD	RICHLAND	SC	29016	YES	NO	NO	NO								332991						34.177407	-80.980119	073723868								KOYO CORP OF USA		THIS MATERIAL IS A COMPONENT OF STEEL USED IN MANUFACTURING OF HUB UNITS FOR VEHICLES	NO	STEVE.MCCULLOUGH@JTEKT.COM			YES	 	
29696JHNSN124LD	1311209239589	N420	LEAD COMPOUNDS	PBT	2011	JOHNSON CONTROLS BATTERY GROUP INC	1204 OLD WALHALLA HWY	WEST UNION	OCONEE	SC	29696	YES	NO	NO	NO								326199	335911					34.728734	-83.004053	144836178								JOHNSON CONTROLS INC	006092860	-W58:INSTALLED DROSS RECLAIM POT ON LINE 4 IN POWERFRAME WHICH HELPED REDUCE AMOUNT OF DROSS COMING FROM LINE 4.;W52:ADDED A DROSS POT OVERFLOW VALVE ON LINE 2 IN POWERFRAME WHICH REDUCED DROSS ON THIS PARTICULAR LINE.;W89:REDUCED NATURAL GAS USE ON ALL 4 POWERFRAME LINES.	NO	JEFFERY.S.MAY@JCI.COM			YES	 	
29646TRNNC131EM	1311209192145	007440508	COPPER	TRI	2011	ITRON INC	1310 EMERALD RD	GREENWOOD	GREENWOOD	SC	29646	YES	NO	NO	NO								334514						34.21787	-82.09883	121151125	093649895							ITRON INC	093649895	ITRON SHUT DOWN OUR WATER METER MANUFACTURING ELIMINATING PURCHASING OF COPPER CASTINGS FOR WATER METERS.-W49:PRODUCT DISCONTINUED.;T11:PRODUCT DISCONTINUED.	NO	CARROLL.SAMS@ITRON.COM			YES	 	
2945WTTKLB413CA	1311209548573	007440508	COPPER	TRI	2011	ITT KALIBURN INC	4130 CAROLINA COMMERCE PKWY	LADSON	CHARLESTON	SC	29456	YES	NO	NO	NO								332999						32.974331	-80.12451	156985186								ITT CORP	004160982	THE FACILITY CONTINUES TO USE A BRICKKETTER THAT REDUCES SHREDED COPPER FROM THE PROCESS OF PARTS TO COMPACTED BRICKETS FOR RECYCLING.	NO	TONY.HILTON@ITT.COM			YES	 	
1982WTGNMM138SA	1311209178829	000091203	NAPHTHALENE	TRI	2011	TOGNUM AMERICA INC AIKEN	1038 SAGE MILL PKWY	GRANITEVILLE	AIKEN	SC	29829	YES	NO	NO	NO								333618						33.61693	-81.84286	968096359										MOST REDUCTION RESULTS FROM IMPROVING FIRST PASS YIELD SO ENGINES ONLY HAVE TO BE TESTED THE MINIMAL NUMBER OF TIMES MINIMIZING THE USE OF DIESEL FUEL.	NO	ROB.REHNLUND@TOGNUM.COM			NO	 	
1982WTGNMM138SA	1311209178817	000107211	ETHYLENE GLYCOL	TRI	2011	TOGNUM AMERICA INC AIKEN	1038 SAGE MILL PKWY	GRANITEVILLE	AIKEN	SC	29829	YES	NO	NO	NO								333618						33.61693	-81.84286	968096359										REDUCTION EFFORTS ARE MOSTLY CENTERED AROUND IMPROVING FIRST PASS %/QUALITY DURING ENGINE MANUFACTURE.	NO	ROB.REHNLUND@TOGNUM.COM			NO	 	
2941WPLNTN2769T	1311209709498	N511	NITRATE COMPOUNDS	TRI	2011	ARGOS (RMCC) NORTH CHARLESTON CONCRETE PLANT (NO 51)	2769 THREE LAKES RD	NORTH CHARLESTON	CHARLESTON	SC	29418	YES	NO	NO	NO								327320						32.86581	-80.00391	197436652								ARGOS USA CORP	078318694	WE USE THIS PRODUCT ENTIRELY AS AN ADMIXTURE FOR ACCERLERATING THE SET TIME OF READY MIX CONCRETE. THE PRODUCT IS INJECTED DIRECTLY INTO OUR CONCRETE MIXER TRUCK DRUMS FROM ADMIXTURE TANKS LOCATED INSIDE OF SECONDARY CONTAINMENT.	NO	SSIMONSEN@ARGOS-US.COM			NO	 	
