REPORTING YEAR	TRADE SECRET INDICATOR	TRIFID	FACILITY NAME	FACILITY STREET	FACILITY CITY	FACILITY COUNTY	FACILITY STATE	FACILITY ZIP CODE	ENTIRE FACILITY IND	PARTIAL FACILITY IND	FEDERAL FACILITY IND	GOCO FACILITY FLAG	PRIMARY SIC CODE	SIC CODE 2	SIC CODE 3	SIC CODE 4	SIC CODE 5	SIC CODE 6	NAICS ORIGIN	PRIMARY NAICS CODE	NAICS CODE 2	NAICS CODE 3	NAICS CODE 4	NAICS CODE 5	NAICS CODE 6	LATITUDE	LONGITUDE	DB NR A	DB NR B	RCRA NR A	RCRA NR B	NPDES NR A	NPDES NR B	UIC NR A	UIC NR B	PARENT COMPANY NAME	PARENT COMPANY DB NR	DOCUMENT CONTROL NUMBER	CAS NUMBER	CHEMICAL NAME	CLASSIFICATION	UNIT OF MEASURE	DIOXIN DISTRIBUTION 1	DIOXIN DISTRIBUTION 2	DIOXIN DISTRIBUTION 3	DIOXIN DISTRIBUTION 4	DIOXIN DISTRIBUTION 5	DIOXIN DISTRIBUTION 6	DIOXIN DISTRIBUTION 7	DIOXIN DISTRIBUTION 8	DIOXIN DISTRIBUTION 9	DIOXIN DISTRIBUTION 10	DIOXIN DISTRIBUTION 11	DIOXIN DISTRIBUTION 12	DIOXIN DISTRIBUTION 13	DIOXIN DISTRIBUTION 14	DIOXIN DISTRIBUTION 15	DIOXIN DISTRIBUTION 16	DIOXIN DISTRIBUTION 17	STREAM 1 - WASTE STREAM CODE	STREAM 1 - TRTMT METHOD -  SEQUENCE 1	STREAM 1 - TRTMT METHOD -  SEQUENCE 2	STREAM 1 - TRTMT METHOD -  SEQUENCE 3	STREAM 1  -TRTMT METHOD -  SEQUENCE 4	STREAM 1 - TRTMT METHOD -  SEQUENCE 5	STREAM 1 - TRTMT METHOD -  SEQUENCE 6	STREAM 1 - TRTMT METHOD -  SEQUENCE 7	STREAM 1 - TRTMT METHOD -  SEQUENCE 8	STREAM 1 - RANGE INFLUENT CONCENT	STREAM 1 - TRTMT EFFICIENCY EST	STREAM 1 - BASED ON OPERATING DATA?	STREAM 2 - WASTE STREAM CODE	STREAM 2 - TRTMT METHOD -  SEQUENCE 1	STREAM 2 - TRTMT METHOD -  SEQUENCE 2	STREAM 2 - TRTMT METHOD -  SEQUENCE 3	STREAM 2  -TRTMT METHOD -  SEQUENCE 4	STREAM 2 - TRTMT METHOD -  SEQUENCE 5	STREAM 2 - TRTMT METHOD -  SEQUENCE 6	STREAM 2 - TRTMT METHOD -  SEQUENCE 7	STREAM 2 - TRTMT METHOD -  SEQUENCE 8	STREAM 2 - RANGE INFLUENT CONCENT	STREAM 2 - TRTMT EFFICIENCY EST	STREAM 2 - BASED ON OPERATING DATA?	STREAM 3 - WASTE STREAM CODE	STREAM 3 - TRTMT METHOD -  SEQUENCE 1	STREAM 3 - TRTMT METHOD -  SEQUENCE 2	STREAM 3 - TRTMT METHOD -  SEQUENCE 3	STREAM 3  -TRTMT METHOD -  SEQUENCE 4	STREAM 3 - TRTMT METHOD -  SEQUENCE 5	STREAM 3 - TRTMT METHOD -  SEQUENCE 6	STREAM 3 - TRTMT METHOD -  SEQUENCE 7	STREAM 3 - TRTMT METHOD -  SEQUENCE 8	STREAM 3 - RANGE INFLUENT CONCENT	STREAM 3 - TRTMT EFFICIENCY EST	STREAM 3 - BASED ON OPERATING DATA?	STREAM 4 - WASTE STREAM CODE	STREAM 4 - TRTMT METHOD -  SEQUENCE 1	STREAM 4 - TRTMT METHOD -  SEQUENCE 2	STREAM 4 - TRTMT METHOD -  SEQUENCE 3	STREAM 4  -TRTMT METHOD -  SEQUENCE 4	STREAM 4 - TRTMT METHOD -  SEQUENCE 5	STREAM 4 - TRTMT METHOD -  SEQUENCE 6	STREAM 4 - TRTMT METHOD -  SEQUENCE 7	STREAM 4 - TRTMT METHOD -  SEQUENCE 8	STREAM 4 - RANGE INFLUENT CONCENT	STREAM 4 - TRTMT EFFICIENCY EST	STREAM 4 - BASED ON OPERATING DATA?	STREAM 5 - WASTE STREAM CODE	STREAM 5 - TRTMT METHOD -  SEQUENCE 1	STREAM 5 - TRTMT METHOD -  SEQUENCE 2	STREAM 5 - TRTMT METHOD -  SEQUENCE 3	STREAM 5  -TRTMT METHOD -  SEQUENCE 4	STREAM 5 - TRTMT METHOD -  SEQUENCE 5	STREAM 5 - TRTMT METHOD -  SEQUENCE 6	STREAM 5 - TRTMT METHOD -  SEQUENCE 7	STREAM 5 - TRTMT METHOD -  SEQUENCE 8	STREAM 5 - RANGE INFLUENT CONCENT	STREAM 5 - TRTMT EFFICIENCY EST	STREAM 5 - BASED ON OPERATING DATA	ASSIGNED FED. FACILITY FLAG	PUBLIC CONTACT EMAIL	REVISION CODE 1	REVISION CODE 2	METAL INDICATOR	20-NOV-13	
2012	NO	13021BRNSTQUARR	NUCOR STEEL AUBURN INC	25 QUARRY RD	AUBURN	CAYUGA	NY	130211146	YES	NO	NO	NO								331111						42.952	-76.572	026308820								NUCOR CORP	003446796	1312210453864	N420	LEAD COMPOUNDS	PBT	Pounds																		NA									N 																																																			NO	GORDON.ELWELL@NUCOR.COM			YES	 	
2012	NO	14825VLCRF5362R	VULCRAFT OF NEW YORK INC	621 MAIN ST	CHEMUNG	CHEMUNG	NY	14825	YES	NO	NO	NO								332312	332322					42.005417	-76.617806	832144146								NUCOR CORP	003446796	1312210043523	000078922	SEC-BUTYL ALCOHOL	TRI	Pounds																		NA									N 																																																			NO	MHEINE@VULCRAFT-NY.COM			NO	 	
2012	NO	14150CRHNT3500R	HUNTLEY GENERATING STATION	3500 RIVER RD	TONAWANDA	ERIE	NY	14150	YES	NO	NO	NO								221112						42.9706	-78.9304	556093396								NRG ENERGY INC	793422213	1312210343808	N458	MERCURY COMPOUNDS	PBT	Pounds																		NA									N 																																																			NO	DAVID.GAIER@NRGENERGY.COM			YES	 	
2012	NO	12550MRDHS590RI	HESS CORP ROSETON TERMINAL	590 RIVER RD	NEWBURGH	ORANGE	NY	12550	YES	NO	NO	NO								424710						41.559194	-73.981278									HESS CORP	006979785	1312210027975	000191242	BENZO(G,H,I)PERYLENE	PBT	Pounds																		NA									N 																																																			NO	JGEITNER@HESS.COM			NO	 	
2012	NO	13619SLCKC465SC	SLACK CHEMICAL CO INC	465 S CLINTON ST	CARTHAGE	JEFFERSON	NY	13619	YES	NO	NO	NO								424690						43.977222	-75.598056	013447511								SLACK CHEMICAL CO INC		1312210666917	000067561	METHANOL	TRI	Pounds																		NA									N 																																																			NO	SLACK@SLACKCHEM.COM			NO	 	
2012	NO	11222MTVNT25PAI	ARC BROOKLYN ON BEHALF OF FORMER OWNER MOTIVA BROOKLYN	25 PAIDGE AVE	BROOKLYN	KINGS	NY	11222	YES	NO	NO	NO								493190						40.73712	-73.951453									ARC TERMINALS LP		1312210645851	000095636	1,2,4-TRIMETHYLBENZENE	TRI	Pounds																		A	H082								N 	E3																																																		NO	SKIZEWSKI@ARCTERMINALS.COM			NO	 	
2012	NO	12047NRLTC628SO	NORLITE CORP	628 S SARATOGA ST	COHOES	ALBANY	NY	12047	YES	NO	NO	NO								327992						42.7555	-73.705667	154133672								UNITED OIL RECOVERY	154133672	1312210694636	007439921	LEAD	TRI	Pounds																		W	H121	H123							N 	E1																																																		NO	TITA.LAGRIMAS@TRADEBE.COM			YES	 	
2012	NO	12553WRXTRRIVER	GLOBAL COS LLC NORTH TERMINAL	1254  RIVER RD	NEW WINDSOR	ORANGE	NY	12553	YES	NO	NO	NO								424710						41.485139	-74.008333	019177757								GLOBAL COS LLC	019177757	1312210388106	000091203	NAPHTHALENE	TRI	Pounds																		A	A01								N 	E4																																																		NO	RKENNY@GLOBALP.COM			NO	 	
2012	NO	13605GRTLK23PHE	GREAT LAKES CHEESE OF NY INC	23 PHELPS ST	ADAMS	JEFFERSON	NY	13605	YES	NO	NO	NO								311513						43.811667	-76.029167	121790794								GREAT LAKES CHEESE CO INC	018219808	1312209978586	007697372	NITRIC ACID	TRI	Pounds																		W	H121								N 	E1																																																		NO	JENNINGS@GREATLAKESCHEESE.COM			NO	 	
2012	NO	14001WHTNG113CE	WHITING DOOR MANUFACTURING CORP	113 CEDAR ST	AKRON	ERIE	NY	14001	YES	NO	NO	NO								336399						43.029	-78.497	002114726								WHITING DOOR MANUFACTURING CORP		1312210568907	007439965	MANGANESE	TRI	Pounds																		NA									N 																																																			NO	MIKEWHITING@WHITINGDOOR.COM			YES	 	
2012	NO	14411GRFFT3819A	GRIFFITH ENERGY - ALBION	3819 OAK ORCHARD RD	ALBION	ORLEANS	NY	14411	YES	NO	NO	NO								424710						43.228333	-78.193889	013410444								SUPERIOR PLUS ENERGY SERVICES INC.		1312210444081	N590	POLYCYCLIC AROMATIC COMPOUNDS	PBT	Pounds																		NA									N 																																																			NO				NO	 	
2012	NO	13617CRNNGROUTE	CORNING INC	334 COUNTY RT 16	CANTON	ST LAWRENCE	NY	13617	YES	NO	NO	NO								327212						44.559299	-75.316195	001307735		NYD042352658		NY0085006				CORNING INC	001307735	1312210285033	N420	LEAD COMPOUNDS	PBT	Pounds																		NA									N 																																																			NO	HORVATHSI@CORNING.COM			YES	 	
2012	NO	10550CNLSP800CA	CANAL ASPHALT INC	800 CANAL ST	MOUNT VERNON	WESTCHESTER	NY	10550	YES	NO	NO	NO								324121						40.8966	-73.8214	124285227										1312210806663	000191242	BENZO(G,H,I)PERYLENE	PBT	Pounds																		NA									N 																																																			NO	GEXARCHAKIS@US-CONCRETE.COM			NO	 	
2012	NO	14207DPNTYSHERI	DUPONT YERKES PLANT	3115 RIVER RD	BUFFALO	ERIE	NY	14207	YES	NO	NO	NO								326113	326191					42.969393	-78.911496			NYD002103513		NY0001601				E I DU PONT DE NEMOURS & CO	001315704	1312210293534	008001589	CREOSOTE	TRI	Pounds																		NA									N 																																																			NO	SHARON.A.LASKOWSKI@DUPONT.COM			NO	 	
2012	NO	13601KNWLT213FA	KNOWLTON TECHNOLOGIES LLC	213 FACTORY ST	WATERTOWN	JEFFERSON	NY	13601	YES	NO	NO	NO								322121						43.977444	-75.906889	826885134								KNOWLTON TECHNOLOGIES LLC		1312210351944	000108952	PHENOL	TRI	Pounds																		A	H040								N 	E3																																																		NO	JCONNOR@KNOWLTON-CO.COM			NO	 	
2012	NO	11696MBLLN464DO	GLOBAL COS LLC INWOOD TERMINAL	464 DOUGHTY BLVD	INWOOD	NASSAU	NY	11096	YES	NO	NO	NO								424710						40.625694	-73.745694	019177757								GLOBAL COS LLC	019177757	1312210510362	000108883	TOLUENE	TRI	Pounds																		W	H083								N 	E4		A	A04								N 	E3		A	A03								N 	E5																										NO	RKENNY@GLOBALP.COM			NO	 	
2012	NO	12822NDCKC24WHI	INDECK-CORINTH ENERGY CENTER	24 WHITE ST	CORINTH	SARATOGA	NY	12822	YES	NO	NO	NO								221112						43.249556	-73.809222									INDECK ENERGY	931395115	1312210227930	007664417	AMMONIA	TRI	Pounds																		NA									N 																																																			NO	MMINNOLERA@INDECKENERGY.COM			NO	 	
2012	NO	12188DGSSCSCHOO	EVONIK DEGUSSA CORP	7 SCHOOLHOUSE LN	WATERFORD	SARATOGA	NY	12188	YES	NO	NO	NO								325188						42.81936	-73.667196	068209295								EVONIK INDUSTRIES	068209295	1312210227892	000107211	ETHYLENE GLYCOL	TRI	Pounds																		NA									N 																																																			NO	KEVIN.JORDAN@EVONIK.COM			NO	 	
2012	NO	10962NCPKP2NICE	PROFESSIONAL DISPOSABLES INTERNATIONAL INC	TWO NICE-PAK PARK	ORANGEBURG	ROCKLAND	NY	10962	YES	NO	NO	NO								325620						41.049881	-73.944771	003778198										1312210253706	N230	CERTAIN GLYCOL ETHERS	TRI	Pounds																		NA									N 																																																			NO	MJACOBS@NICEPAK.COM			NO	 	
2012	NO	13209GNRLCWILLI	GENERAL CHEMICAL LLC - SYRACUSE WORKS	1421 WILLIS AVE	SYRACUSE	ONONDAGA	NY	13204	YES	NO	NO	NO								325188						43.062167	-76.1995	072064418								GENERAL CHEMICAL PERFORMANCE PRODUCTS LLC	072064418	1312210308007	007632000	SODIUM NITRITE	TRI	Pounds																		NA									N 																																																			NO	JCREGG@GENCHEMCORP.COM			YES	 	
2012	NO	12143BLCRCROUTE	LAFARGE BUILDING MATERIALS INC	1916 RT 9W	RAVENA	ALBANY	NY	12143	YES	NO	NO	NO								327310						42.49756	-73.813652	144513728								LAFARGE N.A. INC	067568246	1312210703322	007647010	HYDROCHLORIC ACID (1995 AND AFTER "ACID AEROSOLS" ONLY)	TRI	Pounds																		A	A05								N 	E6																																																		NO	SARAH.SWEENEY@LAFARGE-NA.COM			NO	 	
2012	NO	13153WLCHL4341S	WELCH ALLYN INC	4341 STATE ST RD	SKANEATELES FALLS	ONONDAGA	NY	13153	YES	NO	NO	NO								339112						42.994465	-76.458158	002240281										1312210067738	007440508	COPPER	TRI	Pounds																																																																														NO	TOM.SCOTT@WELCHALLYN.COM			YES	 	
2012	NO	11222TRNSP419VA	TRANSPACKERS SERVICES CORP	419 VANDERVOORT AVE	BROOKLYN	KINGS	NY	11222	YES	NO	NO	NO								311999						40.719444	-73.936111	063866891										1312210338137	007758012	POTASSIUM BROMATE	TRI	Pounds																		NA									N 																																																			NO	LESTER@TRANSPACKERS.COM			YES	 	
2012	NO	12901GRFFT4736R	GRIFFITH ENERGY - PLATTSBURGH	4736 RT 9	PLATTSBURGH	CLINTON	NY	12901	YES	NO	NO	NO								424710						44.67056	-73.44639	013410444								SUPERIOR PLUS ENERGY SERVICES INC.		1312210445096	000191242	BENZO(G,H,I)PERYLENE	PBT	Pounds																		NA									N 																																																			NO				NO	 	
2012	NO	13201MLNFN1841L	MELOON FOUNDRIES INC	1841 LEMOYNE AVE	SYRACUSE	ONONDAGA	NY	13208	YES	NO	NO	NO								331524						43.086228	-76.146115											1312210257349	007440508	COPPER	TRI	Pounds																		NA									N 																																																			NO	JIM@MELOON.COM			YES	 	
2012	NO	10710LCTRN21GRA	ELECTRONIC DEVICES INC	21 GRAY OAKS AVE	YONKERS	WESTCHESTER	NY	10710	YES	NO	NO	NO								334413						40.974689	-73.867968	013415849								ELECTRONIC DEVICES INC		1312210075457	N511	NITRATE COMPOUNDS	TRI	Pounds																		W	H071	H121	H129	H073	H123	H124			N 	E6																																																		NO	RAYMOND.S@EDIDIODES.COM			NO	 	
2012	NO	14825VLCRF5362R	VULCRAFT OF NEW YORK INC	621 MAIN ST	CHEMUNG	CHEMUNG	NY	14825	YES	NO	NO	NO								332312	332322					42.005417	-76.617806	832144146								NUCOR CORP	003446796	1312210043485	N230	CERTAIN GLYCOL ETHERS	TRI	Pounds																		NA									N 																																																			NO	MHEINE@VULCRAFT-NY.COM			NO	 	
2012	NO	12920MCCDM23COL	AGRI-MARK INC  MCCADAM PLANT	39 MCCADAM LN	CHATEAUGAY	FRANKLIN	NY	12920	YES	NO	NO	NO								311513						44.923656	-74.076652									AGRI-MARK INC	021719893	1312210507531	N511	NITRATE COMPOUNDS	TRI	Pounds																		W	H081	H121	H123						N 	E6																																																		NO	THERBICK@MCCADAM.COM			NO	 	
2012	NO	10940HRCLS33SPR	FLEURCHEM INC	33 SPRAGUE AVE	MIDDLETOWN	ORANGE	NY	10940	YES	NO	NO	NO								325199						41.443243	-74.413676	122279243										1312210076319	N450	MANGANESE COMPOUNDS	TRI	Pounds																		NA									N 																																																			NO	DWANAMKER@EMLWEB.COM			YES	 	
2012	NO	11385NDPND7951C	INDEPENDENT CHEMICAL CORP	70-30 79TH PL	GLENDALE	QUEENS	NY	11385	YES	NO	NO	NO								424690						40.708386	-73.872019	000699282								INDEPENDENT CHEMICAL CORP	000699282	1312209917259	007664417	AMMONIA	TRI	Pounds																																																																														NO	JONATHAN@INDEPENDENTHCHEMICAL.COM			NO	 	
2012	NO	12068KYMRKRTE33	KEYMARK CORP	1188 CAYADUTTA ST RT 334	FONDA	MONTGOMERY	NY	12068	YES	NO	NO	NO								331316						42.956111	-74.389056	002077196								KEYMARK CORP		1312210065900	007664939	SULFURIC ACID (1994 AND AFTER "ACID AEROSOLS" ONLY)	TRI	Pounds																		A	A03								N 	E4																																																		NO	WKELLER@KEYMARKCORP.COM			NO	 	
2012	NO	12883NTRNTSHORE	INTERNATIONAL PAPER	568 SHORE AIRPORT RD	TICONDEROGA	ESSEX	NY	12883	YES	NO	NO	NO								322121						43.891973	-73.399275	002067882								INTERNATIONAL PAPER CO	001316561	1312210412591	N420	LEAD COMPOUNDS	PBT	Pounds																		A	A03								N 	E4		A	A05								N 	E3		W	H123	H121	H081	H123					N 	E5		A	A03								N 	E5														NO	DONNA.WADSWORTH@IPAPER.COM			YES	 	
2012	NO	14303LNCHM2400B	OLIN CORP	2400 BUFFALO AVE	NIAGARA FALLS	NIAGARA	NY	143030748	YES	NO	NO	NO								325181						43.081994	-79.029936	001338086								OLIN CORP	001338086	1312210561256	007647010	HYDROCHLORIC ACID (1995 AND AFTER "ACID AEROSOLS" ONLY)	TRI	Pounds																		NA									N 																																																			NO	MJAUDET@OLIN.COM			NO	 	
2012	NO	12188GNRLL260HU	MPM SILICONES LLC	260 HUDSON RIVER RD	WATERFORD	SARATOGA	NY	12188	YES	NO	NO	NO								325211	325188	325212				42.815833	-73.666667	002080034								MOMENTIVE PERFORMANCE MATERIALS HOLDINGS LLC		1312210699435	000074873	CHLOROMETHANE	TRI	Pounds																		A	H040	A03	A05						N 	E3		A	A03								N 	E3		W	H121	H124	H077	H123	H101	H081	H083	H123	N 	E4		L	H040								N 	E3		A	A03								N 	E6		NO	JOHN.SCHARF@MOMENTIVE.COM			NO	 	
2012	NO	14220SRRNT2375S	SORRENTO LACTALIS INC	2375 S PARK AVE	BUFFALO	ERIE	NY	14220	YES	NO	NO	NO								311513						42.833056	-78.825	131687790								LACTALIS AMERICAN CO INC	009073503	1312210516807	N511	NITRATE COMPOUNDS	TRI	Pounds																		W	H129	H121	H123						N 	E6																																																		NO	MICHAEL.PALMER@LACTALIS.US			NO	 	
2012	NO	13204FBRTK56IND	SYRACUSE ENERGY CORP	56 INDUSTRIAL DR	SYRACUSE	ONONDAGA	NY	132041091	YES	NO	NO	NO								221112						43.064531	-76.20889	147855613								SUEZ ENERGY GENERATION N.A.	133378939	1312210639086	N150	DIOXIN AND DIOXIN-LIKE COMPOUNDS	DIOXIN	Grams																		A	A07	A03	A06						N 	E6																																																		NO	TOM.MINION@GDFSUEZNA.COM			NO	 	
2012	NO	10941CHRML15TWE	CHROMALLOY	105 TOWER DR	MIDDLETOWN	ORANGE	NY	10941	YES	NO	NO	NO								332812						41.46796	-74.37803	011957438								CHROMALLOY GAS TURBINE CORP	011957438	1312210498352	007440484	COBALT	TRI	Pounds																		NA									N 																																																			NO	MWILSON@CHROMALLOY.COM			YES	 	
2012	NO	13045PLLTR3643W	PALL CORP PALL TRINITY MICRO DIV	3643 NYS RT 281	CORTLANDVILLE	CORTLAND	NY	13045	YES	NO	NO	NO								332999						42.58836	-76.184812	129837860								PALL CORP		1312210568960	000075650	TERT-BUTYL ALCOHOL	TRI	Pounds																		NA									N 																																																			NO	DANIEL_KEEFE@PALL.COM			NO	 	
2012	NO	14589THTCH4135R	THATCHER CO OF NEW YORK	4135 RT 104	WILLIAMSON	WAYNE	NY	14589	YES	NO	NO	NO								325188						43.233	-77.185	785624636								THATCHER CO		1312210721445	N511	NITRATE COMPOUNDS	TRI	Pounds																		NA									N 																																																			NO	CHRISP@TCHEM.COM			NO	 	
2012	NO	14589THTCH4135R	THATCHER CO OF NEW YORK	4135 RT 104	WILLIAMSON	WAYNE	NY	14589	YES	NO	NO	NO								325188						43.233	-77.185	785624636								THATCHER CO		1312210721458	007697372	NITRIC ACID	TRI	Pounds																		NA									N 																																																			NO	CHRISP@TCHEM.COM			NO	 	
2012	NO	10454CSTLL939E1	CASTLE OIL PORT MORRIS INC	939 E 138TH ST	BRONX	BRONX	NY	10454	YES	NO	NO	NO								424710						40.800722	-73.906667	144135639								CASTLE OIL CO	144135639	1312210067714	000091203	NAPHTHALENE	TRI	Pounds																		W	H124								N 	E4																																																		NO	TCAREY@CASTLE.US			NO	 	
2012	NO	14411GRFFT3819A	GRIFFITH ENERGY - ALBION	3819 OAK ORCHARD RD	ALBION	ORLEANS	NY	14411	YES	NO	NO	NO								424710						43.228333	-78.193889	013410444								SUPERIOR PLUS ENERGY SERVICES INC.		1312210444004	000191242	BENZO(G,H,I)PERYLENE	PBT	Pounds																		NA									N 																																																			NO				NO	 	
2012	NO	1443WMNCHS1719L	MANCHESTER- RAM; DOLOMITE PRODUCTS INC	1719 LOVERS LN RD	CLIFTON SPRINGS	ONTARIO	NY	14432	YES	NO	NO	NO								212312	324121					42.94719	-77.1817	006993851								OLDCASTLE INC.	806709812	1312210829216	000191242	BENZO(G,H,I)PERYLENE	PBT	Pounds																																																																														NO				NO	 	
2012	NO	12834HLLNGCOUNT	EASTON MILL	3235 COUNTY RT 113	GREENWICH	WASHINGTON	NY	12834	YES	NO	NO	NO								322121						43.109472	-73.574139	001006360										1312210586994	N982	ZINC COMPOUNDS	TRI	Pounds																		W	H123	H081	H123						N 	E4																																																		NO	M.ROWLAND@HOVO.COM			YES	 	
2012	NO	11021WGCHM239GR	WEGO CHEMICAL & MINERAL CORP	239 GREAT NECK RD	GREAT NECK	NASSAU	NY	11021	YES	NO	NO	NO								424690						40.781921	-73.731926	073108664								WEGO CHEMICAL & MINERAL CORP	073108664	1312210330243	000079107	ACRYLIC ACID	TRI	Pounds																		NA									N 																																																			NO	ACOHEN@WEGOCHEM.COM			NO	 	
2012	NO	13209CRCBLSTATE	CRUCIBLE INDUSTRIES LLC	575 STATE FAIR BLVD	SOLVAY	ONONDAGA	NY	13209	YES	NO	NO	NO								331111						43.085298	-76.223335	961589863								CRUCIBLE INDUSTRIES LLC	961589863	1312210372443	007697372	NITRIC ACID	TRI	Pounds																		W	H129	H121							N 	E1																																																		NO	LORNA.CARPENTER@CRUCIBLE.COM			NO	 	
2012	NO	14094VNDMR1NORT	VANDEMARK CHEMICAL INC	1 N TRANSIT RD	LOCKPORT	NIAGARA	NY	14094	YES	NO	NO	NO								325199						43.183778	-78.6975											1312210673570	000067561	METHANOL	TRI	Pounds																		A	A03								N 	E5		A	A02	A04							N 	E5																																						NO	C.BANACH@VDMCHEMICAL.COM			NO	 	
2012	NO	14094VNDMR1NORT	VANDEMARK CHEMICAL INC	1 N TRANSIT RD	LOCKPORT	NIAGARA	NY	14094	YES	NO	NO	NO								325199						43.183778	-78.6975											1312210673618	000108883	TOLUENE	TRI	Pounds																		A	A02	A04							N 	E4		A	A03								N 	E4		W	H082								N 	E4																										NO	C.BANACH@VDMCHEMICAL.COM			NO	 	
2012	NO	10973BLCHMROUTE	BALCHEM CORP	2007 RT 284	SLATE HILL	ORANGE	NY	109730175	YES	NO	NO	NO								311119						41.389872	-74.477019	041992728								BALCHEM CORP		1312210295895	000107211	ETHYLENE GLYCOL	TRI	Pounds																		NA									N 																																																			NO	DROSSI@BALCHEMCORP.COM			NO	 	
2012	NO	14107CWMCH1550B	CWM CHEMICAL SERVICES LLC	1550 BALMER RD	MODEL CITY	NIAGARA	NY	14107	YES	NO	NO	NO								562211						43.21666	-79.03333	620762872								WASTE MANAGEMENT INC	194672085	1312210011173	001332214	ASBESTOS (FRIABLE)	TRI	Pounds																		S	H111								N 	E6																																																		NO	JBANASZ@WM.COM			YES	 	
2012	NO	14605THGNS445ST	HIGH FALLS OPERATING CO LLC	445 SAINT PAUL ST	ROCHESTER	MONROE	NY	14605	YES	NO	NO	NO								312120						43.164448	-77.616186	194425336										1312210230227	N590	POLYCYCLIC AROMATIC COMPOUNDS	PBT	Pounds																		NA									N 																																																			NO				NO	 	
2012	NO	13601GRFFT21822	GRIFFITH ENERGY - WATERTOWN	21822 GILLETTE RD	WATERTOWN	JEFFERSON	NY	13601	YES	NO	NO	NO								424710						43.935317	-75.935117	013410444								SUPERIOR PLUS ENERGY SERVICES INC.		1312210444384	000098828	CUMENE	TRI	Pounds																																																																														NO				NO	 	
2012	NO	14589MTTSX4363R	MOTT'S	4363 RT 104	WILLIAMSON	WAYNE	NY	14589	YES	NO	NO	NO								311421						43.236111	-77.174444	069871200								DR PEPPER SNAPPLE GROUP	069871200	1312210102493	N511	NITRATE COMPOUNDS	TRI	Pounds																																																																														NO	TOM.FREEMAN@DPSG.COM			NO	 	
2012	NO	11590JHNHS6091C	JOHN HASSALL INC	609-1 CANTIAGUE ROCK RD	WESTBURY	NASSAU	NY	11590	YES	NO	NO	NO								332722						40.76588	-73.55074	002908028										1312210147144	007440473	CHROMIUM	TRI	Pounds																		W	H071	H124	H082	H123	H129				N 	E4																																																		NO	VP@HASSALL.COM			YES	 	
2012	NO	14760GRFFT1650E	GRIFFITH ENERGY - OLEAN	1637 E STATE ST	OLEAN	CATTARAUGUS	NY	14760	YES	NO	NO	NO								424710						42.069443	-78.392776	013410444								SUPERIOR PLUS ENERGY SERVICES INC.		1312210444182	000098828	CUMENE	TRI	Pounds																																																																														NO				NO	 	
2012	NO	11725GSSRS440MO	GASSER & SONS INC	440 MORELAND RD	COMMACK	SUFFOLK	NY	11725	YES	NO	NO	NO								332116						40.809185	-73.270217	001493774										1312210638159	000079016	TRICHLOROETHYLENE	TRI	Pounds																		NA									N 																																																			NO				NO	 	
2012	NO	14302CCDNT4700B	OCCIDENTAL CHEMICAL CORP NIAGARA PLANT	4700 BUFFALO AVE	NIAGARA FALLS	NIAGARA	NY	143043821	YES	NO	NO	NO								325181	325998					43.086694	-79.003833	039055660								OCCIDENTAL CHEMICAL HOLDING CO	144374907	1312210008924	001332214	ASBESTOS (FRIABLE)	TRI	Pounds																																																																														NO	HEBERT_C._JONES@OXY.COM			YES	 	
2012	NO	14210PVSCH55LEE	PVS CHEMICAL SOLUTIONS	55 LEE ST	BUFFALO	ERIE	NY	14210	YES	NO	NO	NO								325188						42.864395	-78.840832	002544922								PVS CHEMICALS INC	006530273	1312210628564	000111422	DIETHANOLAMINE	TRI	Pounds																																																																														NO	CCANCILLA@PVSCHEMICALS.COM			NO	 	
2012	NO	13021BRNSTQUARR	NUCOR STEEL AUBURN INC	25 QUARRY RD	AUBURN	CAYUGA	NY	130211146	YES	NO	NO	NO								331111						42.952	-76.572	026308820								NUCOR CORP	003446796	1312210453837	N100	COPPER COMPOUNDS	TRI	Pounds																		NA									N 																																																			NO	GORDON.ELWELL@NUCOR.COM			YES	 	
2012	NO	12015TLNTCSCHOH	NORTHEAST TREATERS OF NEW YORK  LLC	796 SCHOHARIE TPKE	ATHENS	GREENE	NY	12015	YES	NO	NO	NO								321114						42.28652	-73.839693	931872089								NORTHEAST TREATERS INC		1312210161170	N100	COPPER COMPOUNDS	TRI	Pounds																																																																														NO	SCOTT@NETREATERS.COM			YES	 	
2012	NO	13027NHSRB2885B	ANHEUSER-BUSCH LLC	2885 BELGIUM RD	BALDWINSVILLE	ONONDAGA	NY	130272706	YES	NO	NO	NO								312120						43.1691	-76.3112	006288799								ANHEUSER-BUSCH INBEV	098630254	1312210607899	N590	POLYCYCLIC AROMATIC COMPOUNDS	PBT	Pounds																		NA									N 																																																			NO	NICKOLAS.MILLS@ANHEUSER-BUSCH.COM			NO	 	
2012	NO	14860GRFFT8571R	GRIFFITH ENERGY - LODI	8571 STATE RT 414	LODI	SENECA	NY	14860	YES	NO	NO	NO								424710						42.60852	-76.825253	013410444								SUPERIOR PLUS ENERGY SERVICES INC.		1312210443937	000110543	N-HEXANE	TRI	Pounds																																																																														NO				NO	 	
2012	NO	14845HRDNG3575O	HARDINGE INC	ONE HARDINGE DR	ELMIRA	CHEMUNG	NY	149011507	YES	NO	NO	NO								333512						42.14444	-76.82499	002204063										1312210194736	007439921	LEAD	TRI	Pounds																		NA									N 																																																			NO				YES	 	
2012	NO	14120NCRND100ME	AN-COR INDUSTRIAL PLASTICS	900 NIAGARA FALLS BLVD	NORTH TONAWANDA	NIAGARA	NY	14120	YES	NO	NO	NO								326199						43.061446	-78.843369											1312210135998	000100425	STYRENE	TRI	Pounds																		NA									N 																																																			NO				NO	 	
2012	NO	14150NCNRG700GR	NOCO ENERGY CORP	700 GRAND ISLAND BLVD	TONAWANDA	ERIE	NY	141510086	YES	NO	NO	NO								424710						42.991128	-78.925194	013293519								NOCO ENERGY CORP	013293519	1312210167045	000095636	1,2,4-TRIMETHYLBENZENE	TRI	Pounds																		NA									N 																																																			NO	VSPEEK@NOCO.COM			NO	 	
2012	NO	14206CHMCL80MET	CHEMICAL DISTRIBUTORS INC	80 METCALFE ST	BUFFALO	ERIE	NY	14206	YES	NO	NO	NO								424690	325611	493190				42.8825	-78.836944	013711338										1312209939622	007697372	NITRIC ACID	TRI	Pounds																		NA									N 																																																			NO	TOM@CDIBUFFALO.COM			NO	 	
2012	NO	12047NRLTC628SO	NORLITE CORP	628 S SARATOGA ST	COHOES	ALBANY	NY	12047	YES	NO	NO	NO								327992						42.7555	-73.705667	154133672								UNITED OIL RECOVERY	154133672	1312210694586	000075343	ETHYLIDENE DICHLORIDE	TRI	Pounds																		NA									N 																																																			NO	TITA.LAGRIMAS@TRADEBE.COM			NO	 	
2012	NO	11203MRCRY4808F	MERCURY PAINT CORP	4808 FARRAGUT RD	BROOKLYN	KINGS	NY	11203	YES	NO	NO	NO								325510						40.637323	-73.930708											1312210084758	000095636	1,2,4-TRIMETHYLBENZENE	TRI	Pounds																																																																														NO	WBROMIRSKI@PRIMEENVIRONMENTAL.COM			NO	 	
2012	NO	14414SFTYK1525W	SAFETY-KLEEN SYSTEMS (202802)	1525 W HENRIETTA RD	AVON	LIVINGSTON	NY	14414	YES	NO	NO	NO								562112	484220	484230				42.91492	-77.704815	053976551								SAFETY-KLEEN INC	053976551	1312210390112	000107211	ETHYLENE GLYCOL	TRI	Pounds																		NA									N 																																																			NO	MICHAEL.ROORDA@SAFETY-KLEEN.COM			NO	 	
2012	NO	12095BMCJHUNION	BENJAMIN MOORE & CO JOHNSTOWN	UNION AVE EXTENSION	JOHNSTOWN	FULTON	NY	12095	YES	NO	NO	NO								325510						42.993056	-74.391111	181837238								BERKSHIRE HATHAWAY	001210715	1312210578124	N982	ZINC COMPOUNDS	TRI	Pounds																		NA									N 																																																			NO	PAUL.CONNELIE@BENJAMINMOORE.COM			YES	 	
2012	NO	1350WNDMCR111BU	INDIUM CORP OF AMERICA	111 BUSINESS PARK DR	UTICA	ONEIDA	NY	13502	YES	NO	NO	NO								332999						43.089	-75.284	782042949								INDIUM CORPROATION OF AMERICA	782042949	1312210710947	007439921	LEAD	TRI	Pounds																		NA									N 																																																			NO	NSWARTS@INDIUM.COM			YES	 	
2012	NO	13413SSSMR4355M	SAES SMART MATERIALS INC	4355 MIDDLE SETTLEMENT RD	NEW HARTFORD	ONEIDA	NY	13413	YES	NO	NO	NO								331419						43.082	-75.326	013713871								SAES GETTERS SPA ITALY		1312210608257	007440020	NICKEL	TRI	Pounds																		NA									N 																																																			NO	PAUL_TENNIS@SAES-GROUP.COM			YES	 	
2012	NO	14086NTDSL4471W	UNITED SILICONE INC	4471 WALDEN AVE	LANCASTER	ERIE	NY	14086	YES	NO	NO	NO								333319						42.927379	-78.599156	030231153								ILLINOIS TOOL WORKS INC		1312210310722	007439921	LEAD	TRI	Pounds																		NA									N 																																																			NO	DLOOS@UNITEDSILICONE.COM			YES	 	
2012	NO	1461WRCHST681RI	ROCHESTER SILVER WORKS LLC	725 W RIDGE RD	ROCHESTER	MONROE	NY	14615	YES	NO	NO	NO								331419	331492					43.202435	-77.644508											1312210543791	N511	NITRATE COMPOUNDS	TRI	Pounds																		NA									N 																																																			NO	GWINBURN@ROCHESTERSILVERWORKS.COM			NO	 	
2012	NO	1202WGLBLF4STNE	GLOBALFOUNDRIES FAB 8	400 STONEBREAK RD EXTENSION	MALTA	SARATOGA	NY	12020	YES	NO	NO	NO								334413						42.96342	-73.7636	595100884								GLOBALFOUNDRIES U.S. INC.	595100884	1312210533410	007664939	SULFURIC ACID (1994 AND AFTER "ACID AEROSOLS" ONLY)	TRI	Pounds																		A	A03								N 	E4																																																		NO	JOEL.ROUILLARD@GLOBALFOUNDRIES.COM			NO	 	
2012	NO	14710CHTQM4743C	CHAUTAUQUA METAL FINISHING SUPPLY	4743 CRAMER DR	ASHVILLE	CHAUTAUQUA	NY	14710	YES	NO	NO	NO								424690						42.080357	-79.369521	012775151								CHAUTAUQUA CHEMICALS CO INC	012775151	1312210143285	007697372	NITRIC ACID	TRI	Pounds																																																																														NO	TPEMBRIDGE@CMFS.COM			NO	 	
2012	NO	14012SSMRS7725L	SOMERSET OPERATING CO LLC	7725 LAKE RD	BARKER	NIAGARA	NY	14012	YES	NO	NO	NO								221112						43.357387	-78.605805	078545234								UPSTATE NEW YORK POWER PRODUCERS,INC.	078510124	1312210215051	N020	ARSENIC COMPOUNDS	TRI	Pounds																		NA									N 																																																			NO	JOHN.MARABELLA@USNYPP.COM			YES	 	
2012	NO	14012SSMRS7725L	SOMERSET OPERATING CO LLC	7725 LAKE RD	BARKER	NIAGARA	NY	14012	YES	NO	NO	NO								221112						43.357387	-78.605805	078545234								UPSTATE NEW YORK POWER PRODUCERS,INC.	078510124	1312210215113	N100	COPPER COMPOUNDS	TRI	Pounds																		NA									N 																																																			NO	JOHN.MARABELLA@USNYPP.COM			YES	 	
2012	NO	14020GWYNC8849W	AGWAY FEED & NUTRITION	8849 WORTENDYKE RD	BATAVIA	GENESEE	NY	14020	YES	NO	NO	NO								311119						42.98867	-78.258351	006249189								CARGILL INC	006249189	1312210289551	N982	ZINC COMPOUNDS	TRI	Pounds																																																																														NO	GREG_WEISJAHN@CARGILL.COM			YES	 	
2012	NO	14206NCLLB575HO	UNICELL BODY CO INC	575 HOWARD ST	BUFFALO	ERIE	NY	14206	YES	NO	NO	NO								336112						42.88278	-78.833132											1312210516656	000080626	METHYL METHACRYLATE	TRI	Pounds																		NA									N 																																																			NO	ROGER@UNICELL.COM			NO	 	
2012	NO	14012SSMRS7725L	SOMERSET OPERATING CO LLC	7725 LAKE RD	BARKER	NIAGARA	NY	14012	YES	NO	NO	NO								221112						43.357387	-78.605805	078545234								UPSTATE NEW YORK POWER PRODUCERS,INC.	078510124	1312210215214	N458	MERCURY COMPOUNDS	PBT	Pounds																		NA									N 																																																			NO	JOHN.MARABELLA@USNYPP.COM			YES	 	
2012	NO	13367KRFTNUTICA	KRAFT FOODS GROUP INC - LOWVILLE	7388 UTICA BLVD	LOWVILLE	LEWIS	NY	13367	YES	NO	NO	NO								311513						43.777	-75.482	043823939								KRAFT FOODS INC.	877147228	1312210345524	007697372	NITRIC ACID	TRI	Pounds																		L	H121								N 	E1																																																		NO	JHODEL@KRAFTFOODS.COM			NO	 	
2012	NO	1458WRCHST85JHN	ROCHESTER PRECISION OPTICS LLC	850 JOHN ST	WEST HENRIETTA	MONROE	NY	145869748	YES	NO	NO	NO								333314						43.071258	-77.664549	615371999										1312210072359	001330207	XYLENE (MIXED ISOMERS)	TRI	Pounds																		NA									N 																																																			NO	BVOGLER@RPOPTICS.COM			NO	 	
2012	NO	14072XYCHM2801L	ISLECHEM LLC	2801 LONG RD	GRAND ISLAND	ERIE	NY	14072	YES	NO	NO	NO								325199						43.06475	-78.989972	038466806										1312210562068	000071363	N-BUTYL ALCOHOL	TRI	Pounds																		A	A04								N 	E4																																																		NO	DLCANAVAN@ISLECHEM.COM			NO	 	
2012	NO	12143BLCRCROUTE	LAFARGE BUILDING MATERIALS INC	1916 RT 9W	RAVENA	ALBANY	NY	12143	YES	NO	NO	NO								327310						42.49756	-73.813652	144513728								LAFARGE N.A. INC	067568246	1312210703346	N450	MANGANESE COMPOUNDS	TRI	Pounds																																																																														NO	SARAH.SWEENEY@LAFARGE-NA.COM			YES	 	
2012	NO	13021GLDSP1GOUL	XYLEM WATER SYSTEMS USA LLC	1 GOULDS DR	AUBURN	CAYUGA	NY	13021	YES	NO	NO	NO								333911						42.925473	-76.591431	968848734								XYLEM INC.	968848734	1312210601821	007440020	NICKEL	TRI	Pounds																		NA									N 																																																			NO	JAY.SPANO@XYLEMINC.COM			YES	 	
2012	NO	14048DNKRK88HOW	DUNKIRK SPECIALTY STEEL LLC	830 BRIGHAM RD	DUNKIRK	CHAUTAUQUA	NY	14048	YES	NO	NO	NO								331221						42.472	-79.346	115412186								UNIVERSAL STAINLESS & ALLOY PRODUCTS INC	861336501	1312210710380	007439965	MANGANESE	TRI	Pounds																		W	H071	H121	H129	H123	H124	H101			N 	E3																																																		NO	P.MCGRATH@UNIVSTAINLESS.COM			YES	 	
2012	NO	14052MGNC SENEC	MOOG INC	SENECA ST	EAST AURORA	ERIE	NY	14052	YES	NO	NO	NO								332912						42.805028	-78.655889	002103166								MOOG INC	002103166	1312210155875	007440508	COPPER	TRI	Pounds																		NA									N 																																																			NO	ALUHR@MOOG.COM			YES	 	
2012	NO	14009PRSTL400WE	PRESTOLITE ELECTRIC INC	400 MAIN ST	ARCADE	WYOMING	NY	14009	YES	NO	NO	NO								336322	335999					42.532313	-78.428547	556875185	183776780							FIRST ATLANTIC CAPITAL CORP		1312210185070	007439921	LEAD	TRI	Pounds																		NA									N 																																																			NO	JBODENSTEINER@PRESTOLITE.COM			YES	 	
2012	NO	11733NRTHV19TER	NORTHVILLE INDUSTRIES CORP - SETAUKET TERMINAL	19 BELLE MEADE RD	EAST SETAUKET	SUFFOLK	NY	11733	YES	NO	NO	NO								424710						40.91633	-73.09373	006976104								NIC HOLDING CORP	089228477	1312210734366	N420	LEAD COMPOUNDS	PBT	Pounds																		NA									N 																																																			NO	TOMM@NORTHVILLE.COM			YES	 	
2012	NO	14882SCYGL228MI	CAYUGA OPERATING CO LLC	228 CAYUGA DR	LANSING	TOMPKINS	NY	14882	YES	NO	NO	NO								221112						42.601774	-76.634633	078529829								UPSTATE NEW YORK POWER PRODUCERS,INC.	078510124	1312210215125	007664393	HYDROGEN FLUORIDE	TRI	Pounds																		A	A07	A05	A03						N 	E3																																																		NO	JEFF.LAMPHERE@USNYPP.COM			NO	 	
2012	NO	12553MBLLN1281R	GLOBAL COS LLC NEWBURGH TERMINAL	1281 RIVER RD	NEW WINDSOR	ORANGE	NY	12553	YES	NO	NO	NO								424710						41.487139	-74.008528	019177757								GLOBAL COS LLC	019177757	1312210510095	000191242	BENZO(G,H,I)PERYLENE	PBT	Pounds																		A	A01								N 	E4																																																		NO	RKENNY@GLOBALP.COM			NO	 	
2012	NO	13316CMDNW12MAS	INTERNATIONAL WIRE GROUP INC- CAMDEN WIRE FACILITY	12 MASONIC AVE	CAMDEN	ONEIDA	NY	13316	YES	NO	NO	NO								331421						43.33146	-75.748874	063048953								OMEGA WIRE INC	063048953	1312210555456	007440508	COPPER	TRI	Pounds																		W	H077	H123							N 	E5																																																		NO	B_SPIZUOCO@IWGBWD.COM	RR5		YES	 	
2012	NO	14211BLWKN750EA	BUFLOVAK LLC (FORMERLY BUFFALO TECHNOLOGIES CORP)	750 E FERRY ST	BUFFALO	ERIE	NY	14211	YES	NO	NO	NO								333298						42.915	-78.837	827100447										1312210807121	N090	CHROMIUM COMPOUNDS(EXCEPT CHROMITE ORE MINED IN THE TRANSVAAL REGION)	TRI	Pounds																		NA									N 																																																			NO	MBIEGER@BUFLOVAK.COM			YES	 	
2012	NO	13126LCNRLLAKER	NOVELIS CORP	448 COUNTY RT 1A	OSWEGO	OSWEGO	NY	131260028	YES	NO	NO	NO								331315						43.493834	-76.456712	003980216								NOVELIS CORP	001504935	1312210715710	007439965	MANGANESE	TRI	Pounds																		NA									N 																																																			NO				YES	 	
2012	NO	14860GRFFT8571R	GRIFFITH ENERGY - LODI	8571 STATE RT 414	LODI	SENECA	NY	14860	YES	NO	NO	NO								424710						42.60852	-76.825253	013410444								SUPERIOR PLUS ENERGY SERVICES INC.		1312210443976	N590	POLYCYCLIC AROMATIC COMPOUNDS	PBT	Pounds																		NA									N 																																																			NO				NO	 	
2012	NO	13365MPRFBRIVER	EMPIRE FIBERGLASS PRODUCTS INC	RIVERSIDE INDUSTRIAL PARK	LITTLE FALLS	HERKIMER	NY	13365	YES	NO	NO	NO								326199						43.05476	-74.85617	002244259										1312210151460	000080626	METHYL METHACRYLATE	TRI	Pounds																		NA									N 																																																			NO	NEILB@EMPIREFIBERGLASS.COM			NO	 	
2012	NO	14652STMNK1669L	EASTMAN KODAK CO EASTMAN BUSINESS PARK	1669 LAKE AVE	ROCHESTER	MONROE	NY	146523615	YES	NO	NO	NO								325992						43.197788	-77.629836	135588689								EASTMAN KODAK CO	002206183	1312210269748	N230	CERTAIN GLYCOL ETHERS	TRI	Pounds																		S	H040	H101							N 	E2		W	H081	H121	H083	H123					N 	E3																																						NO	CHRISTOPHER.VERONDA@KODAK.COM			NO	 	
2012	NO	13403MHWKV9678R	MOHAWK - MARCY TERMINAL	9678 RT 49	MARCY	ONEIDA	NY	13403	YES	NO	NO	NO								424710						43.126972	-75.2475	013410444								SUPERIOR PLUS ENERGY SERVICES INC.		1312210445514	000110827	CYCLOHEXANE	TRI	Pounds																		NA									N 																																																			NO	JZAFFINO@GRIFFITHENERGY.COM			NO	 	
2012	NO	14211MRCNX2799W	AMERICAN AXLE & MANUFACTURING INC CHEEK TOWAGA	2799 WALDEN AVE	CHEEKTOWAGA	ERIE	NY	14225	YES	NO	NO	NO								336350						42.90944	-78.73222	069977804								AMERICAN AXLE & MANUFACTURING INC	808844567	1312210000129	000067561	METHANOL	TRI	Pounds																		NA									N 																																																			NO	MARK.WILLIAMS@AAM.COM			NO	 	
2012	NO	14094MLWRD500MI	MILWARD ALLOYS INC	500 MILL ST	LOCKPORT	NIAGARA	NY	14094	YES	NO	NO	NO								331312	331411					43.184798	-78.698157	002123024										1312210302295	007440417	BERYLLIUM	TRI	Pounds																																																																														NO	ZBUSECK@MILWARD.COM			YES	 	
2012	NO	13440SPRGWRAILR	INTERNATIONAL WIRE CO  ROME FACILITY	900 RAILROAD ST	ROME	ONEIDA	NY	13442	YES	NO	NO	NO								331421	332813					43.204689	-75.442833									OMEGA WIRE INC	063048953	1312210142713	007440508	COPPER	TRI	Pounds																		NA									N 																																																			NO	B_SPIZUOCO@IWGBWD.COM			YES	 	
2012	NO	14882SCYGL228MI	CAYUGA OPERATING CO LLC	228 CAYUGA DR	LANSING	TOMPKINS	NY	14882	YES	NO	NO	NO								221112						42.601774	-76.634633	078529829								UPSTATE NEW YORK POWER PRODUCERS,INC.	078510124	1312210215101	007647010	HYDROCHLORIC ACID (1995 AND AFTER "ACID AEROSOLS" ONLY)	TRI	Pounds																		A	A07	A05	A03						N 	E3																																																		NO	JEFF.LAMPHERE@USNYPP.COM			NO	 	
2012	NO	14701STKTC57LIS	SUIT-KOTE JAMESTOWN	57 LISTER ST	JAMESTOWN	CHAUTAUQUA	NY	14701	YES	NO	NO	NO								324121						42.103	-79.261	878027671								SUIT-KOTE CORP		1312210527913	000191242	BENZO(G,H,I)PERYLENE	PBT	Pounds																		NA									N 																																																			NO	RDUBOIS@SUIT-KOTE.COM			NO	 	
2012	NO	12068KYMRKRTE33	KEYMARK CORP	1188 CAYADUTTA ST RT 334	FONDA	MONTGOMERY	NY	12068	YES	NO	NO	NO								331316						42.956111	-74.389056	002077196								KEYMARK CORP		1312210065850	000100414	ETHYLBENZENE	TRI	Pounds																		A	A06	H040							N 	E4		A	A06								N 	E6																																						NO	WKELLER@KEYMARKCORP.COM			NO	 	
2012	NO	14150CRHNT3500R	HUNTLEY GENERATING STATION	3500 RIVER RD	TONAWANDA	ERIE	NY	14150	YES	NO	NO	NO								221112						42.9706	-78.9304	556093396								NRG ENERGY INC	793422213	1312210343760	007664393	HYDROGEN FLUORIDE	TRI	Pounds																		A	A05	H121							N 	E6																																																		NO	DAVID.GAIER@NRGENERGY.COM			NO	 	
2012	NO	12550MRDHS590RI	HESS CORP ROSETON TERMINAL	590 RIVER RD	NEWBURGH	ORANGE	NY	12550	YES	NO	NO	NO								424710						41.559194	-73.981278									HESS CORP	006979785	1312210028054	N590	POLYCYCLIC AROMATIC COMPOUNDS	PBT	Pounds																		NA									N 																																																			NO	JGEITNER@HESS.COM			NO	 	
2012	NO	13619SLCKC465SC	SLACK CHEMICAL CO INC	465 S CLINTON ST	CARTHAGE	JEFFERSON	NY	13619	YES	NO	NO	NO								424690						43.977222	-75.598056	013447511								SLACK CHEMICAL CO INC		1312210666943	000108883	TOLUENE	TRI	Pounds																																																																														NO	SLACK@SLACKCHEM.COM			NO	 	
2012	NO	13164MBLLS6700H	HESS CORP SYRACUSE (TED PARK) TERMINAL	6700 HERMAN RD	WARNERS	ONONDAGA	NY	13164	YES	NO	NO	NO								424710						43.096423	-76.303975	006979785								HESS CORP	006979785	1312210027520	000100414	ETHYLBENZENE	TRI	Pounds																		NA									N 																																																			NO	JGEITNER@HESS.COM			NO	 	
2012	NO	13676GRFFT7554U	GRIFFITH ENERGY - POTSDAM	7554 RT 11	POTSDAM	ST LAWRENCE	NY	13676	YES	NO	NO	NO								424710						44.665833	-75.023888	013410444								SUPERIOR PLUS ENERGU SERVICES INC.		1312210444360	000071432	BENZENE	TRI	Pounds																																																																														NO				NO	 	
2012	NO	11371GDNVTLAGUA	ALLIED AVIATION SERVICE CO OF NEW YORK INC	LAGUARDIA AIRPORT BUILDING 42	FLUSHING	QUEENS	NY	11371	YES	NO	NO	NO								424710						40.77463	-73.8742									ALLIED AVIATION HOLDING CO		1312210073159	000091203	NAPHTHALENE	TRI	Pounds																		NA									N 																																																			NO	RICHARD.CIPRIANO@ALLIEDAVIATION.COM	RR5		NO	 	
2012	NO	14303LNCHM2400B	OLIN CORP	2400 BUFFALO AVE	NIAGARA FALLS	NIAGARA	NY	143030748	YES	NO	NO	NO								325181						43.081994	-79.029936	001338086								OLIN CORP	001338086	1312210561231	007782505	CHLORINE	TRI	Pounds																		NA									N 																																																			NO	MJAUDET@OLIN.COM			NO	 	
2012	NO	12188GNRLL260HU	MPM SILICONES LLC	260 HUDSON RIVER RD	WATERFORD	SARATOGA	NY	12188	YES	NO	NO	NO								325211	325188	325212				42.815833	-73.666667	002080034								MOMENTIVE PERFORMANCE MATERIALS HOLDINGS LLC		1312210699512	000067561	METHANOL	TRI	Pounds																		A	A03								N 	E4		W	H121	H124	H077	H123	H101	H081	H083	H123	N 	E6		L	H040								N 	E3		S	H040								N 	E3														NO	JOHN.SCHARF@MOMENTIVE.COM			NO	 	
2012	NO	12047NRLTC628SO	NORLITE CORP	628 S SARATOGA ST	COHOES	ALBANY	NY	12047	YES	NO	NO	NO								327992						42.7555	-73.705667	154133672								UNITED OIL RECOVERY	154133672	1312210694434	000067663	CHLOROFORM	TRI	Pounds																		NA									N 																																																			NO	TITA.LAGRIMAS@TRADEBE.COM			NO	 	
2012	NO	11706STRLC1714T	ASTRO ELECTROPLATING,INC	171 4TH AVE	BAY SHORE	SUFFOLK	NY	11706	YES	NO	NO	NO								332813						40.725408	-73.251427											1312210137788	007647010	HYDROCHLORIC ACID (1995 AND AFTER "ACID AEROSOLS" ONLY)	TRI	Pounds																		A	A03								N 	E1																																																		NO	NEILASTRO@AOL.COM			NO	 	
2012	NO	12189SDDSRBROAD	US ARMY WATERVLIET ARSENAL	1 BUFFINGTON ST	WATERVLIET	ALBANY	NY	121894000	YES	NO	YES	NO								928110						42.719762	-73.708712			NY7213820940		NY0023361				US DEPARTMENT OF DEFENSE		1312210179279	007439921	LEAD	TRI	Pounds																		NA									N 																																																			YES	JOHN.B.SNYDER@US.ARMY.MIL	RR4		YES	 	
2012	NO	10980CHRMT19KAY	GOTHAM INK CORP	19 HOLT DR	STONY POINT	ROCKLAND	NY	10980	YES	NO	NO	NO								325910						41.216194	-73.981167	001267780								COVAR CORP	011209210	1312210134805	000108883	TOLUENE	TRI	Pounds																		NA									N 																																																			NO	CCAMPBELL@GOTHAMINKS.COM			NO	 	
2012	NO	11696MBLLN464DO	GLOBAL COS LLC INWOOD TERMINAL	464 DOUGHTY BLVD	INWOOD	NASSAU	NY	11096	YES	NO	NO	NO								424710						40.625694	-73.745694	019177757								GLOBAL COS LLC	019177757	1312210510311	000091203	NAPHTHALENE	TRI	Pounds																		A	A04								N 	E3		W	H083								N 	E3																																						NO	RKENNY@GLOBALP.COM			NO	 	
2012	NO	1461WRCHST681RI	ROCHESTER SILVER WORKS LLC	725 W RIDGE RD	ROCHESTER	MONROE	NY	14615	YES	NO	NO	NO								331419	331492					43.202435	-77.644508											1312210543815	007697372	NITRIC ACID	TRI	Pounds																		NA									N 																																																			NO	GWINBURN@ROCHESTERSILVERWORKS.COM			NO	 	
2012	NO	14606MRDHS1975L	HESS CORP ROCHESTER-LYELL AVENUE TERMINAL	1975 LYELL AVE	ROCHESTER	MONROE	NY	14606	YES	NO	NO	NO								424710						43.163861	-77.678472									HESS CORP	006979785	1312210026860	000191242	BENZO(G,H,I)PERYLENE	PBT	Pounds																		NA									N 																																																			NO	JGEITNER@HESS.COM			NO	 	
2012	NO	11547MBLLGSHORE	GLOBAL COS LLC GLENWOOD LANDING TERMINAL	SHORE & GLENWOOD RD	GLENWOOD LANDING	NASSAU	NY	11547	YES	NO	NO	NO								424710						40.830713	-73.647529	019177757								GLOBAL COS LLC	019177757	1312210510222	000100414	ETHYLBENZENE	TRI	Pounds																		A	A04								N 	E3		A	A03								N 	E5		W	H082								N 	E4																										NO	RKENNY@GLOBALP.COM			NO	 	
2012	NO	13206RTHBR6223T	METALICO ALUMINUM RECOVERY INC	6223 THOMPSON RD	SYRACUSE	ONONDAGA	NY	13206	YES	NO	NO	NO								331314						43.073006	-76.094515	090331737								METALICO INC	047877688	1312210694384	007440508	COPPER	TRI	Pounds																		A	A07								N 	E6		A	A06								N 	E6																																						NO	DFLANAGAN@METALICOSYRACUSE.COM			YES	 	
2012	NO	13088DLXCH4707D	MS KENNEDY CORP	4707 DEY RD	LIVERPOOL	ONONDAGA	NY	13088	YES	NO	NO	NO								334418						43.134397	-76.190891	055863492								ANAREN INC	042352922	1312210830966	007439921	LEAD	TRI	Pounds																		NA																																																												NO	J.BURROWS@MSKENNEDY.COM			YES	 	
2012	NO	14652STMNK1669L	EASTMAN KODAK CO EASTMAN BUSINESS PARK	1669 LAKE AVE	ROCHESTER	MONROE	NY	146523615	YES	NO	NO	NO								325992						43.197788	-77.629836	135588689								EASTMAN KODAK CO	002206183	1312210269787	000107211	ETHYLENE GLYCOL	TRI	Pounds																		S	H040	H101							N 	E2		W	H081	H121	H083	H123					N 	E4																																						NO	CHRISTOPHER.VERONDA@KODAK.COM			NO	 	
2012	NO	13021GLDSP1GOUL	XYLEM WATER SYSTEMS USA LLC	1 GOULDS DR	AUBURN	CAYUGA	NY	13021	YES	NO	NO	NO								333911						42.925473	-76.591431	968848734								XYLEM INC.	968848734	1312210601783	007440473	CHROMIUM	TRI	Pounds																		NA									N 																																																			NO	JAY.SPANO@XYLEMINC.COM			YES	 	
2012	NO	14048DNKRK88HOW	DUNKIRK SPECIALTY STEEL LLC	830 BRIGHAM RD	DUNKIRK	CHAUTAUQUA	NY	14048	YES	NO	NO	NO								331221						42.472	-79.346	115412186								UNIVERSAL STAINLESS & ALLOY PRODUCTS INC	861336501	1312210710366	007664393	HYDROGEN FLUORIDE	TRI	Pounds																		W	H071	H121	H129	H123	H124	H101			N 	E1																																																		NO	P.MCGRATH@UNIVSTAINLESS.COM			NO	 	
2012	NO	13760NDCTT1701N	ENDICOTT INTERCONNECT TECHNOLOGIES INC	1093 CLARK ST	ENDICOTT	BROOME	NY	13760	YES	NO	NO	NO								334412						42.108806	-76.052139	119618754										1312210087755	N230	CERTAIN GLYCOL ETHERS	TRI	Pounds																		A	H040								N 	E4																																																		NO	PAUL.SPERANZA@EITNY.COM			NO	 	
2012	NO	14901KNNDY1021E	KENNEDY VALVE	1021 E WATER ST	ELMIRA	CHEMUNG	NY	14901	YES	NO	NO	NO								331511	332911					42.09277	-76.786313	151492584								MCWANE INC	004001715	1312210419762	N090	CHROMIUM COMPOUNDS(EXCEPT CHROMITE ORE MINED IN THE TRANSVAAL REGION)	TRI	Pounds																		NA									N 																																																			NO	MIKE.BOWLES@KENNEDYVALVE.COM			YES	 	
2012	NO	14901KNNDY1021E	KENNEDY VALVE	1021 E WATER ST	ELMIRA	CHEMUNG	NY	14901	YES	NO	NO	NO								331511	332911					42.09277	-76.786313	151492584								MCWANE INC	004001715	1312210420093	N982	ZINC COMPOUNDS	TRI	Pounds																		NA									N 																																																			NO	MIKE.BOWLES@KENNEDYVALVE.COM			YES	 	
2012	NO	11733NRTHV19TER	NORTHVILLE INDUSTRIES CORP - SETAUKET TERMINAL	19 BELLE MEADE RD	EAST SETAUKET	SUFFOLK	NY	11733	YES	NO	NO	NO								424710						40.91633	-73.09373	006976104								NIC HOLDING CORP	089228477	1312210734392	000110543	N-HEXANE	TRI	Pounds																		NA									N 																																																			NO	TOMM@NORTHVILLE.COM			NO	 	
2012	NO	11706STRLC1714T	ASTRO ELECTROPLATING,INC	171 4TH AVE	BAY SHORE	SUFFOLK	NY	11706	YES	NO	NO	NO								332813						40.725408	-73.251427											1312210137802	007440508	COPPER	TRI	Pounds																		A	A03								N 	E1																																																		NO	NEILASTRO@AOL.COM			YES	 	
2012	NO	14591GRFFT583PA	GRIFFITH ENERGY - PEARL CREEK	583 PAVILION - WARSAW RD	WYOMING	WYOMING	NY	14591	YES	NO	NO	NO								424710						42.848154	-78.047286	013410444								SUPERIOR PLUS ENERGY SERVICES INC.		1312210445300	000098828	CUMENE	TRI	Pounds																																																																														NO				NO	 	
2012	NO	11704LWRNC165FI	LAWRENCE RIPAK CO INC	165 FIELD ST	WEST BABYLON	SUFFOLK	NY	11704	YES	NO	NO	NO								332812	541380	332813	332811			40.732854	-73.387126	064730294		NYR000035220								1312210792279	000127184	TETRACHLOROETHYLENE	TRI	Pounds																		NA									N 																																																			NO	CBENOIT@RIPAK.COM			NO	 	
2012	NO	12979YRSTL64MAP	WYETH	64 MAPLE ST	ROUSES POINT	CLINTON	NY	12979	YES	NO	NO	NO								325412						44.989024	-73.371118									PFIZER INC	113480771	1312210046138	000067561	METHANOL	TRI	Pounds																		W	H083								N 	E5		A	H040	A03							N 	E4		A	A02								N 	E5																										NO	MARK.MCCULLOUGH@PFIZER.COM			NO	 	
2012	NO	14225DRRCK3350U	DERRICK CORP	3350 UNION RD	CHEEKTOWAGA	ERIE	NY	14225	YES	NO	NO	NO								333132						42.90472	-78.75528	002110864								DERRICK CORP	002110864	1312210447405	N230	CERTAIN GLYCOL ETHERS	TRI	Pounds																		NA									N 																																																			NO	TMKOZLOWSKI@DERRICKCORP.COM			NO	 	
2012	NO	10962MTRLSRTE30	PRAXAIR ELECTRONICS	542 RT 303	ORANGEBURG	ROCKLAND	NY	10962	YES	NO	NO	NO								331314						41.054556	-73.94725	197154586								PRAXAIR INC	197154586	1312210125795	007440508	COPPER	TRI	Pounds																		NA									N 																																																			NO	BOB_SNYDER@PRAXAIR.COM			YES	 	
2012	NO	13021BRNSTQUARR	NUCOR STEEL AUBURN INC	25 QUARRY RD	AUBURN	CAYUGA	NY	130211146	YES	NO	NO	NO								331111						42.952	-76.572	026308820								NUCOR CORP	003446796	1312210453813	N090	CHROMIUM COMPOUNDS(EXCEPT CHROMITE ORE MINED IN THE TRANSVAAL REGION)	TRI	Pounds																		NA									N 																																																			NO	GORDON.ELWELL@NUCOR.COM			YES	 	
2012	NO	14891CRGLL518EA	CARGILL INC SALT DIV	518 E 4TH ST	WATKINS GLEN	SCHUYLER	NY	14891	YES	NO	NO	NO								212399						42.383583	-76.86675	096304647								CARGILL INC	006249189	1312210639047	N420	LEAD COMPOUNDS	PBT	Pounds																		NA									N 																																																			NO	DON_CHUTAS@CARGILL.COM			YES	 	
2012	NO	14845LRCLC224NM	BELDEN CONNECTIVITY SOLUTIONS	224 N MAIN ST BLDG K	HORSEHEADS	CHEMUNG	NY	14845	YES	NO	NO	NO								334417						42.178952	-76.821544	809182579								BELDEN INC	809182579	1312210129021	007440508	COPPER	TRI	Pounds																		W	H077	H129	H123	H101					N 	E2		S	H122	H101							N 	E1		W	H073	H077	H129	H123	H101				N 	E2																										NO	VIRGIL.WILBUR@BELDEN.COM			YES	 	
2012	NO	14860GRFFT8571R	GRIFFITH ENERGY - LODI	8571 STATE RT 414	LODI	SENECA	NY	14860	YES	NO	NO	NO								424710						42.60852	-76.825253	013410444								SUPERIOR PLUS ENERGY SERVICES INC.		1312210443899	000098828	CUMENE	TRI	Pounds																																																																														NO				NO	 	
2012	NO	14611GRFFT27533	GRIFFITH ENERGY - ROCHESTER TERMINAL	275 / 335 MCKEE RD	ROCHESTER	MONROE	NY	14611	YES	NO	NO	NO								424710						43.155417	-77.668917	013410444								SUPERIOR PLUS ENERGY SERVICES INC.		1312210445490	000108883	TOLUENE	TRI	Pounds																		NA									N 																																																			NO				NO	 	
2012	NO	1390WBNGHM14BRA	BINGHAMTON MIX PLANT	14 BRANDYWINE AVE	BINGHAMTON	BROOME	NY	13901	YES	NO	NO	NO								324121						42.104098	-75.898076	099268468								BARRETT INDUSTRIES CORP	557581993	1312210459917	N590	POLYCYCLIC AROMATIC COMPOUNDS	PBT	Pounds																		NA									N 																																																			NO	CHRISTOPHER.WUNDERLICH@BARRETTPAVING.COM			NO	 	
2012	NO	12161LDCST123CU	OLDCASTLE PRECAST INC	123 COUNTY RT 101	SELKIRK	ALBANY	NY	12158	YES	NO	NO	NO								327390						42.525	-73.850556	094222143								OLDCASTLE INC	037176591	1312210097224	007439921	LEAD	TRI	Pounds																		NA									N 																																																			NO	CARL.WUITSCHICK@OLDCASTLEPRECAST.COM			YES	 	
2012	NO	12306NSLTNONECA	VON ROLL USA INC	200 VON ROLL DR	SCHENECTADY	SCHENECTADY	NY	123062442	YES	NO	NO	NO								327999	322222	313320	325211	325510		42.804258	-73.985333	186132288								VON ROLL AG		1312210382230	000100425	STYRENE	TRI	Pounds																		A	H040								N 	E6																																																		NO	SANTINO.CARDELLA@VONROLL.COM			NO	 	
2012	NO	14150NCNRG700GR	NOCO ENERGY CORP	700 GRAND ISLAND BLVD	TONAWANDA	ERIE	NY	141510086	YES	NO	NO	NO								424710						42.991128	-78.925194	013293519								NOCO ENERGY CORP	013293519	1312210167134	001330207	XYLENE (MIXED ISOMERS)	TRI	Pounds																		NA									N 																																																			NO	VSPEEK@NOCO.COM			NO	 	
2012	NO	13440VRFLX512WE	VARFLEX CORP	512 W CT ST	ROME	ONEIDA	NY	13440	YES	NO	NO	NO								335999						43.217389	-75.464222	002233146										1312210220481	000131113	DIMETHYL PHTHALATE	TRI	Pounds																																																																														NO	BPERRY@VARFLEX.COM			NO	 	
2012	NO	11105NWYRK31032	CHARLES POLETTI POWER PROJECT & 500 MW PLANT	31-03 20TH AVE	ASTORIA	QUEENS	NY	11105	YES	NO	NO	NO								221112						40.790278	-73.911111	075252098								NEW YORK POWER AUTHORITY	075252098	1312210475531	000075456	CHLORODIFLUOROMETHANE	TRI	Pounds																		NA									N 																																																			NO	THOMAS.DEJESU@NYPA.GOV			NO	 	
2012	NO	12047NRLTC628SO	NORLITE CORP	628 S SARATOGA ST	COHOES	ALBANY	NY	12047	YES	NO	NO	NO								327992						42.7555	-73.705667	154133672								UNITED OIL RECOVERY	154133672	1312210694725	000872504	N-METHYL-2-PYRROLIDONE	TRI	Pounds																		NA									N 																																																			NO	TITA.LAGRIMAS@TRADEBE.COM			NO	 	
2012	NO	10511THMRL16WHI	PEARL PLANT	16 WHITE ST	BUCHANAN	WESTCHESTER	NY	10511	YES	NO	NO	NO								325131						41.262416	-73.933966			NYD046341400						BASF CORP	001307032	1312210143121	000108883	TOLUENE	TRI	Pounds																		NA									N 																																																			NO	MAUREEN.PAUKERT@BASF.COM			NO	 	
2012	NO	13411GLDNR188BE	GOLDEN ARTIST COLORS INC	188 BELL RD	NEW BERLIN	CHENANGO	NY	13411	YES	NO	NO	NO								339942						42.665123	-75.344623	066008956		NY0000097253								1312210537421	N420	LEAD COMPOUNDS	PBT	Pounds																		A	A06								N 	E3		W	H077	H123	H101						N 	E2																																						NO	GAVETT@GOLDENPAINTS.COM			YES	 	
2012	NO	14305SKWLL3801H	GLOBE METALLURGICAL INC	3807 HIGHLAND AVE	NIAGARA FALLS	NIAGARA	NY	14305	YES	NO	NO	NO								331112						43.123489	-79.043109	878163732		NYD067539940						GLOBE SPECIALTY METALS INC	782847391	1312210087021	007664939	SULFURIC ACID (1994 AND AFTER "ACID AEROSOLS" ONLY)	TRI	Pounds																		NA									N 																																																			NO	JKEARNS@GLOBEMETALLURGICAL.COM			NO	 	
2012	NO	12095BMCJHUNION	BENJAMIN MOORE & CO JOHNSTOWN	UNION AVE EXTENSION	JOHNSTOWN	FULTON	NY	12095	YES	NO	NO	NO								325510						42.993056	-74.391111	181837238								BERKSHIRE HATHAWAY	001210715	1312210578074	N230	CERTAIN GLYCOL ETHERS	TRI	Pounds																		NA									N 																																																			NO	PAUL.CONNELIE@BENJAMINMOORE.COM			NO	 	
2012	NO	13904TRPLC349IN	TRIPLE CITIES METAL FINISHING CORP	349 INDUSTRIAL PARK DR	BINGHAMTON	BROOME	NY	13904	YES	NO	NO	NO								332813						42.101975	-75.830135	022226041										1312210543435	007697372	NITRIC ACID	TRI	Pounds																		W	H077	H123	H121						N 	E1																																																		NO				NO	 	
2012	NO	14240CHVRLRIVER	CET - TONAWANDA SITE	2995 RIVER RD	BUFFALO	ERIE	NY	14207	YES	NO	NO	NO								336350						42.963	-78.914306	002127157								GENERAL MOTORS LLC	831247536	1312210538435	007440020	NICKEL	TRI	Pounds																		NA									N 																																																			NO	SHARON.BASEL@GM.COM			YES	 	
2012	NO	12401CLLNN325NE	CALLANAN INDUSTRIES INC KINGSTON FACILITY	325 NEW SALEM RD	KINGSTON	ULSTER	NY	12401	YES	NO	NO	NO								327320	324121	212312				41.9014	-74.006555	057022303								OLDCASTLE INC	806709813	1312210589040	007439921	LEAD	TRI	Pounds																		NA									N 																																																			NO	MCLEMENTE@CALLANAN.COM			YES	 	
2012	NO	13827BMSYSROUTE	LOCKHEED MARTIN MST	1801 STATE RT 17C	OWEGO	TIOGA	NY	138273998	YES	NO	NO	NO								334511	541512	334111	333313			42.099472	-76.221111	834951691								LOCKHEED MARTIN CORP	834951691	1312210240469	007697372	NITRIC ACID	TRI	Pounds																		W	H077	H123	H101	H123	H082	H121			N 	E1																																																		NO	NEIL.ROBINSON@LMCO.COM			NO	 	
2012	NO	11021WGCHM239GR	WEGO CHEMICAL & MINERAL CORP	239 GREAT NECK RD	GREAT NECK	NASSAU	NY	11021	YES	NO	NO	NO								424690						40.781921	-73.731926	073108664								WEGO CHEMICAL & MINERAL CORP	073108664	1312210330270	000554132	LITHIUM CARBONATE	TRI	Pounds																		NA									N 																																																			NO	ACOHEN@WEGOCHEM.COM			YES	 	
2012	NO	12508WTCCH570FI	CHEMPRENE INC	483, FISHKILL AVE	BEACON	DUTCHESS	NY	12508	YES	NO	NO	NO								326220	339991					41.512874	-73.951954	808595128								AMMERAAL BELTECH		1312210546204	000117817	DI(2-ETHYLHEXYL) PHTHALATE	TRI	Pounds																		NA									N 																																																			NO	BILLY.GADDAM@CHEMPRENE.COM			NO	 	
2012	NO	13601GRFFT21822	GRIFFITH ENERGY - WATERTOWN	21822 GILLETTE RD	WATERTOWN	JEFFERSON	NY	13601	YES	NO	NO	NO								424710						43.935317	-75.935117	013410444								SUPERIOR PLUS ENERGY SERVICES INC.		1312210444396	000110827	CYCLOHEXANE	TRI	Pounds																																																																														NO				NO	 	
2012	NO	13322HMGNS2395M	PRATT & WHITNEY - HMI METAL POWDERS	2395 MAIN ST	CLAYVILLE	ONEIDA	NY	13322	YES	NO	NO	NO								331492	331221					42.97801	-75.249586	046542684								UNITED TECHNOLOGIES CORP	001344142	1312210663011	007440473	CHROMIUM	TRI	Pounds																		A	A06								N 	E3		A	A03	A06							N 	E4		A	A06								N 	E4		A	A06								N 	E5														NO	NANCY.RUDNITSKI@PW.UTC.COM			YES	 	
2012	NO	13322HMGNS2395M	PRATT & WHITNEY - HMI METAL POWDERS	2395 MAIN ST	CLAYVILLE	ONEIDA	NY	13322	YES	NO	NO	NO								331492	331221					42.97801	-75.249586	046542684								UNITED TECHNOLOGIES CORP	001344142	1312210663023	007440484	COBALT	TRI	Pounds																		A	A03	A06							N 	E4		A	A06								N 	E3		A	A06								N 	E4		A	A06								N 	E5														NO	NANCY.RUDNITSKI@PW.UTC.COM			YES	 	
2012	NO	14020TKMLKCEDAR	O-AT-KA MILK PRODUCTS COOPERAT IVE INC	4815 ELLICOTT ST	BATAVIA	GENESEE	NY	14020	YES	NO	NO	NO								311512	312140	311514				42.981472	-78.163583	002102069										1312210137939	007697372	NITRIC ACID	TRI	Pounds																		W	H129								N 	E1																																																		NO	ASMITH@OATKAMILK.COM			NO	 	
2012	NO	11733NRTHV19TER	NORTHVILLE INDUSTRIES CORP - SETAUKET TERMINAL	19 BELLE MEADE RD	EAST SETAUKET	SUFFOLK	NY	11733	YES	NO	NO	NO								424710						40.91633	-73.09373	006976104								NIC HOLDING CORP	089228477	1312210734529	001330207	XYLENE (MIXED ISOMERS)	TRI	Pounds																		NA									N 																																																			NO	TOMM@NORTHVILLE.COM			NO	 	
2012	NO	1332WFLCST15SUT	FLOCAST LLC	15 S SECOND ST	DOLGEVILLE	HERKIMER	NY	133291307	YES	NO	NO	NO								326150						43.095837	-74.769466	162813526								FLOCAST LLC	162813526	1312209932680	MIXTURE	MIXTURE	TRI	Pounds																		NA									N 																																																			NO	ED@BERGERONCOMPANIES.COM			NO	 	
2012	NO	13021WCKSM1WICK	TRW AUTOMOTIVE AUBURN	2150 CRANEBROOK DR	AUBURN	CAYUGA	NY	13021	YES	NO	NO	NO								336322						42.923889	-76.596611	112886788								TRW AUTOMOTIVE US LLC	112886788	1312209992522	007439921	LEAD	TRI	Pounds																		NA									N 																																																			NO	MARK.INGIANNI@TRW.COM			YES	 	
2012	NO	11747LTNNC60BAY	FOUGERA PHARMACEUTICALS INC	60 BAYLIS RD	MELVILLE	SUFFOLK	NY	11747	YES	NO	NO	NO								325412						40.770135	-73.418207	043838424										1312210153223	000075569	PROPYLENE OXIDE	TRI	Pounds																		A	H040								N 	E3																																																		NO	ANTHONY.RANDAZZO@SANDOZ.COM			NO	 	
2012	NO	12533BM   EASTF	IBM CORP	E FISHKILL FACILITY 2070 RT 52	HOPEWELL JUNCTION	DUTCHESS	NY	125333507	YES	NO	NO	NO								334413						41.539703	-73.822454	001686807								IBM CORP	001368083	1312210566523	007647010	HYDROCHLORIC ACID (1995 AND AFTER "ACID AEROSOLS" ONLY)	TRI	Pounds																		A	A03								N 	E5																																																		NO	RBAUSE@US.IBM.COM			NO	 	
2012	NO	14001WHTNG13550	WHITING DOOR MANUFACTURING CORP BLOOMINGDALE FACILITY	13550 BLOOMINGDALE RD	AKRON	ERIE	NY	14001	YES	NO	NO	NO								336399						43.033338	-78.481131									WHITING DOOR MANUFACTURING CORP	002114726	1312210567640	000079947	TETRABROMOBISPHENOL A	PBT	Pounds																		NA									N 																																																			NO	MIKEWHITING@WHITINGDOOR.COM			NO	 	
2012	NO	12150SCHNC1000M	SI GROUP INC	1000 MAIN ST	ROTTERDAM JUNCTION	SCHENECTADY	NY	12150	YES	NO	NO	NO								325211						42.878475	-74.055671	146710330								SI GROUP INC	146710330	1312210532901	000071363	N-BUTYL ALCOHOL	TRI	Pounds																		A	A07								N 	E5		W	H121	H077	H123	H081	H082				N 	E3																																						NO	WILLIAM.SCHEFFER@SIIGROUP.COM			NO	 	
2012	NO	14760CPRPW1648D	COOPER POWER SYSTEMS LLC	1648 DUGAN RD	OLEAN	CATTARAUGUS	NY	14760	YES	NO	NO	NO								335931						42.073315	-78.390181	078785914	006117444							EATON US HOLDINGS INC.	078785914	1312210869677	N982	ZINC COMPOUNDS	TRI	Pounds																		NA									N 																																																			NO	DARREN.SHEQUEN@COOPERINDUSTRIES.COM	RR4		YES	 	
2012	NO	10001GDNNWJFKIN	ALLIED NEW YORK SERVICES  INC	J.F.K. INTERNATIONAL AIRPORT BUILDING # 90	JAMAICA	QUEENS	NY	11430	YES	NO	NO	NO								424710						40.6411	-73.77249									ALLIED AVIATION HOLDING CO		1312209934874	000100414	ETHYLBENZENE	TRI	Pounds																		NA									N 																																																			NO	BRUCE.KORROW@ALLIEDAVIATION.COM			NO	 	
2012	NO	14825VLCRF5362R	VULCRAFT OF NEW YORK INC	621 MAIN ST	CHEMUNG	CHEMUNG	NY	14825	YES	NO	NO	NO								332312	332322					42.005417	-76.617806	832144146								NUCOR CORP	003446796	1312210043511	007440020	NICKEL	TRI	Pounds																		W	H121	H077	H101						N 	E5																																																		NO	MHEINE@VULCRAFT-NY.COM			YES	 	
2012	NO	11222MCLC0125AP	BP PRODUCTS NA INC BROOKLYN TERMINAL	125 APOLLO ST	BROOKLYN	KINGS	NY	11222	YES	NO	NO	NO								424710						40.73075	-73.940083	098833098								BP PRODUCTS N.A. INC	039596507	1312210363988	000191242	BENZO(G,H,I)PERYLENE	PBT	Pounds																		W	H124	H082							N 	E4		A	A07								N 	E4																																						NO	ROBERT.TWORKOWSKI@BP.COM			NO	 	
2012	NO	12158GNRLLNORYL	SABIC INNOVATIVE PLASTICS US LLC	1 NORYL AVE	SELKIRK	ALBANY	NY	12158	YES	NO	NO	NO								325211						42.575416	-73.853563	066832023								SABIC INNOVATIVE PLASTICS US LLC	799533617	1312210505576	N010	ANTIMONY COMPOUNDS	TRI	Pounds																		A	H040								N 	E6		L	H129								N 	E6		A	A06								N 	E3		W	H124	H081	H082	H123	H101	H123			N 	E5														NO	KAREN1.GOMEZ@SABIC-IP.COM			YES	 	
2012	NO	14048RLSTN3800M	NESTLE PURINA PETCARE CO	3800 MIDDLE RD	DUNKIRK	CHAUTAUQUA	NY	14048	YES	NO	NO	NO								311111						42.491	-79.305	006266811								NESTLE PURINA PETCARE CO	006266811	1312210663670	N982	ZINC COMPOUNDS	TRI	Pounds																																																																														NO	ROY.MYERS@PURINA.NESTLE.COM			YES	 	
2012	NO	12883NTRNTSHORE	INTERNATIONAL PAPER	568 SHORE AIRPORT RD	TICONDEROGA	ESSEX	NY	12883	YES	NO	NO	NO								322121						43.891973	-73.399275	002067882								INTERNATIONAL PAPER CO	001316561	1312210412742	N590	POLYCYCLIC AROMATIC COMPOUNDS	PBT	Pounds																		NA									N 																																																			NO	DONNA.WADSWORTH@IPAPER.COM			NO	 	
2012	NO	10990JNSCHRIVER	JCI JONES CHEMICALS INC	103 RIVER ST	WARWICK	ORANGE	NY	10990	YES	NO	NO	NO								424690						41.252205	-74.373509	002216091								JCI JONES CHEMICALS INC		1312209979107	007782505	CHLORINE	TRI	Pounds																		A	A03								N 	E4																																																		NO	TSHERWOOD@JCICHEM.COM			NO	 	
2012	NO	14303LNCHM2400B	OLIN CORP	2400 BUFFALO AVE	NIAGARA FALLS	NIAGARA	NY	143030748	YES	NO	NO	NO								325181						43.081994	-79.029936	001338086								OLIN CORP	001338086	1312210561243	000075456	CHLORODIFLUOROMETHANE	TRI	Pounds																		NA									N 																																																			NO	MJAUDET@OLIN.COM			NO	 	
2012	NO	13901MSTCH71FRE	EMS TECHNOLOGIES INC	71 FREDERICK ST	BINGHAMTON	BROOME	NY	13901	YES	NO	NO	NO								334418						42.112644	-75.896644	144509973								NELSON HOLDINGS LTD		1312209917362	007439921	LEAD	TRI	Pounds																		NA									N 																																																			NO	MARKH@EMSTECH.COM			YES	 	
2012	NO	12047NRLTC628SO	NORLITE CORP	628 S SARATOGA ST	COHOES	ALBANY	NY	12047	YES	NO	NO	NO								327992						42.7555	-73.705667	154133672								UNITED OIL RECOVERY	154133672	1312210694675	000080626	METHYL METHACRYLATE	TRI	Pounds																		NA									N 																																																			NO	TITA.LAGRIMAS@TRADEBE.COM			NO	 	
2012	NO	12047NRLTC628SO	NORLITE CORP	628 S SARATOGA ST	COHOES	ALBANY	NY	12047	YES	NO	NO	NO								327992						42.7555	-73.705667	154133672								UNITED OIL RECOVERY	154133672	1312210694840	000079016	TRICHLOROETHYLENE	TRI	Pounds																		NA									N 																																																			NO	TITA.LAGRIMAS@TRADEBE.COM			NO	 	
2012	NO	14414SFTYK1525W	SAFETY-KLEEN SYSTEMS (202802)	1525 W HENRIETTA RD	AVON	LIVINGSTON	NY	14414	YES	NO	NO	NO								562112	484220	484230				42.91492	-77.704815	053976551								SAFETY-KLEEN INC	053976551	1312210390175	N590	POLYCYCLIC AROMATIC COMPOUNDS	PBT	Pounds																		NA									N 																																																			NO	MICHAEL.ROORDA@SAFETY-KLEEN.COM			NO	 	
2012	NO	12095BMCJHUNION	BENJAMIN MOORE & CO JOHNSTOWN	UNION AVE EXTENSION	JOHNSTOWN	FULTON	NY	12095	YES	NO	NO	NO								325510						42.993056	-74.391111	181837238								BERKSHIRE HATHAWAY	001210715	1312210578100	000080626	METHYL METHACRYLATE	TRI	Pounds																		NA									N 																																																			NO	PAUL.CONNELIE@BENJAMINMOORE.COM			NO	 	
2012	NO	12466RCNCRULSTE	DYNO NOBEL	161 ULSTER AVE	ULSTER PARK	ULSTER	NY	12487	YES	NO	NO	NO								325920						41.882093	-73.987785	009091257								DYNO NOBEL INC	515346331	1312210253163	N590	POLYCYCLIC AROMATIC COMPOUNDS	PBT	Pounds																		NA									N 																																																			NO	FRED.JARDINICO@AM.DYNONOBEL.COM			NO	 	
2012	NO	13165WRGRC228EA	EVANS CHEMETICS LP	228 E MAIN ST	WATERLOO	SENECA	NY	13165	YES	NO	NO	NO								325199						42.901389	-76.853056	199972329										1312210349914	N511	NITRATE COMPOUNDS	TRI	Pounds																		W	H081								N 	E4																																																		NO	S.BRUSSO@EVANS-CHEMETICS.COM			NO	 	
2012	NO	13502GRMNM1634L	GERMANIUM CORP OF AMERICA	1634 LINCOLN AVE	UTICA	ONEIDA	NY	13502	YES	NO	NO	NO								325998						43.094	-75.257	190422746								INDIUM CORP OF AMERICA	172493504	1312210697239	007647010	HYDROCHLORIC ACID (1995 AND AFTER "ACID AEROSOLS" ONLY)	TRI	Pounds																		A	H121	H129	A03						N 	E3																																																		NO	RSHORT@INDIUM.COM			NO	 	
2012	NO	10996SMLTR646SW	US MILITARY ACADEMY WEST POINT	646 SWIFT RD	WEST POINT	ORANGE	NY	109961905	YES	NO	YES	NO								611310						41.401389	-73.964278									US DEPARTMENT OF DEFENSE		1312210429231	007440508	COPPER	TRI	Pounds																		NA									N 																																																			YES	CHRISTOPHER.PRAY@USMA.EDU			YES	 	
2012	NO	11747TSCPP586UN	NORTHVILLE INDUSTRIES CORP - HOLTSVILLE TERMINAL	586 UNION AVE	HOLTSVILLE	SUFFOLK	NY	11742	YES	NO	NO	NO								424710						40.812503	-73.065525	006976104								NIC HOLDING CORP	089228477	1312210734455	000108883	TOLUENE	TRI	Pounds																		W	H083								N 	E4																																																		NO	TOMM@NORTHVILLE.COM			NO	 	
2012	NO	14020GWYNC8849W	AGWAY FEED & NUTRITION	8849 WORTENDYKE RD	BATAVIA	GENESEE	NY	14020	YES	NO	NO	NO								311119						42.98867	-78.258351	006249189								CARGILL INC	006249189	1312210289548	N450	MANGANESE COMPOUNDS	TRI	Pounds																																																																														NO	GREG_WEISJAHN@CARGILL.COM			YES	 	
2012	NO	10994SFTYK5SNAK	SAFETY-KLEEN SYSTEMS (211801)	50 SNAKE HILL RD	WEST NYACK	ROCKLAND	NY	10994	YES	NO	NO	NO								562112	484220	484230				41.102846	-73.964081	053976551								SAFETY-KLEEN INC	053976551	1312210387104	000107211	ETHYLENE GLYCOL	TRI	Pounds																		NA									N 																																																			NO	CHANTE.THOMAS@SAFETY-KLEEN.COM			NO	 	
2012	NO	12834HLLNGCOUNT	EASTON MILL	3235 COUNTY RT 113	GREENWICH	WASHINGTON	NY	12834	YES	NO	NO	NO								322121						43.109472	-73.574139	001006360										1312210586893	007440393	BARIUM	TRI	Pounds																		W	H123	H081	H123						N 	E4																																																		NO	M.ROWLAND@HOVO.COM			YES	 	
2012	NO	10962PXRCR530RT	AVERY DENNISON INFORMATION & BRAND MANAGEMENT DIV	524 RT 303	ORANGEBURG	ROCKLAND	NY	10962	YES	NO	NO	NO								313320						41.054754	-73.948264	008256364								AVERY DENNISON CORP		1312210152409	000872504	N-METHYL-2-PYRROLIDONE	TRI	Pounds																		A	H040								N 	E4																																																		NO	KEITH.FERRY@AVERYDENNISON.COM			NO	 	
2012	NO	12328GNRLL381UP	GENERAL ELECTRIC CO CPQP	381 BROADWAY	FORT EDWARD	WASHINGTON	NY	12828	YES	NO	NO	NO								335999						43.285655	-73.589193	093256063								GENERAL ELECTRIC CO (GE CO)	001367960	1312210163046	007440473	CHROMIUM	TRI	Pounds																		W	H129	H121	H123						N 	E4		A	A07								N 	E4																																						NO				YES	 	
2012	NO	12138TCNCPCOONB	TONOGA INC DBA TACONIC	136 COON BROOK RD	PETERSBURGH	RENSSELAER	NY	12138	YES	NO	NO	NO								313320						42.741467	-73.359988	002082550										1312209997574	000100414	ETHYLBENZENE	TRI	Pounds																		NA									N 																																																			NO	LARRYC@4TACONIC.COM			NO	 	
2012	NO	14012SSMRS7725L	SOMERSET OPERATING CO LLC	7725 LAKE RD	BARKER	NIAGARA	NY	14012	YES	NO	NO	NO								221112						43.357387	-78.605805	078545234								UPSTATE NEW YORK POWER PRODUCERS,INC.	078510124	1312210215149	007647010	HYDROCHLORIC ACID (1995 AND AFTER "ACID AEROSOLS" ONLY)	TRI	Pounds																		A	A07	A05	A03						N 	E4																																																		NO	JOHN.MARABELLA@USNYPP.COM			NO	 	
2012	NO	13827HDCCRBODLE	HADCO (SANMINA) CORP - OWEGO DIV	1200 TAYLOR RD	OWEGO	TIOGA	NY	13827	YES	NO	NO	NO								334412						42.102778	-76.227111	046312559								SANMINA-SCI CORP	798778395	1312210264697	N420	LEAD COMPOUNDS	PBT	Pounds																		A	A03								N 	E3		W	H129	H111	H077	H123	H101				N 	E3																																						NO	ALAN.MARKLE@SANMINA.COM			YES	 	
2012	NO	13601GRFFT21822	GRIFFITH ENERGY - WATERTOWN	21822 GILLETTE RD	WATERTOWN	JEFFERSON	NY	13601	YES	NO	NO	NO								424710						43.935317	-75.935117	013410444								SUPERIOR PLUS ENERGY SERVICES INC.		1312210444422	000110543	N-HEXANE	TRI	Pounds																		NA									N 																																																			NO				NO	 	
2012	NO	11105STRGN18012	ASTORIA GENERATING STATION	18-01 20TH AVE	ASTORIA	QUEENS	NY	11105	YES	NO	NO	NO								221112						40.785001	-73.907744	101985930								US POWER GENERATING CO	110291783	1312210773091	000191242	BENZO(G,H,I)PERYLENE	PBT	Pounds																		NA									N 																																																			NO	LBAKER@USPOWERGEN.COM			NO	 	
2012	NO	14652JHNSN300WE	ORTHO-CLINICAL DIAGNOSTICS BUILDING 313	513 TECHNOLOGY BLVD	ROCHESTER	MONROE	NY	14626	YES	NO	NO	NO								339112						43.196847	-77.628441	001307081								JOHNSON & JOHNSON INC	001307081	1312210258164	000095476	O-XYLENE	TRI	Pounds																		A	A07								N 	E5																																																		NO	JLEEBAW@CORUS.JNJ.COM			NO	 	
2012	NO	13403MHWKV9678R	MOHAWK - MARCY TERMINAL	9678 RT 49	MARCY	ONEIDA	NY	13403	YES	NO	NO	NO								424710						43.126972	-75.2475	013410444								SUPERIOR PLUS ENERGY SERVICES INC.		1312210445464	000191242	BENZO(G,H,I)PERYLENE	PBT	Pounds																		NA									N 																																																			NO	JZAFFINO@GRIFFITHENERGY.COM			NO	 	
2012	NO	13403MHWKV9678R	MOHAWK - MARCY TERMINAL	9678 RT 49	MARCY	ONEIDA	NY	13403	YES	NO	NO	NO								424710						43.126972	-75.2475	013410444								SUPERIOR PLUS ENERGY SERVICES INC.		1312210445641	000108883	TOLUENE	TRI	Pounds																		NA									N 																																																			NO	JZAFFINO@GRIFFITHENERGY.COM			NO	 	
2012	NO	11231MRDHS722CT	HESS CORP BROOKLYN TERMINAL	722 CT ST	BROOKLYN	KINGS	NY	11231	YES	NO	NO	NO								424710						40.668894	-74.002438									HESS CORP	006979785	1312210027177	007439921	LEAD	TRI	Pounds																		NA									N 																																																			NO	JGEITNER@HESS.COM			YES	 	
2012	NO	12901GRFFT4736R	GRIFFITH ENERGY - PLATTSBURGH	4736 RT 9	PLATTSBURGH	CLINTON	NY	12901	YES	NO	NO	NO								424710						44.67056	-73.44639	013410444								SUPERIOR PLUS ENERGY SERVICES INC.		1312210445161	000091203	NAPHTHALENE	TRI	Pounds																																																																														NO				NO	 	
2012	NO	11232NRRWS53RDS	NARROWS GENERATING STATION	53RD ST & 1ST AVE	BROOKLYN	KINGS	NY	11232	YES	NO	NO	NO								221112						40.650389	-74.030444	101985930								US POWER GENERATING CO	110291783	1312210773178	001330207	XYLENE (MIXED ISOMERS)	TRI	Pounds																		NA									N 																																																			NO	LBAKER@USPOWERGEN.COM			NO	 	
2012	NO	14591GRFFT583PA	GRIFFITH ENERGY - PEARL CREEK	583 PAVILION - WARSAW RD	WYOMING	WYOMING	NY	14591	YES	NO	NO	NO								424710						42.848154	-78.047286	013410444								SUPERIOR PLUS ENERGY SERVICES INC.		1312210445250	000095636	1,2,4-TRIMETHYLBENZENE	TRI	Pounds																																																																														NO				NO	 	
2012	NO	13367GRFFT77FRE	GRIFFITH ENERGY - LOWVILLE	7700 FOREST AVE	LOWVILLE	LEWIS	NY	13367	YES	NO	NO	NO								424710						43.79309	-75.490191	013410444								SUPERIOR PLUS ENERGY SERCICES INC.		1312210443949	000108883	TOLUENE	TRI	Pounds																																																																														NO				NO	 	
2012	NO	12533BM   EASTF	IBM CORP	E FISHKILL FACILITY 2070 RT 52	HOPEWELL JUNCTION	DUTCHESS	NY	125333507	YES	NO	NO	NO								334413						41.539703	-73.822454	001686807								IBM CORP	001368083	1312210566547	007439921	LEAD	TRI	Pounds																		W	H129	H077	H121	H081	H123	H075			N 	E3																																																		NO	RBAUSE@US.IBM.COM			YES	 	
2012	NO	14210SFTYK60KAT	SAFETY-KLEEN SYSTEMS INC BUFFALO OIL RECOVERY FACILITY	60 KATHERINE ST	BUFFALO	ERIE	NY	14210	YES	NO	NO	NO								324191						42.859422	-78.860345	827784323								CLEAN HARBORS INC.	042698999	1312210367847	000127184	TETRACHLOROETHYLENE	TRI	Pounds																		W	H124	H071	H123						N 	E4																																																		NO	DAN.URBANCZYK@SAFETY-KLEEN.COM			NO	 	
2012	NO	13204NPLTC459PU	ANOPLATE CORP	459 PULASKI ST	SYRACUSE	ONONDAGA	NY	13204	YES	NO	NO	NO								332813						43.061796	-76.176129	066008457										1312210807501	N495	NICKEL COMPOUNDS	TRI	Pounds																		W	H077	H073	H123	H101					N 	E4																																																		NO	MILTJR@ANOPLATE.COM			YES	 	
2012	NO	14522GRFFT3849R	GRIFFITH ENERGY - PALMYRA	3849 RT 31	PALMYRA	WAYNE	NY	14522	YES	NO	NO	NO								424710						43.061917	-77.196785	013410444								SUPERIOR PLUS ENERGY SERVICES INC.		1312210444129	000095636	1,2,4-TRIMETHYLBENZENE	TRI	Pounds																																																																														NO				NO	 	
2012	NO	12150SCHNC1000M	SI GROUP INC	1000 MAIN ST	ROTTERDAM JUNCTION	SCHENECTADY	NY	12150	YES	NO	NO	NO								325211						42.878475	-74.055671	146710330								SI GROUP INC	146710330	1312210532913	000095487	O-CRESOL	TRI	Pounds																		A	A07								N 	E5		W	H121	H077	H123	H081	H082				N 	E2																																						NO	WILLIAM.SCHEFFER@SIIGROUP.COM			NO	 	
2012	NO	14891CRGLL518EA	CARGILL INC SALT DIV	518 E 4TH ST	WATKINS GLEN	SCHUYLER	NY	14891	YES	NO	NO	NO								212399						42.383583	-76.86675	096304647								CARGILL INC	006249189	1312210639009	007647010	HYDROCHLORIC ACID (1995 AND AFTER "ACID AEROSOLS" ONLY)	TRI	Pounds																		A	A07								N 	E4																																																		NO	DON_CHUTAS@CARGILL.COM			NO	 	
2012	NO	12553WRXTR1096R	GLOBAL COS LLC CARGO TERMINAL	1096  RIVER RD	NEW WINDSOR	ORANGE	NY	12553	YES	NO	NO	NO								424710						41.474778	-74.012528	019177757								GLOBAL COS LLC	019177757	1312210388082	N420	LEAD COMPOUNDS	PBT	Pounds																		NA									N 																																																			NO	RKENNY@GLOBALP.COM			YES	 	
2012	NO	12553WRXTR1096R	GLOBAL COS LLC CARGO TERMINAL	1096  RIVER RD	NEW WINDSOR	ORANGE	NY	12553	YES	NO	NO	NO								424710						41.474778	-74.012528	019177757								GLOBAL COS LLC	019177757	1312210388221	001330207	XYLENE (MIXED ISOMERS)	TRI	Pounds																		A	A01								N 	E4		W	H129	H124	H103						N 	E4																																						NO	RKENNY@GLOBALP.COM			NO	 	
2012	NO	12068KYMRKRTE33	KEYMARK CORP	1188 CAYADUTTA ST RT 334	FONDA	MONTGOMERY	NY	12068	YES	NO	NO	NO								331316						42.956111	-74.389056	002077196								KEYMARK CORP		1312210065823	N090	CHROMIUM COMPOUNDS(EXCEPT CHROMITE ORE MINED IN THE TRANSVAAL REGION)	TRI	Pounds																		W	H071	H121	H077						N 	E3		S	H040								N 	E6		S	H123	H101							N 	E6		A	A06	H040							N 	E4														NO	WKELLER@KEYMARKCORP.COM			YES	 	
2012	NO	12068KYMRKRTE33	KEYMARK CORP	1188 CAYADUTTA ST RT 334	FONDA	MONTGOMERY	NY	12068	YES	NO	NO	NO								331316						42.956111	-74.389056	002077196								KEYMARK CORP		1312210065862	000108101	METHYL ISOBUTYL KETONE	TRI	Pounds																		A	A06								N 	E6		A	A06	H040							N 	E4																																						NO	WKELLER@KEYMARKCORP.COM			NO	 	
2012	NO	12306NSLTNONECA	VON ROLL USA INC	200 VON ROLL DR	SCHENECTADY	SCHENECTADY	NY	123062442	YES	NO	NO	NO								327999	322222	313320	325211	325510		42.804258	-73.985333	186132288								VON ROLL AG		1312210382166	000077736	DICYCLOPENTADIENE	TRI	Pounds																		A	H040								N 	E6																																																		NO	SANTINO.CARDELLA@VONROLL.COM			NO	 	
2012	NO	14895LSTMP121SM	ALSTOM POWER SYSTEMS	121 S MAIN ST	WELLSVILLE	ALLEGANY	NY	14895	YES	NO	NO	NO								332313						42.117701	-77.941017	063571608								ALSTOM INC	125377692	1312210144679	007440473	CHROMIUM	TRI	Pounds																		NA									N 																																																			NO	GREG.MUSCATO@POWER.ALSTOM.COM			YES	 	
2012	NO	11742PRDSL6LONG	PRIDE SOLVENT & CHEMICAL CO OF NY INC	6 LONG ISLAND AVE	HOLTSVILLE	SUFFOLK	NY	11742	YES	NO	NO	NO								424690						40.813723	-73.059416									PRIDE SOLVENTS & CHEMICAL CO		1312210194445	000079016	TRICHLOROETHYLENE	TRI	Pounds																		NA									N 																																																			NO	ADHOM@PRIDESOL.COM			NO	 	
2012	NO	13676GRFFT7554U	GRIFFITH ENERGY - POTSDAM	7554 RT 11	POTSDAM	ST LAWRENCE	NY	13676	YES	NO	NO	NO								424710						44.665833	-75.023888	013410444								SUPERIOR PLUS ENERGU SERVICES INC.		1312210444612	000108883	TOLUENE	TRI	Pounds																																																																														NO				NO	 	
2012	NO	12183ZKNCR1TIBB	ZAK INC	1 TIBBITS AVE	GREEN ISLAND	ALBANY	NY	12183	YES	NO	NO	NO								332710						42.750019	-73.696903	002077733								ZAK INC	002077733	1312210144693	007440508	COPPER	TRI	Pounds																		NA									N 																																																			NO	CORRIGANJ@ZAKINC.COM			YES	 	
2012	NO	13662RYNLDSOUTH	REYNOLDS METALS CO ST LAWRENCE REDUCTION PLANT	194 COUNTY RT 45	MASSENA	ST LAWRENCE	NY	13662	YES	NO	NO	NO								331312						44.982804	-74.748897	002245967								ALCOA INC	001339472	1312210358990	000554132	LITHIUM CARBONATE	TRI	Pounds																																																																														NO	LAURIE.MARR@ALCOA.COM			YES	 	
2012	NO	11559MTVNT74EAV	MOTIVA LONG ISLAND TERMINAL	74 E AVE	LAWRENCE	NASSAU	NY	11559	YES	NO	NO	NO								424710						40.632775	-73.743301	023838670								MOTIVA ENTERPRISES LLC	023838670	1312210484818	000100425	STYRENE	TRI	Pounds																		A	H082								N 	E3		W	H083	H103							N 	E4																																						NO	JOHAN.ZAYMAN@SHELL.COM			NO	 	
2012	NO	14103WSTRN4141B	WESTERN NEW YORK ENERGY LLC	4141 BATES RD	MEDINA	ORLEANS	NY	14103	YES	NO	NO	NO								325193						43.21	-78.365	624683475										1312210175636	000067561	METHANOL	TRI	Pounds																		NA									N 																																																			NO	TTOMPKINS@WNYENERGY.COM			NO	 	
2012	NO	14304PRCSP2124L	PRECIOUS PLATE INC	2124 LIBERTY DR	NIAGARA FALLS	NIAGARA	NY	14304	YES	NO	NO	NO								332813						43.075078	-78.936667	099333858								PRECIOUS PLATE INC	099333858	1312210459095	N511	NITRATE COMPOUNDS	TRI	Pounds																		W	H121	H101	H123	H077	H073				N 	E6																																																		NO	BLEKKI@PRECIOUSPLATE.COM			NO	 	
2012	NO	14304PRCSP2124L	PRECIOUS PLATE INC	2124 LIBERTY DR	NIAGARA FALLS	NIAGARA	NY	14304	YES	NO	NO	NO								332813						43.075078	-78.936667	099333858								PRECIOUS PLATE INC	099333858	1312210459107	007697372	NITRIC ACID	TRI	Pounds																		W	H121	H101	H123	H077	H073				N 	E1																																																		NO	BLEKKI@PRECIOUSPLATE.COM			NO	 	
2012	NO	14304BTLSP5000P	DUREZ NIAGARA	5000 PACKARD RD	NIAGARA FALLS	NIAGARA	NY	14304	YES	NO	NO	NO								325211						43.100011	-79.002188									DUREZ CORP		1312209932197	000100414	ETHYLBENZENE	TRI	Pounds																		W	H129								N 	E2		W	H082								N 	E5																																						NO	MMITCHELL@SBNA-INC.COM			NO	 	
2012	NO	14304BTLSP5000P	DUREZ NIAGARA	5000 PACKARD RD	NIAGARA FALLS	NIAGARA	NY	14304	YES	NO	NO	NO								325211						43.100011	-79.002188									DUREZ CORP		1312209932250	000095476	O-XYLENE	TRI	Pounds																		NA									N 																																																			NO	MMITCHELL@SBNA-INC.COM			NO	 	
2012	NO	14450QLTRL1385F	QUALITROL CO LLC	1385 FAIRPORT RD	FAIRPORT	MONROE	NY	14450	YES	NO	NO	NO								334513						43.098265	-77.458918	002209716										1312209992940	N120	DIISOCYANATES	TRI	Pounds																																																																														NO	DKLOC@QUALITROLCORP.COM			NO	 	
2012	NO	13211FLDMR68TWN	FELDMEIER EQUIPMENT INC	6800 TOWNLINE RD	SYRACUSE	ONONDAGA	NY	13211	YES	NO	NO	NO								332420						43.098983	-76.117252	002229599								FELDMEIER EQUIPMENT INC	002229599	1312210320952	007440473	CHROMIUM	TRI	Pounds																		A	A06								N 	E4		W	H121	H077	H123	H101					N 	E5																																						NO	KBROWN@FELDMEIER.COM			YES	 	
2012	NO	14527TRNSL1789T	FERRO ELECTRONIC MATERIALS	1789 TRANSELCO DR	PENN YAN	YATES	NY	14527	YES	NO	NO	NO								325188						42.676139	-76.943667	079684403								FERRO CORP	004161477	1312210358077	N040	BARIUM COMPOUNDS	TRI	Pounds																		A	A07								N 	E2		W	H077	H123							N 	E3																																						NO	WAYNE.BESLER@FERRO.COM			YES	 	
2012	NO	14611RCHST2CAIR	ROCHESTER OVERNIGHT PLATING LLC	2 CAIRN ST	ROCHESTER	MONROE	NY	14611	YES	NO	NO	NO								332813						43.149864	-77.659688									ROCHESTER OVERNIGHT PLATING LLC		1312210468676	N495	NICKEL COMPOUNDS	TRI	Pounds																		W	H071	H077	H121						N 	E4																																																		NO	ROP@ROCHESTEROVERNIGHTPLATING.COM			YES	 	
2012	NO	14304CHRSR5300F	NIAGARA GENERATION LLC	5300 FRONTIER AVE	NIAGARA FALLS	NIAGARA	NY	14304	YES	NO	NO	NO								221112						43.082827	-79.003118	617200936								USRG	877719260	1312210577870	007439976	MERCURY	PBT	Pounds																		NA									N 																																																			NO	MBOSLET@USRG-NIAGARA.COM			YES	 	
2012	NO	1448WMDLND3CLER	MIDLAND ASPHALT MATERIALS INC	300 COLE RD	LYONS	WAYNE	NY	14489	YES	NO	NO	NO								324121						43.052361	-76.975861									BARRETT INDUSTRIES CORP		1312210317917	000191242	BENZO(G,H,I)PERYLENE	PBT	Pounds																		NA									N 																																																			NO	BHAYNES@MIDLANDASPHALT.COM			NO	 	
2012	NO	10461FRDMS1400F	FRED M SCHILDWACHTER & SONS,INC	1400 FERRIS PL	BRONX	BRONX	NY	10461	YES	NO	NO	NO								424710						40.839472	-73.841722											1312210158275	000095636	1,2,4-TRIMETHYLBENZENE	TRI	Pounds																		W	H124								N 	E5																																																		NO	ANDREW@SCHILDWACHTEROIL.COM			NO	 	
2012	NO	14572GRFFT119MA	GRIFFITH ENERGY - WAYLAND	119 MAIN ST	WAYLAND	STEUBEN	NY	14572	YES	NO	NO	NO								424710						42.56944	-77.59194	013410444								SUPERIOR PLUS ENERGY SERVICES INC.		1312210444737	000110827	CYCLOHEXANE	TRI	Pounds																																																																														NO				NO	 	
2012	NO	14572GRFFT119MA	GRIFFITH ENERGY - WAYLAND	119 MAIN ST	WAYLAND	STEUBEN	NY	14572	YES	NO	NO	NO								424710						42.56944	-77.59194	013410444								SUPERIOR PLUS ENERGY SERVICES INC.		1312210444790	000110543	N-HEXANE	TRI	Pounds																																																																														NO				NO	 	
2012	NO	10940RYNLDRD2BA	BALL METAL BEVERAGE CONTAINER CORP	95 BALLARD RD	MIDDLETOWN	ORANGE	NY	10940	YES	NO	NO	NO								332431						41.46	-74.363	056308315								BALL CORP	006419147	1312209906092	007664939	SULFURIC ACID (1994 AND AFTER "ACID AEROSOLS" ONLY)	TRI	Pounds																																																																														NO	SMCCARTY@BALL.COM			NO	 	
2012	NO	14086NTDSL4471W	UNITED SILICONE INC	4471 WALDEN AVE	LANCASTER	ERIE	NY	14086	YES	NO	NO	NO								333319						42.927379	-78.599156	030231153								ILLINOIS TOOL WORKS INC		1312210310746	007697372	NITRIC ACID	TRI	Pounds																		W	H121								N 	E1																																																		NO	DLOOS@UNITEDSILICONE.COM			NO	 	
2012	NO	14902PRLTR3MIRA	MOTOR COMPONENTS LLC	2243 CORNING RD	ELMIRA	CHEMUNG	NY	14903	YES	NO	NO	NO								336322						42.132797	-76.8286	110486813								MOTOR COMPONENTS LLC	110486813	1312210121341	007439921	LEAD	TRI	Pounds																		NA									N 																																																			NO	A.BONFARDECI@FACET-PUROLAOR.COM			YES	 	
2012	NO	14302DPNTNBUFFA	DU PONT NIAGARA FALLS PLANT	BUFFALO AVE & 26TH ST	NIAGARA FALLS	NIAGARA	NY	14302	YES	NO	NO	NO								325188						43.082972	-79.030667	002123503								E I DU PONT DE NEMOURS & CO	001315704	1312210155216	N040	BARIUM COMPOUNDS	TRI	Pounds																		W	H077	H124							N 	E3		A	A03								N 	E4		A	H124								N 	E5		A	A03	A07							N 	E5														NO	PETER.J.CIOTTA@DUPONT.COM			YES	 	
2012	NO	13211SFTYK6741V	SAFETY-KLEEN SYSTEMS (218701)	6741 VIP PKWY	SYRACUSE	ONONDAGA	NY	13211	YES	NO	NO	NO								562112	484220	484230				43.03027	-76.09916	053976551								SAFETY-KLEEN INC	053976551	1312210391367	N590	POLYCYCLIC AROMATIC COMPOUNDS	PBT	Pounds																		NA									N 																																																			NO	HARRY.RALEIGHIII@SAFETY-KLEEN.COM			NO	 	
2012	NO	1202WGLBLF4STNE	GLOBALFOUNDRIES FAB 8	400 STONEBREAK RD EXTENSION	MALTA	SARATOGA	NY	12020	YES	NO	NO	NO								334413						42.96342	-73.7636	595100884								GLOBALFOUNDRIES U.S. INC.	595100884	1312210533307	007664417	AMMONIA	TRI	Pounds																		W	H077	H121							N 	E6		W	H121								N 	E6		A	A03								N 	E6		A	A07								N 	E5		A	A03								N 	E4		NO	JOEL.ROUILLARD@GLOBALFOUNDRIES.COM			NO	 	
2012	NO	12138TCNCPCOONB	TONOGA INC DBA TACONIC	136 COON BROOK RD	PETERSBURGH	RENSSELAER	NY	12138	YES	NO	NO	NO								313320						42.741467	-73.359988	002082550										1312209997535	007429905	ALUMINUM (FUME OR DUST)	TRI	Pounds																		NA									N 																																																			NO	LARRYC@4TACONIC.COM			YES	 	
2012	NO	10940RVRSMRD2BA	REVERE SMELTING & REFINING CORP	65 BALLARD RD	MIDDLETOWN	ORANGE	NY	10941	YES	NO	NO	NO								331492						41.460844	-74.359694	002156255								RSR CORP	058678517	1312210191185	N150	DIOXIN AND DIOXIN-LIKE COMPOUNDS	DIOXIN	Grams																		NA									N 																																																			NO	GMANLEY@RSRCORP.COM			NO	 	
2012	NO	14652JHNSN300WE	ORTHO-CLINICAL DIAGNOSTICS BUILDING 313	513 TECHNOLOGY BLVD	ROCHESTER	MONROE	NY	14626	YES	NO	NO	NO								339112						43.196847	-77.628441	001307081								JOHNSON & JOHNSON INC	001307081	1312210258176	000075650	TERT-BUTYL ALCOHOL	TRI	Pounds																		A	A07								N 	E5																																																		NO	JLEEBAW@CORUS.JNJ.COM			NO	 	
2012	NO	14652STMNK1669L	EASTMAN KODAK CO EASTMAN BUSINESS PARK	1669 LAKE AVE	ROCHESTER	MONROE	NY	146523615	YES	NO	NO	NO								325992						43.197788	-77.629836	135588689								EASTMAN KODAK CO	002206183	1312210269938	N740	SILVER COMPOUNDS	TRI	Pounds																		A	A03								N 	E4		A	A05								N 	E6		S	H040	H101							N 	E6		W	H081	H121	H083	H123					N 	E5														NO	CHRISTOPHER.VERONDA@KODAK.COM			YES	 	
2012	NO	13322HMGNS2395M	PRATT & WHITNEY - HMI METAL POWDERS	2395 MAIN ST	CLAYVILLE	ONEIDA	NY	13322	YES	NO	NO	NO								331492	331221					42.97801	-75.249586	046542684								UNITED TECHNOLOGIES CORP	001344142	1312210663035	007440020	NICKEL	TRI	Pounds																		A	A03	A06							N 	E4		A	A06								N 	E3		A	A06								N 	E4		A	A06								N 	E5														NO	NANCY.RUDNITSKI@PW.UTC.COM			YES	 	
2012	NO	13088GLCMT7665H	EAGLE COMTRONICS INC	7665 HENRY CLAY BLVD	LIVERPOOL	ONONDAGA	NY	13088	YES	NO	NO	NO								334220						43.140739	-76.187498	070856372										1312210237792	007439921	LEAD	TRI	Pounds																		NA									N 																																																			NO	TIMD@EAGLECOMTRONICS.COM			YES	 	
2012	NO	12550SNCNC1184R	GLOBAL COS LLC SOUTH TERMINAL	1184  RIVER RD	NEW WINDSOR	ORANGE	NY	12553	YES	NO	NO	NO								424710						41.479611	-74.011472	019177757								GLOBAL COS LLC	019177757	1312210388005	000191242	BENZO(G,H,I)PERYLENE	PBT	Pounds																		A	A04	H129							N 	E4		W	H103	H124	H129						N 	E4																																						NO	RKENNY@GLOBALP.COM			NO	 	
2012	NO	10009CNSLD801E1	CONSOLIDATED EDISON CO OF NEW YORK - EAST RIVER FACILITY	801 E 14 ST	MANHATTAN	NEW YORK	NY	10009	YES	NO	NO	NO								221112						40.7278	-73.9733	006982359										1312210464246	N590	POLYCYCLIC AROMATIC COMPOUNDS	PBT	Pounds																		NA									N 																																																			NO	CLENDENINM@CONED.COM			NO	 	
2012	NO	12553MBLLN1281R	GLOBAL COS LLC NEWBURGH TERMINAL	1281 RIVER RD	NEW WINDSOR	ORANGE	NY	12553	YES	NO	NO	NO								424710						41.487139	-74.008528	019177757								GLOBAL COS LLC	019177757	1312210510323	000108883	TOLUENE	TRI	Pounds																		W	H082								N 	E4		A	A01								N 	E4																																						NO	RKENNY@GLOBALP.COM			NO	 	
2012	NO	13367GRFFT77FRE	GRIFFITH ENERGY - LOWVILLE	7700 FOREST AVE	LOWVILLE	LEWIS	NY	13367	YES	NO	NO	NO								424710						43.79309	-75.490191	013410444								SUPERIOR PLUS ENERGY SERCICES INC.		1312210443786	000191242	BENZO(G,H,I)PERYLENE	PBT	Pounds																		NA									N 																																																			NO				NO	 	
2012	NO	14225DRRCK3350U	DERRICK CORP	3350 UNION RD	CHEEKTOWAGA	ERIE	NY	14225	YES	NO	NO	NO								333132						42.90472	-78.75528	002110864								DERRICK CORP	002110864	1312210447417	N120	DIISOCYANATES	TRI	Pounds																																																																														NO	TMKOZLOWSKI@DERRICKCORP.COM			NO	 	
2012	NO	12801FNCHP1GLEN	FINCH PAPER  LLC	1 GLEN ST	GLENS FALLS	WARREN	NY	12801	YES	NO	NO	NO								322121	322110					43.308507	-73.634808	800328754								FINCH PAPER HOLDINGS		1312210455325	000064186	FORMIC ACID	TRI	Pounds																		W	H121								N 	E1																																																		NO	JOHN.BRODT@BEHANCOM.COM			NO	 	
2012	NO	13820CSTMLBROWN	CUSTOM ELECTRONICS INC	87 BROWNE ST	ONEONTA	OTSEGO	NY	13820	YES	NO	NO	NO								334414						42.447383	-75.110445	002085462										1312210597819	N420	LEAD COMPOUNDS	PBT	Pounds																		NA									N 																																																			NO	CBROWER@CUSTOMELEC.COM			YES	 	
2012	NO	11901TSCCR212SO	UNITED RIVERHEAD TERMINAL INC	212 SOUND SHORE RD	RIVERHEAD	SUFFOLK	NY	11901	YES	NO	NO	NO								424710						40.981111	-72.644278									UNITED REFINING CORP		1312210363634	000191242	BENZO(G,H,I)PERYLENE	PBT	Pounds																		NA									N 																																																			NO	SKAMM@URTNY.COM			NO	 	
2012	NO	12110GCMGN450OL	PHILIPS HEALTH CARE INC	450 OLD NISKAYUNA RD	LATHAM	ALBANY	NY	12110	YES	NO	NO	NO								332313						42.755	-73.798	264744706								PHILIPS N.A.		1312210836957	007440508	COPPER	TRI	Pounds																		NA																																																												NO	SUSAN.OLIVA@PHILIPS.COM			YES	 	
2012	NO	13329TMBLFBARKE	TUMBLE FORMS INC	1013 BARKER RD	DOLGEVILLE	HERKIMER	NY	13329	YES	NO	NO	NO								326199						43.08944	-74.779441									PATTERSON MEDICAL		1312210268468	000091087	TOLUENE-2,6-DIISOCYANATE	TRI	Pounds																																																																														NO	JOHN.DUREN@PATERSON-MEDICAL.COM			NO	 	
2012	NO	12189NRTNC10THA	SAINT-GOBAIN ABRASIVES	2600 TENTH AVE	WATERVLIET	ALBANY	NY	12189	YES	NO	NO	NO								327910	313311					42.738	-73.71	002083954								SAINT-GOBAIN CORP		1312210046052	000108952	PHENOL	TRI	Pounds																		W	H075	H101	H121	H123	H077				N 	E5		A	H040								N 	E4																																						NO	BRAD.R.ANDERSON@SAINT-GOBAIN.COM			NO	 	
2012	NO	13502THNDM1676L	INDIUM CORP OF AMERICA	1676 LINCOLN AVE	UTICA	ONEIDA	NY	13502	YES	NO	NO	NO								332999						43.093	-75.26	172493504								INDIUM CORP OF AMERICA	172493504	1312210710861	007439921	LEAD	TRI	Pounds																		NA									N 																																																			NO	RSHORT@INDIUM.COM			YES	 	
2012	NO	14150NCNRG700GR	NOCO ENERGY CORP	700 GRAND ISLAND BLVD	TONAWANDA	ERIE	NY	141510086	YES	NO	NO	NO								424710						42.991128	-78.925194	013293519								NOCO ENERGY CORP	013293519	1312210167060	000110827	CYCLOHEXANE	TRI	Pounds																		NA									N 																																																			NO	VSPEEK@NOCO.COM			NO	 	
2012	NO	11103PLTPR24134	PILOT PRODUCTS INC	24-13 46TH ST	LONG ISLAND CITY	QUEENS	NY	11103	YES	NO	NO	NO								326299						40.767602	-73.905692	001230630										1312210164327	000149304	2-MERCAPTOBENZOTHIAZOLE	TRI	Pounds																																																																														NO	CHEBEL@PILOTPRODUCTS.NET			NO	 	
2012	NO	1413WMTLLC24CRY	METAULLICS SYSTEMS A DIV OF PYROTEK-INC	2040 CORY RD	SANBORN	NIAGARA	NY	14132	YES	NO	NO	NO								335991						43.13083	-78.94039									PYROTEK-INC		1312209916814	000191242	BENZO(G,H,I)PERYLENE	PBT	Pounds																		A	H040								N 	E3																																																		NO	KEVSCO@PYROTEK-INC.COM			NO	 	
2012	NO	14304BTLSP5000P	DUREZ NIAGARA	5000 PACKARD RD	NIAGARA FALLS	NIAGARA	NY	14304	YES	NO	NO	NO								325211						43.100011	-79.002188									DUREZ CORP		1312209932173	007664417	AMMONIA	TRI	Pounds																		NA									N 																																																			NO	MMITCHELL@SBNA-INC.COM			NO	 	
2012	NO	12095BMCJHUNION	BENJAMIN MOORE & CO JOHNSTOWN	UNION AVE EXTENSION	JOHNSTOWN	FULTON	NY	12095	YES	NO	NO	NO								325510						42.993056	-74.391111	181837238								BERKSHIRE HATHAWAY	001210715	1312210578050	055406536	3-IODO-2-PROPYNYL BUTYLCARBAMATE	TRI	Pounds																																																																														NO	PAUL.CONNELIE@BENJAMINMOORE.COM			NO	 	
2012	NO	1207WTYLRM65HAR	TAYLOR MADE PRODUCTS LLC	65 HARRISON ST	GLOVERSVILLE	FULTON	NY	12078	YES	NO	NO	NO								326199						43.031343	-74.350658	002063634								TAYLOR MADE GROUP LLC	002063634	1312209894322	N120	DIISOCYANATES	TRI	Pounds																		NA									N 																																																			NO				NO	 	
2012	NO	12553WRXTRRIVER	GLOBAL COS LLC NORTH TERMINAL	1254  RIVER RD	NEW WINDSOR	ORANGE	NY	12553	YES	NO	NO	NO								424710						41.485139	-74.008333	019177757								GLOBAL COS LLC	019177757	1312210387965	000071432	BENZENE	TRI	Pounds																		A	A01								N 	E4																																																		NO	RKENNY@GLOBALP.COM			NO	 	
2012	NO	12553WRXTRRIVER	GLOBAL COS LLC NORTH TERMINAL	1254  RIVER RD	NEW WINDSOR	ORANGE	NY	12553	YES	NO	NO	NO								424710						41.485139	-74.008333	019177757								GLOBAL COS LLC	019177757	1312210388195	001330207	XYLENE (MIXED ISOMERS)	TRI	Pounds																		A	A01								N 	E4																																																		NO	RKENNY@GLOBALP.COM			NO	 	
2012	NO	12010MSTRDWALLI	AMSTERDAM PRINTING & LITHO	166 WALLINS CORNERS RD	AMSTERDAM	MONTGOMERY	NY	12010	YES	NO	NO	NO								323110						42.973296	-74.176925	002066777										1312210021527	N511	NITRATE COMPOUNDS	TRI	Pounds																		NA									N 																																																			NO	MVBUCCIFERRO@TAYLORCORP.COM			NO	 	
