REPORTING YEAR	TRADE SECRET INDICATOR	TRIFID	FACILITY NAME	FACILITY STREET	FACILITY CITY	FACILITY COUNTY	FACILITY STATE	FACILITY ZIP CODE	ENTIRE FACILITY IND	PARTIAL FACILITY IND	FEDERAL FACILITY IND	GOCO FACILITY FLAG	PRIMARY SIC CODE	SIC CODE 2	SIC CODE 3	SIC CODE 4	SIC CODE 5	SIC CODE 6	NAICS ORIGIN	PRIMARY NAICS CODE	NAICS CODE 2	NAICS CODE 3	NAICS CODE 4	NAICS CODE 5	NAICS CODE 6	LATITUDE	LONGITUDE	DB NR A	DB NR B	RCRA NR A	RCRA NR B	NPDES NR A	NPDES NR B	UIC NR A	UIC NR B	PARENT COMPANY NAME	PARENT COMPANY DB NR	DOCUMENT CONTROL NUMBER	CAS NUMBER	CHEMICAL NAME	CLASSIFICATION	UNIT OF MEASURE	DIOXIN DISTRIBUTION 1	DIOXIN DISTRIBUTION 2	DIOXIN DISTRIBUTION 3	DIOXIN DISTRIBUTION 4	DIOXIN DISTRIBUTION 5	DIOXIN DISTRIBUTION 6	DIOXIN DISTRIBUTION 7	DIOXIN DISTRIBUTION 8	DIOXIN DISTRIBUTION 9	DIOXIN DISTRIBUTION 10	DIOXIN DISTRIBUTION 11	DIOXIN DISTRIBUTION 12	DIOXIN DISTRIBUTION 13	DIOXIN DISTRIBUTION 14	DIOXIN DISTRIBUTION 15	DIOXIN DISTRIBUTION 16	DIOXIN DISTRIBUTION 17	STREAM 1 - WASTE STREAM CODE	STREAM 1 - TRTMT METHOD -  SEQUENCE 1	STREAM 1 - TRTMT METHOD -  SEQUENCE 2	STREAM 1 - TRTMT METHOD -  SEQUENCE 3	STREAM 1  -TRTMT METHOD -  SEQUENCE 4	STREAM 1 - TRTMT METHOD -  SEQUENCE 5	STREAM 1 - TRTMT METHOD -  SEQUENCE 6	STREAM 1 - TRTMT METHOD -  SEQUENCE 7	STREAM 1 - TRTMT METHOD -  SEQUENCE 8	STREAM 1 - RANGE INFLUENT CONCENT	STREAM 1 - TRTMT EFFICIENCY EST	STREAM 1 - BASED ON OPERATING DATA?	STREAM 2 - WASTE STREAM CODE	STREAM 2 - TRTMT METHOD -  SEQUENCE 1	STREAM 2 - TRTMT METHOD -  SEQUENCE 2	STREAM 2 - TRTMT METHOD -  SEQUENCE 3	STREAM 2  -TRTMT METHOD -  SEQUENCE 4	STREAM 2 - TRTMT METHOD -  SEQUENCE 5	STREAM 2 - TRTMT METHOD -  SEQUENCE 6	STREAM 2 - TRTMT METHOD -  SEQUENCE 7	STREAM 2 - TRTMT METHOD -  SEQUENCE 8	STREAM 2 - RANGE INFLUENT CONCENT	STREAM 2 - TRTMT EFFICIENCY EST	STREAM 2 - BASED ON OPERATING DATA?	STREAM 3 - WASTE STREAM CODE	STREAM 3 - TRTMT METHOD -  SEQUENCE 1	STREAM 3 - TRTMT METHOD -  SEQUENCE 2	STREAM 3 - TRTMT METHOD -  SEQUENCE 3	STREAM 3  -TRTMT METHOD -  SEQUENCE 4	STREAM 3 - TRTMT METHOD -  SEQUENCE 5	STREAM 3 - TRTMT METHOD -  SEQUENCE 6	STREAM 3 - TRTMT METHOD -  SEQUENCE 7	STREAM 3 - TRTMT METHOD -  SEQUENCE 8	STREAM 3 - RANGE INFLUENT CONCENT	STREAM 3 - TRTMT EFFICIENCY EST	STREAM 3 - BASED ON OPERATING DATA?	STREAM 4 - WASTE STREAM CODE	STREAM 4 - TRTMT METHOD -  SEQUENCE 1	STREAM 4 - TRTMT METHOD -  SEQUENCE 2	STREAM 4 - TRTMT METHOD -  SEQUENCE 3	STREAM 4  -TRTMT METHOD -  SEQUENCE 4	STREAM 4 - TRTMT METHOD -  SEQUENCE 5	STREAM 4 - TRTMT METHOD -  SEQUENCE 6	STREAM 4 - TRTMT METHOD -  SEQUENCE 7	STREAM 4 - TRTMT METHOD -  SEQUENCE 8	STREAM 4 - RANGE INFLUENT CONCENT	STREAM 4 - TRTMT EFFICIENCY EST	STREAM 4 - BASED ON OPERATING DATA?	STREAM 5 - WASTE STREAM CODE	STREAM 5 - TRTMT METHOD -  SEQUENCE 1	STREAM 5 - TRTMT METHOD -  SEQUENCE 2	STREAM 5 - TRTMT METHOD -  SEQUENCE 3	STREAM 5  -TRTMT METHOD -  SEQUENCE 4	STREAM 5 - TRTMT METHOD -  SEQUENCE 5	STREAM 5 - TRTMT METHOD -  SEQUENCE 6	STREAM 5 - TRTMT METHOD -  SEQUENCE 7	STREAM 5 - TRTMT METHOD -  SEQUENCE 8	STREAM 5 - RANGE INFLUENT CONCENT	STREAM 5 - TRTMT EFFICIENCY EST	STREAM 5 - BASED ON OPERATING DATA	ASSIGNED FED. FACILITY FLAG	PUBLIC CONTACT EMAIL	REVISION CODE 1	REVISION CODE 2	METAL INDICATOR	20-NOV-13	
2012	NO	46394MCLC 2815I	BP PRODUCTS NORTH AMERICA WHITING	2815 INDIANAPOLIS BLVD	WHITING	LAKE	IN	46394	YES	NO	NO	NO								324110						41.663055	-87.479643	056970940		IND000810861	IND074375585	IN0000108				BP PRODUCTS NORTH AMERICA INC	039596507	1312210707865	N100	COPPER COMPOUNDS	TRI	Pounds																		NA									N 																																																			NO	BRAD.ETLIN@BP.COM			YES	 	
2012	NO	46515LKHRT1255O	ELKHART PRODUCTS CORP	1255 OAK ST	ELKHART	ELKHART	IN	46514	YES	NO	NO	NO								332996						41.699344	-85.993813	053658654								AALBERTS INDUSTRIES		1312210012631	007440508	COPPER	TRI	Pounds																		W	H129	H077	H121	H124	H101				N 	E3																																																		NO	DOYLE.FRANKLIN@ELKHARTPRODUCTS.COM			YES	 	
2012	NO	46953CBLCN440EA	GENERAL CABLE INDUSTRIES INC	440 E 8TH ST	MARION	GRANT	IN	46953	YES	NO	NO	NO								335929						40.55425	-85.654944	793463209								GENERAL CABLE CORP	847914173	1312210290286	N982	ZINC COMPOUNDS	TRI	Pounds																		NA									N 																																																			NO	LSNEED@GENERALCABLE.COM			YES	 	
2012	NO	46268FLSCH4300W	CONAGRA FOODS INC	4300 W 62ND ST	INDIANAPOLIS	MARION	IN	46268	YES	NO	NO	NO								311512						39.867386	-86.232945	108292624		IND984914515						CONAGRA FOODS INC	007258908	1312210721662	N511	NITRATE COMPOUNDS	TRI	Pounds																		NA									N 																																																			NO	DENNIS.GORDON@CONAGRAFOODS.COM			NO	 	
2012	NO	46015BSTVR722BR	BEST-EVER DAIRY PRODUCTS	722 BROADWAY	ANDERSON	MADISON	IN	46012	YES	NO	NO	NO								311511						40.121917	-85.678	006414833		IND006414833								1312210595221	N511	NITRATE COMPOUNDS	TRI	Pounds																		NA									N 																																																			NO	HCARTER@PRAIRIEFARMS.COM			NO	 	
2012	NO	47012WRSCR128W8	OWENS CORNING ROOFING & ASPHALT LLC	128 W 8TH ST	BROOKVILLE	FRANKLIN	IN	47012	YES	NO	NO	NO								324122						39.423056	-85.015139	001317452								OWENS CORNING	004250742	1312210052205	000191242	BENZO(G,H,I)PERYLENE	PBT	Pounds																		NA									N 																																																			NO	LARRY.CAVINS@OWENSCORNING.COM			NO	 	
2012	NO	46219MRCNC404SK	PIZZA BLENDS INC	404 S KITLEY AVE SUITE 200	INDIANAPOLIS	MARION	IN	46219	YES	NO	NO	NO								311822						39.763618	-86.054519	008115099		IND984886069						C.H. GUENTHER & SON INC.	008115099	1312210282113	007664417	AMMONIA	TRI	Pounds																																																																														NO	BHOPPES@CHG.COM			NO	 	
2012	NO	4739WCRDNL1554N	CARDINAL ETHANOL	1554 N 600 E	UNION CITY	RANDOLPH	IN	47390	YES	NO	NO	NO								325193						40.186389	-84.874167	621414437										1312210578136	000075070	ACETALDEHYDE	TRI	Pounds																		A	H040								N 	E4		A	A01								N 	E4																																						NO	DSWEENEY@CARDINALETHANOL.COM			NO	 	
2012	NO	46738GRPDK165DE	GROUP DEKKO INC	1605 DEKKO DR	GARRETT	DEKALB	IN	46738	YES	NO	NO	NO								332116						41.366671	-85.106165	796965168								DEKKO ACQUISITION PARENT INC	796965168	1312210017253	N420	LEAD COMPOUNDS	PBT	Pounds																		NA									N 																																																			NO	CARLH@DEKKO.COM			YES	 	
2012	NO	47240DVMRC992SC	DAVE O'MARA CONTRACTOR INC	992 S COUNTY RD 800 E	GREENSBURG	DECATUR	IN	47240	YES	NO	NO	NO								324121						39.324167	-85.334167									DAVE O'MARA CONTRACTOR INC		1312210285348	N590	POLYCYCLIC AROMATIC COMPOUNDS	PBT	Pounds																		NA									N 																																																			NO	AMYB@DAVEOMARA.COM			NO	 	
2012	NO	46360NRTHRWABAS	NIPSCO MICHIGAN CITY GENERATING STATION	101 WABASH	MICHIGAN CITY	LAPORTE	IN	46360	YES	NO	NO	NO								221112						41.7203	-86.9097	006937585								NISOURCE INC	185654076	1312210131241	007647010	HYDROCHLORIC ACID (1995 AND AFTER "ACID AEROSOLS" ONLY)	TRI	Pounds																		A	A07								N 	E5																																																		NO	NMEYER@NISOURCE.COM			NO	 	
2012	NO	46360NRTHRWABAS	NIPSCO MICHIGAN CITY GENERATING STATION	101 WABASH	MICHIGAN CITY	LAPORTE	IN	46360	YES	NO	NO	NO								221112						41.7203	-86.9097	006937585								NISOURCE INC	185654076	1312210131330	N450	MANGANESE COMPOUNDS	TRI	Pounds																		NA									N 																																																			NO	NMEYER@NISOURCE.COM			YES	 	
2012	NO	46360NRTHRWABAS	NIPSCO MICHIGAN CITY GENERATING STATION	101 WABASH	MICHIGAN CITY	LAPORTE	IN	46360	YES	NO	NO	NO								221112						41.7203	-86.9097	006937585								NISOURCE INC	185654076	1312210131393	007664939	SULFURIC ACID (1994 AND AFTER "ACID AEROSOLS" ONLY)	TRI	Pounds																		A	A07								N 	E6		A	A05								N 	E6																																						NO	NMEYER@NISOURCE.COM			NO	 	
2012	NO	4713WCHMTR143PR	CHEMTRUSION INC	1403 PORT RD	JEFFERSONVILLE	CLARK	IN	47130	YES	NO	NO	NO								325991						38.314869	-85.675507	944541325										1312210200376	007440360	ANTIMONY	TRI	Pounds																		A	A06								N 	E3																																																		NO				YES	 	
2012	NO	46992GSMTL5DIME	SRT INVESTMENTS D/B/A G&S METALS	50 DIMENSION AVE	WABASH	WABASH	IN	46992	YES	NO	NO	NO								331314						40.783708	-85.81938											1312209921840	007439965	MANGANESE	TRI	Pounds																																																																														NO	JHAMPTON@GSMETALINC.COM			YES	 	
2012	NO	46319MRCNC420SC	AMERICAN CHEMICAL SERVICE INC	420 S COLFAX AVE	GRIFFITH	LAKE	IN	46319	YES	NO	NO	NO								325199						41.5142	-87.4191	016360265										1312210140517	007726956	BROMINE	TRI	Pounds																		W	H121								N 	E1																																																		NO	TFROMAN@ACS-CHEM.COM			NO	 	
2012	NO	47108HLSLNSTATE	NETSHAPE TECHNOLOGIES - CAMPBELLSBURG FACILITY	596 W OAK ST	CAMPBELLSBURG	WASHINGTON	IN	47108	YES	NO	NO	NO								332117						38.645056	-86.276928	830314261								NETSHAPE TECHNOLOGIES INC	830314261	1312210337212	007440020	NICKEL	TRI	Pounds																		NA									N 																																																			NO	JNICE@NETSHAPETECH.COM			YES	 	
2012	NO	46206LLSNT4700W	ALLISON TRANSMISSION INC	ONE ALLISON WAY	INDIANAPOLIS	MARION	IN	46222	YES	NO	NO	NO								336350						39.779944	-86.238681	804407463								CARLYLE GROUP		1312210229858	007440020	NICKEL	TRI	Pounds																		W	H124	H129	H124						N 	E6		L	H124	H129	H124	H129					N 	E4																																						NO	MELISSA.SAUER@ALLISONTRANSMISSION.COM			YES	 	
2012	NO	47025TNNRSAEPDR	AMERICAN ELECTRIC POWER TANNERS CREEK PLANT	AEP DR	LAWRENCEBURG	DEARBORN	IN	47025	YES	NO	NO	NO								221112						39.082442	-84.859364	003941564								AMERICAN ELECTRIC POWER	006979868	1312209977646	N770	VANADIUM COMPOUNDS	TRI	Pounds																		A	A07	A05							N 	E3		W	H123	H124							N 	E3																																						NO	SSMCFARLAND@AEP.COM			YES	 	
2012	NO	47025TNNRSAEPDR	AMERICAN ELECTRIC POWER TANNERS CREEK PLANT	AEP DR	LAWRENCEBURG	DEARBORN	IN	47025	YES	NO	NO	NO								221112						39.082442	-84.859364	003941564								AMERICAN ELECTRIC POWER	006979868	1312209976885	N090	CHROMIUM COMPOUNDS(EXCEPT CHROMITE ORE MINED IN THE TRANSVAAL REGION)	TRI	Pounds																		A	A07	A05							N 	E3		W	H123	H124							N 	E4																																						NO	SSMCFARLAND@AEP.COM			YES	 	
2012	NO	46402SSGRYONENO	USS GARY WORKS	1 N BROADWAY	GARY	LAKE	IN	46402	YES	NO	NO	NO								331111						41.616667	-87.3125	005444062								US STEEL CORP	029990699	1312210465668	N982	ZINC COMPOUNDS	TRI	Pounds																		A	A06								N 	E4		A	A03								N 	E6		W	H129	H124	H129	H124	H121	H071	H123	H101	N 	E4		A	A06								N 	E3														NO	CABOONE@USS.COM			YES	 	
2012	NO	46360SLLRC3700E	SULLAIR LLC	3700 E MICHIGAN BLVD	MICHIGAN CITY	LAPORTE	IN	46360	YES	NO	NO	NO								333912						41.702818	-86.845584	005545835								ACCUDYNE INDUSTRIES LLC	078716476	1312210520209	007440473	CHROMIUM	TRI	Pounds																		NA									N 																																																			NO	JEANIE.DOWNS@SULLAIR.COM			YES	 	
2012	NO	47885PSWBS450BO	WABASH RIVER GENERATING STATION	450 BOLTON RD	WEST TERRE HAUTE	VIGO	IN	47885	YES	NO	NO	NO								221112						39.516028	-87.420361	006939540								DUKE ENERGY CORP	006996052	1312210573655	N040	BARIUM COMPOUNDS	TRI	Pounds																		A	H123	A05							N 	E3		W	H123								N 	E4																																						NO	TOM.KNAPKE@DUKE-ENERGY.COM			YES	 	
2012	NO	47885PSWBS450BO	WABASH RIVER GENERATING STATION	450 BOLTON RD	WEST TERRE HAUTE	VIGO	IN	47885	YES	NO	NO	NO								221112						39.516028	-87.420361	006939540								DUKE ENERGY CORP	006996052	1312210574048	N458	MERCURY COMPOUNDS	PBT	Pounds																		A	H123	A05							N 	E6		W	H123								N 	E1																																						NO	TOM.KNAPKE@DUKE-ENERGY.COM			YES	 	
2012	NO	47885PSWBS450BO	WABASH RIVER GENERATING STATION	450 BOLTON RD	WEST TERRE HAUTE	VIGO	IN	47885	YES	NO	NO	NO								221112						39.516028	-87.420361	006939540								DUKE ENERGY CORP	006996052	1312210574226	N770	VANADIUM COMPOUNDS	TRI	Pounds																		A	H123	A05							N 	E4		W	H123								N 	E1																																						NO	TOM.KNAPKE@DUKE-ENERGY.COM			YES	 	
2012	NO	46515GDFRY22787	NAUTIC GLOBAL GROUP INC DBA GODFREY MARINE	720 COUNTY RD 15	ELKHART	ELKHART	IN	46516	YES	NO	NO	NO								336612						41.704159	-85.902771	005469531								SILVER POINT CAPITAL	005469531	1312209989019	N120	DIISOCYANATES	TRI	Pounds																		NA									N 																																																			NO	MAHONEN@NAUTICGLOBALGROUP.COM			NO	 	
2012	NO	47130JFFBT1030E	JEFFBOAT LLC	1030 E MARKET ST	JEFFERSONVILLE	CLARK	IN	47130	YES	NO	NO	NO								336611						38.276944	-85.727134									AMERICAN COMMERCIAL LINES INC		1312210438267	N982	ZINC COMPOUNDS	TRI	Pounds																		NA									N 																																																			NO	SEAN.GALLAGHER@ACLINES.COM			YES	 	
2012	NO	4631WRCLRM33DIC	ARCELORMITTAL USA LLC LONG CARBON INDIANA HARBOR	3300 DICKEY RD	EAST CHICAGO	LAKE	IN	46312	YES	NO	NO	NO								331111						41.651778	-87.462722	005159199								ARCELORMITTAL USA LLC	107970886	1312210699740	007429905	ALUMINUM (FUME OR DUST)	TRI	Pounds																		NA									N 																																																			NO	MARYBETH.HOLDFORD@ARCELORMITTAL.COM			YES	 	
2012	NO	46506CRTVF405NI	CREATIVE FOAM MEDICAL SYSTEMS	405 N INDUSTRIAL DR	BREMEN	MARSHALL	IN	46506	YES	NO	NO	NO								326150						41.449522	-86.170608	603351016								CREATIVE FOAM CORP	050620442	1312210124273	000108883	TOLUENE	TRI	Pounds																		A	H040								N 	E4																																																		NO	DAHOFFERTH@CREATIVEFOAMMEDICALSYSTEMS.COM			NO	 	
2012	NO	47882MRMGNHWY54	MEROM GENERATING STATION	5500 W OLD HWY 54	SULLIVAN	SULLIVAN	IN	478820007	YES	NO	NO	NO								221112						39.0694	-87.5108									HOOSIER ENERGY REC INC		1312210304248	N420	LEAD COMPOUNDS	PBT	Pounds																		A	A05	A03							N 	E3		W	H123								N 	E3		S	H111								N 	E6																										NO	MREILLY@HEPN.COM			YES	 	
2012	NO	46241RLLYT1500S	VERTELLUS AGRICULTURE & NUTRITION SPECIALTIES LLC	1500 S TIBBS AVE	INDIANAPOLIS	MARION	IN	46241	YES	NO	NO	NO								325192						39.74028	-86.21833									VERTELLUS SPECIALTIES INC	006418685	1312210324125	000123728	BUTYRALDEHYDE	TRI	Pounds																																																																														NO	AFRYE@VERTELLUS.COM			NO	 	
2012	NO	47620NDNFR1200R	COUNTRYMARK REFINING & LOGISTICS LLC	1200 REFINERY RD	MOUNT VERNON	POSEY	IN	47620	YES	NO	NO	NO								324110						37.925417	-87.904972	044908663								COUNTRYMARK	007902869	1312210424747	000100414	ETHYLBENZENE	TRI	Pounds																		A	A01								N 	E4		W	H124	H071	H129	H081	H121	H077	H124	H081	N 	E4																																						NO	JIM.PANKEY@COUNTRYMARK.COM			NO	 	
2012	NO	47635KSTLC6500N	AK STEEL CORP (ROCKPORT WORKS )	6500 N U.S. 231	ROCKPORT	SPENCER	IN	47635	YES	NO	NO	NO								331111						37.9849	-87.0259	009292954								AK STEEL HOLDING CORP	606072130	1312210033522	007664417	AMMONIA	TRI	Pounds																		A	A07								N 	E5																																																		NO				NO	 	
2012	NO	46539CRGLL196EL	CARGILL INC	104 N ETNA ST	MENTONE	KOSCIUSKO	IN	465390336	YES	NO	NO	NO								311119						41.155556	-86.021944	006249189								CARGILL INC	006249189	1312210289878	N982	ZINC COMPOUNDS	TRI	Pounds																																																																														NO	GREG_WEISJAHN@CARGILL.COM			YES	 	
2012	NO	46143SFTYK475PA	SAFETY-KLEEN SYSTEMS (407602)	475 PARK 800 DR	GREENWOOD	JOHNSON	IN	46143	YES	NO	NO	NO								562112	484220	484230				39.5916	-86.0976	053976551								SAFETY-KLEEN INC	053976551	1312210393322	N590	POLYCYCLIC AROMATIC COMPOUNDS	PBT	Pounds																		NA									N 																																																			NO	KEITH.MILLER@SAFETY-KLEEN.COM			NO	 	
2012	NO	47955SLNDN23W11	VALERO RENEWABLE FUELS CO LLC DBA VALERO LINDEN PLANT	203W 1100N	LINDEN	MONTGOMERY	IN	47955	YES	NO	NO	NO								325193						40.20064	-86.91	829990824								VALERO ENERGY CORP	082686916	1312210480721	000064186	FORMIC ACID	TRI	Pounds																		A	A01								N 	E3		A	H040								N 	E3																																						NO	BRIAN.GRAF@VALERO.COM			NO	 	
2012	NO	47905WBSHN3550E	WABASH NATIONAL LP SOUTH PLANT	3550 E COUNTY R.D 350 S	LAFAYETTE	TIPPECANOE	IN	47909	YES	NO	NO	NO								336212						40.3695	-86.8482	121581698								WABASH NATIONAL LP	121581698	1312210506489	007440484	COBALT	TRI	Pounds																		NA									N 																																																			NO	ANDREW.FRISBIE@WABASHNATIONAL.COM			YES	 	
2012	NO	46312LTVST3001D	ARCELORMITTAL INDIANA HARBOR LLC	3001 DICKEY RD	EAST CHICAGO	LAKE	IN	46312	YES	NO	NO	NO								331111						41.651165	-87.459167									ARCELORMITTAL USA LLC	107970886	1312210703563	N106	CYANIDE COMPOUNDS	TRI	Pounds																		NA									N 																																																			NO	MARYBETH.HOLDFORD@ARCELORMITTAL.COM			NO	 	
2012	NO	46803FRNKP2109E	FRANKE PLATING WORKS	2109 E WASHINGTON BLVD	FORT WAYNE	ALLEN	IN	46803	YES	NO	NO	NO								332813						41.079409	-85.110537											1312210815573	N511	NITRATE COMPOUNDS	TRI	Pounds																		A	A03	H121	H123						N 	E2		A	A03	H121	H123						N 	E1																																						NO	WFRANKE@FRANKEPLATINGWORKS.COM			NO	 	
2012	NO	46721STLDY4500C	STEEL DYNAMICS INC	4500 COUNTY RD 59	BUTLER	DEKALB	IN	46721	YES	NO	NO	NO								331111						41.370152	-84.921695	808202725								STEEL DYNAMICS INC		1312209910672	000071363	N-BUTYL ALCOHOL	TRI	Pounds																		NA									N 																																																			NO	NOREPLY@STEELDYNAMICS.COM			NO	 	
2012	NO	47542RTCMN1037E	KIMBALL OFFICE - JASPER 15TH STREET	1037 E 15TH ST	JASPER	DUBOIS	IN	47549	YES	NO	NO	NO								337215						38.400525	-86.918888	055829642								KIMBALL INTERNATIONAL INC	006365803	1312209919378	007440484	COBALT	TRI	Pounds																																																																														NO	CARRIE.LABOLLE@KIMBALL.COM			YES	 	
2012	NO	4763WMDWST5722P	MIDWEST CUSTOM CHEMICAL D/B/A WEATHERFORD CHEMISTRY	5722 PROSPECT DR	NEWBURGH	WARRICK	IN	47630	YES	NO	NO	NO								325998						37.98705	-87.35325	789438285								WEATHERFORD INTERNATIONAL	789438285	1312210021073	001330207	XYLENE (MIXED ISOMERS)	TRI	Pounds																																																																														NO	RICHARD.DEWIG@WEATHERFORD.COM			NO	 	
2012	NO	46514SPRRF1030A	SUPERIOR FIBERGLASS & RESINS	1030 ALL PRO DR	ELKHART	ELKHART	IN	465148815	YES	NO	NO	NO								424690						41.729649	-85.990509	039994975								SUPERIOR OIL CO INC	039994975	1312210224376	000075092	DICHLOROMETHANE	TRI	Pounds																																																																														NO				NO	 	
2012	NO	46506BRMNC500NB	BREMEN CASTINGS INC	500 N BALTIMORE ST	BREMEN	MARSHALL	IN	46506	YES	NO	NO	NO								331511						41.450543	-86.153773	005461447										1312210806586	N100	COPPER COMPOUNDS	TRI	Pounds																		A	A06								N 	E4		W	H123								N 	E5		A	A03	A05							N 	E4																										NO	JB@BCIMAIL.COM			YES	 	
2012	NO	46135LNSTRPUTNA	BUZZI UNICEM USA - GREENCASTLE PLANT	3301 S COUNTY RD 150 W	GREENCASTLE	PUTNAM	IN	46135	YES	NO	NO	NO								327310						39.615889	-86.868917	001265321								BUZZI UNICEM USA	611764820	1312210605770	001634044	METHYL TERT-BUTYL ETHER	TRI	Pounds																		NA									N 																																																			NO	JOHN.KASS@BUZZIUNICEMUSA.COM			NO	 	
2012	NO	4739WMRSXC241NE	MURSIX CORP	2401 N EXECUTIVE PARK DR	YORKTOWN	DELAWARE	IN	473969806	YES	NO	NO	NO								332116						40.212337	-85.554626	610151755								MURSIX CORP	610151755	1312210024321	007440473	CHROMIUM	TRI	Pounds																		NA									N 																																																			NO	MIMURRAY@MURSIX.COM			YES	 	
2012	NO	46538FRNTLCOUNT	FRONT LINE MANUFACTURING WARSAW	COUNTY RD 2466 N 200 W	WARSAW	KOSCIUSKO	IN	46580	YES	NO	NO	NO								326191						41.210251	-85.809639											1312210110641	000100425	STYRENE	TRI	Pounds																		NA									N 																																																			NO	KSCHMUCKER@DIAMONDTUBSHOWERS.COM			NO	 	
2012	NO	4724WHNDMN2755N	HONDA MANUFACTURING OF INDIANA LLC	2755 N MICHIGAN AVE	GREENSBURG	DECATUR	IN	47240	YES	NO	NO	NO								336111						39.36738	-85.542151									AMERICAN HONDA MOTOR CO INC		1312210311294	000071432	BENZENE	TRI	Pounds																		NA									N 																																																			NO	RICH_RICHARDSON@HAM.HONDA.COM			NO	 	
2012	NO	4724WHNDMN2755N	HONDA MANUFACTURING OF INDIANA LLC	2755 N MICHIGAN AVE	GREENSBURG	DECATUR	IN	47240	YES	NO	NO	NO								336111						39.36738	-85.542151									AMERICAN HONDA MOTOR CO INC		1312210311357	000067561	METHANOL	TRI	Pounds																		A	H040								N 	E4																																																		NO	RICH_RICHARDSON@HAM.HONDA.COM			NO	 	
2012	NO	46394MCLC 2815I	BP PRODUCTS NORTH AMERICA WHITING	2815 INDIANAPOLIS BLVD	WHITING	LAKE	IN	46394	NO	YES	NO	NO								324110						41.663055	-87.479643	056970940		IND000810861	IND074375585	IN0000108				BP PRODUCTS NORTH AMERICA INC	039596507	1312210707764	N982	ZINC COMPOUNDS	TRI	Pounds																		NA									N 																																																			NO	BRAD.ETLIN@BP.COM			YES	 	
2012	NO	46515LKHRT1255O	ELKHART PRODUCTS CORP	1255 OAK ST	ELKHART	ELKHART	IN	46514	YES	NO	NO	NO								332996						41.699344	-85.993813	053658654								AALBERTS INDUSTRIES		1312210012771	007439921	LEAD	TRI	Pounds																		W	H129	H077	H121	H124	H101				N 	E3																																																		NO	DOYLE.FRANKLIN@ELKHARTPRODUCTS.COM			YES	 	
2012	NO	46517GSKTP1810W	GASKA TAPE INC	1810 W LUSHER	ELKHART	ELKHART	IN	46517	YES	NO	NO	NO								326140						41.666849	-85.997445											1312210107254	000108054	VINYL ACETATE	TRI	Pounds																		NA									N 																																																			NO	JSHAFERCHMM@HOTMAIL.COM			NO	 	
2012	NO	46383WNSCR2552I	AOC LLC	2552 INDUSTRIAL DR	VALPARAISO	PORTER	IN	46383	YES	NO	NO	NO								325211						41.445208	-87.017042	876314329								ALPHA CORP	876314329	1312210382204	000085449	PHTHALIC ANHYDRIDE	TRI	Pounds																		NA									N 																																																			NO	BSEARS@AOC-RESINS.COM			NO	 	
2012	NO	46540CRSTH437NM	CREST HOMES - MIDDLEBURY	437 N MAIN ST	MIDDLEBURY	ELKHART	IN	46540	YES	NO	NO	NO								321991						41.683387	-85.702142	622800464								BERKSHIRE HATHAWAY	118119528	1312210015564	N120	DIISOCYANATES	TRI	Pounds																																																																														NO	MARTY.BOSTROM@CLAYTONHOMES.COM			NO	 	
2012	NO	47374MLSND401IN	MATTHEWS INTERNATIONAL CORP	401 INDUSTRIAL PKWY	RICHMOND	WAYNE	IN	47374	YES	NO	NO	NO								339995						39.8231	-84.8232	004341533								MATTHEWS INTERNATIONAL CORP		1312209986405	007440508	COPPER	TRI	Pounds																		NA									N 																																																			NO	DHARRIS@MATTHEWSINTL.COM			YES	 	
2012	NO	47905LLLLYLILLY	EVONIK CORP TIPPECANOE LABORATORIES	1650 LILLY RD	LAFAYETTE	TIPPECANOE	IN	479099201	YES	NO	NO	NO								325412	325411	325414				40.390544	-86.936174	130890994								EVONIK INDUSTRIES	068209295	1312210609133	000098884	BENZOYL CHLORIDE	TRI	Pounds																		A	A03								N 	E3		A	A03								N 	E4		L	H129	H040							N 	E1		S	H040								N 	E2														NO	EMMA.YORK@EVONIK.COM			NO	 	
2012	NO	47546KMBLL1038E	KIMBALL ELECTRONICS INC	1038 E 15TH ST	JASPER	DUBOIS	IN	47549	YES	NO	NO	NO								334418						38.400554	-86.918881	131522401								KIMBALL INTERNATIONAL INC	131522401	1312209942010	007439921	LEAD	TRI	Pounds																		NA									N 																																																			NO	KEN.SICARD@KIMBALL.COM			YES	 	
2012	NO	47122DWRDV5171M	CYLICRON ENGINEERED CYLINDERS LLC	5171 MARITIME RD	JEFFERSONVILLE	CLARK	IN	471308452	YES	NO	NO	NO								333293						38.333611	-85.671111	121289008										1312210329936	007440020	NICKEL	TRI	Pounds																		NA									N 																																																			NO	DONALD.ROBERTS@CYLICRON.COM			YES	 	
2012	NO	46312CTGPT2500E	CITGO PETROLEUM CORP	2500 E CHICAGO AVE	EAST CHICAGO	LAKE	IN	46312	YES	NO	NO	NO								424710						41.617917	-87.434111	115780926								CITGO PETROLEUM CORP	102417268	1312210470365	000091203	NAPHTHALENE	TRI	Pounds																		W	H124								N 	E3																																																		NO	FGARAY@CITGO.COM			NO	 	
2012	NO	46368NMLPRUSHWY	SEQUA COATINGS CORP-PRECOAT M ETALS DIV	US HWY 12 AT RT 249	PORTAGE	PORTER	IN	46368	YES	NO	NO	NO								332812						41.619778	-87.159389	057389710								CARLYLE GROUP	001374727	1312209985062	001330207	XYLENE (MIXED ISOMERS)	TRI	Pounds																		NA									N 																																																			NO	TMTIPPINS@PRECOAT.COM			NO	 	
2012	NO	46733CNTRL1200N	BUNGE NA (EAST) LLC	1200 N 2ND ST	DECATUR	ADAMS	IN	467335002	YES	NO	NO	NO								311222						40.841322	-84.930607	006981435		IND005129499		IN0000591				BUNGE LTD	006981435	1312210068235	007439921	LEAD	TRI	Pounds																		NA									N 																																																			NO	KEITH.SANDERS@BUNGE.COM			YES	 	
2012	NO	46714FRNKL400ES	BLUFFTON MOTOR WORKS LLC	410 E SPRING ST	BLUFFTON	WELLS	IN	467143737	YES	NO	NO	NO								335312						40.728356	-85.167563	791054013								CAPITAL WORKS LLC	791054013	1312210213904	007439921	LEAD	TRI	Pounds																		NA									N 																																																			NO	DNUSSEAR@BLMWORKS.COM			YES	 	
2012	NO	46808PRSSS2424W	PRESS-SEAL GASKET	2424 W STATE ST	FORT WAYNE	ALLEN	IN	46808	YES	NO	NO	NO								339991						41.096857	-85.188277	005478748								PRESS-SEAL GASKET CORP	005478748	1312210561926	000078795	ISOPRENE	TRI	Pounds																		NA									N 																																																			NO	DKELLER@PRESS-SEAL.COM			NO	 	
2012	NO	47274GTPRD1231A	VALEO SYLVANIA	1231 A AVE N	SEYMOUR	JACKSON	IN	47274	YES	NO	NO	NO								336321						38.929046	-85.912757	089273338										1312210158578	N120	DIISOCYANATES	TRI	Pounds																		NA									N 																																																			NO	STEPHANE.PRINCE@VALEO.COM			NO	 	
2012	NO	46703CLVTL503WE	TENNECO INC	503 WEATHERHEAD ST	ANGOLA	STEUBEN	IN	46703	YES	NO	NO	NO								336330						41.644227	-85.005122	147530349								TENNECO INC	103343760	1312210371807	001330207	XYLENE (MIXED ISOMERS)	TRI	Pounds																		A	A01								N 	E4																																																		NO	JPERKINS@TENNECO.COM			NO	 	
2012	NO	46802SSXGR1601W	ESSEX GROUP INC FORT WAYNE MAGNET WIRE PLANT	1601 WALL ST	FORT WAYNE	ALLEN	IN	46802	NO	YES	NO	NO								325510						41.0708	-85.1596	058956996								SUPERIOR ESSEX INC	153370077	1312210584633	001330207	XYLENE (MIXED ISOMERS)	TRI	Pounds																		NA									N 																																																			NO	DENNIS.SNYDER@SPSX.COM			NO	 	
2012	NO	46345RLLCT2NDAN	PRECOAT METALS	858 E HUPP RD	LA PORTE	LAPORTE	IN	46350	YES	NO	NO	NO								332812						41.517486	-86.670517	064709876								SEQUA CORP	001374727	1312209985023	001330207	XYLENE (MIXED ISOMERS)	TRI	Pounds																		A	H040								N 	E4																																																		NO	TMTIPPINS@PRECOAT.COM			NO	 	
2012	NO	4752WDVMRC13966	DAVE O'MARA CONTRACTOR ODON	13966 N COUNTY RD 550 E	ELNORA	DAVIESS	IN	47529	YES	NO	NO	NO								324121						38.860386	-87.087789									DAVE O'MARA CONTRACTOR INC		1312210285324	N590	POLYCYCLIC AROMATIC COMPOUNDS	PBT	Pounds																		NA									N 																																																			NO	AMYB@DAVEOMARA.COM			NO	 	
2012	NO	46320CLRKL10201	PREMCOR HAMMOND DISTRIBUTION CENTER	1020 141ST ST	HAMMOND	LAKE	IN	46320	YES	NO	NO	NO								424710						41.638417	-87.502917	106917730								VALERO ENERGY CORP	082686916	1312210344988	000108883	TOLUENE	TRI	Pounds																		A	A04								N 	E3																																																		NO	JOHN.TENISON@VALERO.COM			NO	 	
2012	NO	46767FRDNB1496G	VIBRATION CONTROL TECHNOLOGIES	1496 GERBER ST	LIGONIER	NOBLE	IN	46767	YES	NO	NO	NO								326299						41.474758	-85.605678	070945287								TRELLEBORG VIBRACOUSTIC	104879501	1312210824506	000872504	N-METHYL-2-PYRROLIDONE	TRI	Pounds																		NA																																																												NO	TORI.PATTERSON@TBVC.COM			NO	 	
2012	NO	47933CRWNC400NW	CROWN BEVERAGE PACKAGING	400 N WALNUT ST	CRAWFORDSVILLE	MONTGOMERY	IN	47933	YES	NO	NO	NO								332431						40.045204	-86.902844	002282341								CROWN CORK & SEAL CO (USA) INC	002282341	1312210022505	N230	CERTAIN GLYCOL ETHERS	TRI	Pounds																		A	H040								N 	E5																																																		NO	EDWIN.UMSTEAD@CROWNCORK.COM			NO	 	
2012	NO	46319MRCNC420SC	AMERICAN CHEMICAL SERVICE INC	420 S COLFAX AVE	GRIFFITH	LAKE	IN	46319	YES	NO	NO	NO								325199						41.5142	-87.4191	016360265										1312210140529	001319773	CRESOL (MIXED ISOMERS)	TRI	Pounds																		W	H075								N 	E2																																																		NO	TFROMAN@ACS-CHEM.COM			NO	 	
2012	NO	46802SSXGR1601W	ESSEX GROUP INC FORT WAYNE MAGNET WIRE PLANT	1601 WALL ST	FORT WAYNE	ALLEN	IN	46802	NO	YES	NO	NO								331422	325510	331319				41.0708	-85.1596	058956996								SUPERIOR ESSEX INC	153370077	1312210703082	007440508	COPPER	TRI	Pounds																		NA									N 																																																			NO	DENNIS.SNYDER@SPSX.COM			YES	 	
2012	NO	47111RRDNN1QUAL	RR DONNELLEY	100 QUALITY CT	CHARLESTOWN	CLARK	IN	47111	YES	NO	NO	NO								323110						38.45482	-85.65352	126257885								R R DONNELLEY & SONS CO	005119573	1312210075091	N230	CERTAIN GLYCOL ETHERS	TRI	Pounds																		A	H040								N 	E4																																																		NO	GREG.ORNELAS@RRD.COM			NO	 	
2012	NO	47978CHFND1225E	CHIEF INDUSTRIES INC BUILDINGS DIV	1225 E MAPLE ST	RENSSELAER	JASPER	IN	47978	YES	NO	NO	NO								332311						40.9456	-87.1381									CHIEF INDUSTRIES INC	007497852	1312210311650	007440473	CHROMIUM	TRI	Pounds																		NA									N 																																																			NO	STEVEMABEE@CHIEFIND.COM			YES	 	
2012	NO	46626MHWKL8401E	NCH CORP MOHAWK LABS DIV	7401 E 33RD ST	INDIANAPOLIS	MARION	IN	46226	YES	NO	NO	NO								325612						39.817301	-86.017792	072054513								NCH CORP	008963910	1312210465795	007632000	SODIUM NITRITE	TRI	Pounds																																																																														NO	MNEAR@NCH.COM			YES	 	
2012	NO	46360FSPKN411FA	FAS-PAK INC	411 FAIRFIELD AVE	MICHIGAN CITY	LAPORTE	IN	46360	YES	NO	NO	NO								325612	324191	561910				41.711944	-86.868056	807542691										1312210355475	000111422	DIETHANOLAMINE	TRI	Pounds																																																																														NO	LINDA.HAGEN@FAS-PAK.COM			NO	 	
2012	NO	46135HRTLN300SW	HEARTLAND AUTOMOTIVE LLC	300 S WARREN DR	GREENCASTLE	PUTNAM	IN	46135	YES	NO	NO	NO								336360						39.640692	-86.831929	186173860								SHIGERU CO LTD		1312210790628	000108101	METHYL ISOBUTYL KETONE	TRI	Pounds																		NA									N 																																																			NO	MJENNINGS@HAUTO.NET			NO	 	
2012	NO	47150PRDCT273MC	PRODUCT SPECIALTIES INC	2073 MCDONALD AVE	NEW ALBANY	FLOYD	IN	47150	YES	NO	NO	NO								326113						38.31187	-85.81623	094201282								TARULLO GROUP INC		1312210364156	N040	BARIUM COMPOUNDS	TRI	Pounds																																																																														NO	SVARGAS@LSIWC.COM			YES	 	
2012	NO	47903SBRSZ5500S	SUBARU OF INDIANA AUTOMOTIVE INC	5500 STATE RD 38E	LAFAYETTE	TIPPECANOE	IN	47905	YES	NO	NO	NO								336111						40.373952	-86.785001									FUJI HEAVY INDUSTRIES LTD		1312210483879	007632000	SODIUM NITRITE	TRI	Pounds																		NA									N 																																																			NO	TOM.EASTERDAY@SUBARU-SIA.COM			YES	 	
2012	NO	46176TNCTN173MC	TEN CATE ENBI INC	1703 MCCALL DR	SHELBYVILLE	SHELBY	IN	46176	YES	NO	NO	NO								326299						39.547791	-85.783474	794728832								ROYAL TEN CATE ENBI USA		1312210812879	001330207	XYLENE (MIXED ISOMERS)	TRI	Pounds																		NA									N 																																																			NO	D.SITTON@TENCATE-ENBI.COM			NO	 	
2012	NO	46534KNXFR266EA	KNOX FERTILIZER CO INC	2660 E 100 S	KNOX	STARKE	IN	46534	YES	NO	NO	NO								325314						41.31734	-86.64634	005224589										1312210288989	000872504	N-METHYL-2-PYRROLIDONE	TRI	Pounds																																																																														NO	DKSELL@KNOXFERT.COM			NO	 	
2012	NO	47620GPLSTLEXAN	SABIC INNOVATIVE PLASTICS MT VERNON LLC	1 LEXAN LN	MOUNT VERNON	POSEY	IN	476209367	YES	NO	NO	NO								325211						37.9072	-87.9271	603727103								SABIC INNOVATIVE PLASTICS US LLC	799533617	1312210420550	000106503	P-PHENYLENEDIAMINE	TRI	Pounds																		W	H123	H121	H123	H129	H121	H081	H075	H077	N 	E5																																																		NO	SHEILA.NAAB@SABIC-IP.COM			NO	 	
2012	NO	46203GGRPT761SS	GEIGER & PETERS INC	761 S SHERMAN DR	INDIANAPOLIS	MARION	IN	46203	YES	NO	NO	NO								332312						39.756677	-86.101776	006052831										1312210261208	007439965	MANGANESE	TRI	Pounds																		NA									N 																																																			NO	LGRAY@GPSTEEL.COM			YES	 	
2012	NO	47987KRPPG12918	THYSSENKRUPP CRANKSHAFT LLC	1291 8TH ST	VEEDERSBURG	FOUNTAIN	IN	47987	YES	NO	NO	NO								332111						40.11863	-87.243649									THYSSENKRUPP		1312210297661	007440020	NICKEL	TRI	Pounds																		NA									N 																																																			NO	DAVE.WALTER@THYSSENKRUPP.COM			YES	 	
2012	NO	46120LTRND2265E	POET BIOREFINING-CLOVERDALE LLC	2265 E COUNTY RD 800 S	CLOVERDALE	PUTNAM	IN	46120	YES	NO	NO	NO								325193						39.550556	-86.817778											1312210519068	000107028	ACROLEIN	TRI	Pounds																		NA									N 																																																			NO	DAVE.BROOKS@POET.COM			NO	 	
2012	NO	46750SCHNK119FL	SUIZA DAIRY HOLDINGS LLC DBA SCHENKEL'S ALL STAR DAIRY LLC	1019 FLAXMILL RD	HUNTINGTON	HUNTINGTON	IN	46750	YES	NO	NO	NO								311511						40.886783	-85.521069									SUIZA DAIRY HOLDINGS LLC		1312210045706	007697372	NITRIC ACID	TRI	Pounds																		W	H121								N 	E1																																																		NO	LARRY_BROWN@DEANFOODS.COM			NO	 	
2012	NO	47522NVLSR300HW	US NAVY NSWC CRANE DIV	300 HWY 361	CRANE	MARTIN	IN	475225001	YES	NO	YES	NO								928110						38.87471	-86.87551			IN5170023498		IN0021539				US DEPARTMENT OF DEFENSE		1312210447393	000108883	TOLUENE	TRI	Pounds																		A	H040	A07							N 	E6																																																		YES	PAMELA.INGRAM@NAVY.MIL			NO	 	
2012	NO	4632WHLXDV653SC	HALOX DIV OF ICL-PPLP	6530 SCHNEIDER AVE	HAMMOND	LAKE	IN	46320	YES	NO	NO	NO								325998						41.59452	-87.47036	085271638								ICL PERFORMANCE PRODUCTS LP	085271638	1312210074757	N511	NITRATE COMPOUNDS	TRI	Pounds																		NA									N 																																																			NO	FDUNLAP@HALOX.COM			NO	 	
2012	NO	46703FRDNC401GR	BARIL COATINGS USA	401 GROWTH PKWY	ANGOLA	STEUBEN	IN	46703	YES	NO	NO	NO								325510						41.656717	-85.004409	831611723										1312210370565	001330207	XYLENE (MIXED ISOMERS)	TRI	Pounds																																																																														NO	DHARMON@BARILCOATINGS.US			NO	 	
2012	NO	46143SFTYK475PA	SAFETY-KLEEN SYSTEMS (407602)	475 PARK 800 DR	GREENWOOD	JOHNSON	IN	46143	YES	NO	NO	NO								562112	484220	484230				39.5916	-86.0976	053976551								SAFETY-KLEEN INC	053976551	1312210393258	007439921	LEAD	TRI	Pounds																		NA									N 																																																			NO	KEITH.MILLER@SAFETY-KLEEN.COM			YES	 	
2012	NO	46231QMTCN7870W	QUEMETCO INC	7870 W MORRIS ST	INDIANAPOLIS	MARION	IN	46231	YES	NO	NO	NO								331492						39.755554	-86.300056	008347197								RSR CORP	058678517	1312210185169	N090	CHROMIUM COMPOUNDS(EXCEPT CHROMITE ORE MINED IN THE TRANSVAAL REGION)	TRI	Pounds																		NA									N 																																																			NO	GMANLEY@RSRCORP.COM			YES	 	
2012	NO	46345CRDNLFIRST	ALEXANDER CHEMICAL CORP	FIRST RD KINGSBURY INDUSTRIAL PARK	KINGSBURY	LAPORTE	IN	46345	YES	NO	NO	NO								424690						41.508377	-86.675019	103180402								ALEXANDER CHEMICAL CORP	103180402	1312210450983	N511	NITRATE COMPOUNDS	TRI	Pounds																																																																														NO	MARC.LINOS@ALEXANDERCHEMICAL.COM			NO	 	
2012	NO	46356VRYGR270WE	AVERY DENNISON MFD	270 W MEADOW PL	LOWELL	LAKE	IN	46356	YES	NO	NO	NO								322222						41.291518	-87.442113	051932739								AVERY DENNISON CORP	008256364	1312210538144	000108883	TOLUENE	TRI	Pounds																		A	H040								N 	E4																																																		NO	DARIN.CLARK@AVERYDENNISON.COM			NO	 	
2012	NO	46221PRRMT265KE	VCNA PRAIRIE INC - YARD 1071	2605 KENTUCKY AVE	INDIANAPOLIS	MARION	IN	46221	YES	NO	NO	NO								327320						39.72912	-86.20628	025697343								VCNA PRAIRIE INC.	025697343	1312210658706	007439921	LEAD	TRI	Pounds																		NA									N 																																																			NO	CMGROFF@PRAIRIE.COM			YES	 	
2012	NO	46750GLDXT4757N	GLADIEUX TRADING & MARKETING	4757N. US HWY 24 E	HUNTINGTON	HUNTINGTON	IN	46750	YES	NO	NO	NO								424710						40.897222	-85.448056	188187298										1312210159327	000191242	BENZO(G,H,I)PERYLENE	PBT	Pounds																		NA									N 																																																			NO	RRAVAL@AOL.COM			NO	 	
2012	NO	46312NLNDS3210W	ARCELORMITTAL USA LLC	3210 WATLING ST MAIL CODE (8-130)	EAST CHICAGO	LAKE	IN	46312	YES	NO	NO	NO								331111						41.67953	-87.41687			IND005159199		IN0000094				ARCELORMITTAL USA LLC	107970886	1312210703423	N010	ANTIMONY COMPOUNDS	TRI	Pounds																		NA									N 																																																			NO	MARYBETH.HOLDFORD@ARCELORMITTAL.COM			YES	 	
2012	NO	47532RSTKRSTHEN	MBCI - FERDINAND OPERATION	614 W 3RD ST	FERDINAND	DUBOIS	IN	47532	YES	NO	NO	NO								337110						38.219679	-86.868628	364258442								FBHS	968556774	1312210442784	001330207	XYLENE (MIXED ISOMERS)	TRI	Pounds																		A	H040								N 	E5																																																		NO	SGAINES@MASTERBRANDCABINETS.COM			NO	 	
2012	NO	47670PSNRGHWY64	GIBSON GENERATING STATION	1097 N 950 W	OWENSVILLE	GIBSON	IN	47665	YES	NO	NO	NO								221112						38.221234	-87.455156	006939540								DUKE ENERGY CORP	006996052	1312210574442	N495	NICKEL COMPOUNDS	TRI	Pounds																		A	H123	A07	A05	A03					N 	E3		W	H123								N 	E1																																						NO	REBECCA.SPARKS@DUKE-ENERGY.COM			YES	 	
2012	NO	46221JCKSN1970K	JACKSON OILS & SOLVENTS	1970 KENTUCKY AVE	INDIANAPOLIS	MARION	IN	46221	YES	NO	NO	NO								424710						39.738056	-86.195	062006991								JACKSON OIL & SOLVENTS		1312210068755	000071432	BENZENE	TRI	Pounds																																																																														NO	RON.WILLIS@JACKSONSOLVENTS.COM			NO	 	
2012	NO	46221JCKSN1970K	JACKSON OILS & SOLVENTS	1970 KENTUCKY AVE	INDIANAPOLIS	MARION	IN	46221	YES	NO	NO	NO								424710						39.738056	-86.195	062006991								JACKSON OIL & SOLVENTS		1312210068918	000067561	METHANOL	TRI	Pounds																																																																														NO	RON.WILLIS@JACKSONSOLVENTS.COM			NO	 	
2012	NO	47201MCLMN6875S	NIKKEI MC ALUMINUM AMERICA INC	6875 S INWOOD DR	COLUMBUS	BARTHOLOMEW	IN	47201	YES	NO	NO	NO								331314						39.137222	-85.9525											1312210398739	007440508	COPPER	TRI	Pounds																		NA									N 																																																			NO	DEANT@NMALUMINUM.NET			YES	 	
2012	NO	47250CLFTY1335C	CLIFTY CREEK STATION	1335 CLIFTY HOLLOW RD	MADISON	JEFFERSON	IN	47250	YES	NO	NO	NO								221112						38.740722	-85.4115	007777915								OHIO VALLEY ELECTRIC CORP	007903925	1312210300404	N590	POLYCYCLIC AROMATIC COMPOUNDS	PBT	Pounds																		A	A05	A07							N 	E6		A	A07	A05							N 	E6																																						NO				NO	 	
2012	NO	46947CPLYCSTATE	ESSROC CEMENT CORP	STATE RD 25 S 3084 W CR. 225 S	LOGANSPORT	CASS	IN	46947	YES	NO	NO	NO								327310						40.734521	-86.433441	005081542								ESSROC CEMENT CORP	002389625	1312210678886	N590	POLYCYCLIC AROMATIC COMPOUNDS	PBT	Pounds																		NA									N 																																																			NO	COREY.CONN@ESSROC.COM			NO	 	
2012	NO	46205THBRL2920D	BRULIN CORP	2920 DR ANDREW J BROWN AVE	INDIANAPOLIS	MARION	IN	46205	YES	NO	NO	NO								325612						39.809076	-86.135587	006414692										1312210409532	N230	CERTAIN GLYCOL ETHERS	TRI	Pounds																		NA									N 																																																			NO	GBRODNICKI@BRULIN.COM			NO	 	
2012	NO	47670PSNRGHWY64	GIBSON GENERATING STATION	1097 N 950 W	OWENSVILLE	GIBSON	IN	47665	YES	NO	NO	NO								221112						38.221234	-87.455156	006939540								DUKE ENERGY CORP	006996052	1312210574455	000091203	NAPHTHALENE	TRI	Pounds																																																																														NO	REBECCA.SPARKS@DUKE-ENERGY.COM			NO	 	
2012	NO	47240BHNNGHIGHW	ADVANCED BEARING MATERIALS LLC	1515 W MAIN ST	GREENSBURG	DECATUR	IN	47240	YES	NO	NO	NO								336312						39.334917	-85.510806	621664390										1312210294587	007439921	LEAD	TRI	Pounds																		NA									N 																																																			NO	GREG.HALL@ABM-US.COM			YES	 	
2012	NO	46733GLDSH2709P	GOLDSHIELD FIBERGLASS INC 43-1	2709 PATTERSON ST	DECATUR	ADAMS	IN	46733	YES	NO	NO	NO								326121						40.824743	-84.954367	057478315								ALLIED SPECIALTY VEHICLES INC		1312210839332	000100425	STYRENE	TRI	Pounds																		L	H111									E2																																																		NO	JEFF.NEWPORT@GOLDSHIELD.COM			NO	 	
2012	NO	47346CNSLD4359S	MAXWELL MILLING OF INDIANA INC	4359 N STATE RD 1	HAGERSTOWN	WAYNE	IN	47346	YES	NO	NO	NO								311119						39.964722	-85.139444									GOLDSBORO MILLING CO		1312209944533	N725	SELENIUM COMPOUNDS	TRI	Pounds																		NA									N 																																																			NO	TREVIS.WILSON@GOLDSBOROMILLING.COM			YES	 	
2012	NO	46394MCLC 2815I	BP PRODUCTS NORTH AMERICA WHITING	2815 INDIANAPOLIS BLVD	WHITING	LAKE	IN	46394	YES	NO	NO	NO								324110						41.663055	-87.479643	056970940		IND000810861	IND074375585	IN0000108				BP PRODUCTS NORTH AMERICA INC	039596507	1312210708083	N770	VANADIUM COMPOUNDS	TRI	Pounds																		W	H124								N 	E4																																																		NO	BRAD.ETLIN@BP.COM			YES	 	
2012	NO	47670TYTMT4000T	TOYOTA MOTOR MANUFACTURING INDIANA INC	4000 TULIP TREE DR	PRINCETON	GIBSON	IN	476704000	YES	NO	NO	NO								336112						38.2927	-87.5645									TOYOTA INDUSTRIES N.A.		1312210180776	000110543	N-HEXANE	TRI	Pounds																		A	A04								N 	E5																																																		NO	KELLY.DILLON@TEMA.TOYOTA.COM			NO	 	
2012	NO	47172CPLYCHIGHW	ESSROC CEMENT CORP	HWY 31	SPEED	CLARK	IN	47172	YES	NO	NO	NO								327310						38.413286	-85.751374	002389625								ESSROC CEMENT CORP	002389625	1312210298271	N420	LEAD COMPOUNDS	PBT	Pounds																		NA									N 																																																			NO	DAVID.HITT@ESSROC.COM			YES	 	
2012	NO	4614WJCKSN32EAS	JACKSON OIL & SOLVENTS	320 E S ST	GREENFIELD	HANCOCK	IN	46140	YES	NO	NO	NO								424710						39.78454	-85.766122									JACKSON OIL & SOLVENTS		1312210068868	000071432	BENZENE	TRI	Pounds																																																																														NO	RON.WILLIS@JACKSONSOLVENTS.COM			NO	 	
2012	NO	46231MCRNT1550R	HERITAGE TECHNOLOGIES LLC MICRONUTRIENTS DIV	1550 RESEARCH WAY	INDIANAPOLIS	MARION	IN	46231	YES	NO	NO	NO								325188						39.743333	-86.298333	049714657										1312210144010	N450	MANGANESE COMPOUNDS	TRI	Pounds																		NA									N 																																																			NO				YES	 	
2012	NO	46774SPRRL14214	SUPERIOR ALUMINUM ALLOYS LLC	14214 EDGERTON RD	NEW HAVEN	ALLEN	IN	46774	YES	NO	NO	NO								331314						41.078611	-84.952778	008970758								OMNISOURCE CORP	016319345	1312210874020	N150	DIOXIN AND DIOXIN-LIKE COMPOUNDS	DIOXIN	Grams																		NA									N 																																																			NO	BWINTERS@OMNISOURCE.COM	RR1		NO	 	
2012	NO	46526STRCR2703C	LIPPERT COMPONENTS INC - PLANT 45	2703 COLLEGE AVE	GOSHEN	ELKHART	IN	46528	YES	NO	NO	NO								332312						41.566226	-85.792883	043222470								DREW INDUSTRIES INC	007871643	1312210398766	007439921	LEAD	TRI	Pounds																		NA									N 																																																			NO	ECLICK@LCI1.COM			YES	 	
2012	NO	46302XDCRP2601W	EXIDE TECHNOLOGIES	2601 W MOUNT PLEASANT BLVD	MUNCIE	DELAWARE	IN	47302	YES	NO	NO	NO								331492						40.156959	-85.417418									EXIDE TECHNOLOGIES	038009866	1312210533168	N010	ANTIMONY COMPOUNDS	TRI	Pounds																		W	H077	H101	H121	H123					N 	E3		A	A06								N 	E3		A	A03								N 	E3																										NO	MICHAEL.HENRY@NA.EXIDE.COM			YES	 	
2012	NO	46904KKMCS1001E	KOKOMO CASTING PLANT	1001 E BLVD	KOKOMO	HOWARD	IN	46904	NO	YES	NO	NO								331521						40.46004	-86.11399	868164773								CHRYSLER GROUP LLC	830966904	1312210447734	N450	MANGANESE COMPOUNDS	TRI	Pounds																		W	H121	H075							N 	E6																																																		NO				YES	 	
2012	NO	46368NMLPRUSHWY	SEQUA COATINGS CORP-PRECOAT M ETALS DIV	US HWY 12 AT RT 249	PORTAGE	PORTER	IN	46368	YES	NO	NO	NO								332812						41.619778	-87.159389	057389710								CARLYLE GROUP	001374727	1312209984994	000091203	NAPHTHALENE	TRI	Pounds																		NA									N 																																																			NO	TMTIPPINS@PRECOAT.COM			NO	 	
2012	NO	46573HLDYR400IN	MONACO RV LLC	400 INDIANA AVE PO BOX 465	WAKARUSA	ELKHART	IN	46573	YES	NO	NO	NO								336213						41.5299	-86.0098	829980291		IND062431614		INR00H092				ALLIED SPECIALTY VEHICLES INC		1312210252401	000107211	ETHYLENE GLYCOL	TRI	Pounds																																																																														NO	MATT.PETRILL@MONACORV.COM			NO	 	
2012	NO	46402MRBLHCLARK	CARMEUSE LIME INC BUFFINGTON	1 N CARMEUSE DR	GARY	LAKE	IN	46406	YES	NO	NO	NO								327410						41.605278	-87.373889	968684449								CARMEUSE N.A.	021073510	1312210507873	N420	LEAD COMPOUNDS	PBT	Pounds																		NA									N 																																																			NO	DAVID.SWISHER@CARMEUSENA.COM			YES	 	
2012	NO	46402MRBLHCLARK	CARMEUSE LIME INC BUFFINGTON	1 N CARMEUSE DR	GARY	LAKE	IN	46406	YES	NO	NO	NO								327410						41.605278	-87.373889	968684449								CARMEUSE N.A.	021073510	1312210507885	000067561	METHANOL	TRI	Pounds																		NA									N 																																																			NO	DAVID.SWISHER@CARMEUSENA.COM			NO	 	
2012	NO	46386NNRLLUSHIG	UNION ELECTRIC STEEL CORP	3702 MONTADLE PARK DR US HWY 30 E	VALPARAISO	PORTER	IN	463840029	YES	NO	NO	NO								333516						41.452262	-86.994195									AMPCO-PITTSBURGH CORP	004327862	1312209989678	007440473	CHROMIUM	TRI	Pounds																		NA									N 																																																			NO	BKELLY@UNIONES.COM			YES	 	
2012	NO	46360NRTHRWABAS	NIPSCO MICHIGAN CITY GENERATING STATION	101 WABASH	MICHIGAN CITY	LAPORTE	IN	46360	YES	NO	NO	NO								221112						41.7203	-86.9097	006937585								NISOURCE INC	185654076	1312210131153	N040	BARIUM COMPOUNDS	TRI	Pounds																		NA									N 																																																			NO	NMEYER@NISOURCE.COM			YES	 	
2012	NO	46360NRTHRWABAS	NIPSCO MICHIGAN CITY GENERATING STATION	101 WABASH	MICHIGAN CITY	LAPORTE	IN	46360	YES	NO	NO	NO								221112						41.7203	-86.9097	006937585								NISOURCE INC	185654076	1312210131189	N100	COPPER COMPOUNDS	TRI	Pounds																		NA									N 																																																			NO	NMEYER@NISOURCE.COM			YES	 	
2012	NO	46217NDNPL3700S	IPL HARDING STREET GENERATING STATION	3700 S HARDING ST	INDIANAPOLIS	MARION	IN	462173333	YES	NO	NO	NO								221112						39.7119	-86.1975	883343600								AES CORP	043857812	1312210101693	N420	LEAD COMPOUNDS	PBT	Pounds																		S	H123								N 	E3		A	H123	A05	A03						N 	E4																																						NO	ANGELIQUE.OLIGER@AES.COM			YES	 	
2012	NO	46323HMMND3100M	HAMMOND GROUP INC - HALSTAB DIV	3100 MICHIGAN ST	HAMMOND	LAKE	IN	46323	YES	NO	NO	NO								325998						41.609862	-87.456453	083076604								HAMMOND GROUP INC	005226790	1312210228995	N420	LEAD COMPOUNDS	PBT	Pounds																		NA									N 																																																			NO				YES	 	
2012	NO	46222MCLC02500N	BP -- INDIANAPOLIS TERMINAL	2500 N TIBBS AVE	INDIANAPOLIS	MARION	IN	46222	YES	NO	NO	NO								424710						39.802805	-86.21581	072075294								BP PRODUCTS N.A. INC	039596507	1312210216949	000110543	N-HEXANE	TRI	Pounds																		A	A01								N 	E4		A	A07								N 	E4		W	H124								N 	E3																										NO	JEFF.PIATT@BP.COM			NO	 	
2012	NO	46626MHWKL8401E	NCH CORP MOHAWK LABS DIV	7401 E 33RD ST	INDIANAPOLIS	MARION	IN	46226	YES	NO	NO	NO								325612						39.817301	-86.017792	072054513								NCH CORP	008963910	1312210465807	000127184	TETRACHLOROETHYLENE	TRI	Pounds																																																																														NO	MNEAR@NCH.COM			NO	 	
2012	NO	47586WPCFN9856S	WAUPACA FOUNDRY - PLANT 5	9856 STATE HWY 66	TELL CITY	PERRY	IN	47586	YES	NO	NO	NO								331511						37.986835	-86.769568	006133441								WAUPACA FOUNDRY HOLDINGS INC.	078524489	1312210652881	000107211	ETHYLENE GLYCOL	TRI	Pounds																		NA									N 																																																			NO	BRYANT.ESCH@WAUPACAFOUNDRY.COM			NO	 	
2012	NO	46218MJRTL1458E	MAJOR TOOL & MACHINE INC	1458 E 19TH ST	INDIANAPOLIS	MARION	IN	46218	YES	NO	NO	NO								332710						39.791959	-86.133692	006067078										1312210169809	007439921	LEAD	TRI	Pounds																		NA									N 																																																			NO	KOBRIEN@MAJORTOOL.COM			YES	 	
2012	NO	46774RQPCR10801	PARKER HANNIFIN NEW HAVEN	10801 ROSE AVE	NEW HAVEN	ALLEN	IN	467749793	YES	NO	NO	NO								333415						41.08139	-85	004175550								PARKER HANNIFIN CORP	004175550	1312210185664	007439921	LEAD	TRI	Pounds																		W	H077	H123							N 	E4																																																		NO	RHACK@PARKER.COM			YES	 	
2012	NO	47150PRDCT273MC	PRODUCT SPECIALTIES INC	2073 MCDONALD AVE	NEW ALBANY	FLOYD	IN	47150	YES	NO	NO	NO								326113						38.31187	-85.81623	094201282								TARULLO GROUP INC		1312210364168	N982	ZINC COMPOUNDS	TRI	Pounds																																																																														NO	SVARGAS@LSIWC.COM			YES	 	
2012	NO	46350SLVYN1207E	AMERICAN RENOLIT CORP	1207 E LINCOLNWAY	LA PORTE	LAPORTE	IN	46350	YES	NO	NO	NO								326113						41.62416	-86.69361	624225892		IND984894824						RENOLIT SE		1312210009003	000117817	DI(2-ETHYLHEXYL) PHTHALATE	TRI	Pounds																		NA									N 																																																			NO	RALPH.GUT@RENOLIT.COM			NO	 	
2012	NO	46701PRKRHSTATE	PARKER HANNIFIN FLUID SYSTEM CONNECTORS DIV	903 N ORANGE ST	ALBION	NOBLE	IN	46701	YES	NO	NO	NO								332912						41.4097	-85.4252	004175550								PARKER HANNIFIN CORP	004175550	1312209957392	007440666	ZINC (FUME OR DUST)	TRI	Pounds																		NA									N 																																																			NO	DAN.CARLEY@PARKER.COM			YES	 	
2012	NO	4651WGSHNC25161	GOSHEN COACH INC	25161 LEER DR	ELKHART	ELKHART	IN	46514	YES	NO	NO	NO								336211						41.72707	-85.9507									THOR INDUSTRIES INC		1312210298915	000108883	TOLUENE	TRI	Pounds																		NA									N 																																																			NO	KWOGOMON@GOSHENCOACH.COM			NO	 	
2012	NO	46552DCTLT30350	EDCOAT LP	30350 EDISON RD	NEW CARLISLE	ST JOSEPH	IN	46552	YES	NO	NO	NO								332812						41.69342	-86.455658	963968037										1312210303816	000095636	1,2,4-TRIMETHYLBENZENE	TRI	Pounds																		A	A07								N 	E5																																																		NO	JWILLIAMS@EDCOAT.COM			NO	 	
2012	NO	47620GPLSTLEXAN	SABIC INNOVATIVE PLASTICS MT VERNON LLC	1 LEXAN LN	MOUNT VERNON	POSEY	IN	476209367	YES	NO	NO	NO								325211						37.9072	-87.9271	603727103								SABIC INNOVATIVE PLASTICS US LLC	799533617	1312210421374	N982	ZINC COMPOUNDS	TRI	Pounds																		S	H101								N 	E6		W	H123	H121	H123	H129	H121	H081	H075	H077	N 	E5		A	A06								N 	E5																										NO	SHEILA.NAAB@SABIC-IP.COM			YES	 	
2012	NO	47394TMSCN2INKS	INDIANA MARUJUN LLC	200 INKS DR	WINCHESTER	RANDOLPH	IN	47394	YES	NO	NO	NO								336399						40.1745	-84.9935	090254850										1312210310999	007440020	NICKEL	TRI	Pounds																		NA									N 																																																			NO	EFIELDS@INDIANAMARUJUN.COM			YES	 	
2012	NO	46268MRTHN4955R	MARATHON PETROLEUM CO - INDIANAPOLIS IN TERMINAL	4955 ROBISON RD	INDIANAPOLIS	MARION	IN	46268	YES	NO	NO	NO								424710						39.922971	-86.238881	050162804								MARATHON PETROLEUM CORP	968393996	1312210401788	000095636	1,2,4-TRIMETHYLBENZENE	TRI	Pounds																		NA									N 																																																			NO	WGMOORE@MARATHONPETROLEUM.COM			NO	 	
2012	NO	46268MRTHN4955R	MARATHON PETROLEUM CO - INDIANAPOLIS IN TERMINAL	4955 ROBISON RD	INDIANAPOLIS	MARION	IN	46268	YES	NO	NO	NO								424710						39.922971	-86.238881	050162804								MARATHON PETROLEUM CORP	968393996	1312210402246	000108883	TOLUENE	TRI	Pounds																		NA									N 																																																			NO	WGMOORE@MARATHONPETROLEUM.COM			NO	 	
2012	NO	46176KNFFB240EL	KNAUF INSULATION	400 E WALKER ST	SHELBYVILLE	SHELBY	IN	46176	YES	NO	NO	NO								327993						39.519852	-85.778542	134875983								KNAUF INSULATION		1312210797825	N090	CHROMIUM COMPOUNDS(EXCEPT CHROMITE ORE MINED IN THE TRANSVAAL REGION)	TRI	Pounds																		NA									N 																																																			NO	STEVE.ALDRIDGE@KNAUFINSULATION.COM			YES	 	
2012	NO	47710NSLNC1014U	UNISEAL INC	1014 UHLHORN ST	EVANSVILLE	VANDERBURGH	IN	47710	YES	NO	NO	NO								325520						37.995281	-87.578339	929003341								KOCH ENTERPRISES	627465214	1312210489353	N982	ZINC COMPOUNDS	TRI	Pounds																		NA									N 																																																			NO				YES	 	
2012	NO	46952WLYMT816W3	WILEY METAL FABRICATING INC	816 W 34TH ST	MARION	GRANT	IN	46952	YES	NO	NO	NO								332322						40.529167	-85.670556	351536670										1312210531253	007440020	NICKEL	TRI	Pounds																		NA									N 																																																			NO	RWILEY@WILEYMETAL.COM			YES	 	
2012	NO	47150BLGRS895IN	BLUE GRASS CHEMICAL SPECIALTIE S LLC	895 INDUSTRIAL BLVD	NEW ALBANY	FLOYD	IN	47150	YES	NO	NO	NO								325998						38.336317	-85.825385	052499142								BLUE GRASS CHEMICAL SPECIALTIES LLC		1312210869463	N100	COPPER COMPOUNDS	TRI	Pounds																		W	H121	H077	H123	H101					N 	E4																																																		NO				YES	 	
2012	NO	47670PSNRGHWY64	GIBSON GENERATING STATION	1097 N 950 W	OWENSVILLE	GIBSON	IN	47665	YES	NO	NO	NO								221112						38.221234	-87.455156	006939540								DUKE ENERGY CORP	006996052	1312210574253	007664417	AMMONIA	TRI	Pounds																		A	H123	A07	A05	A03					N 	E2		W	H123								N 	E5																																						NO	REBECCA.SPARKS@DUKE-ENERGY.COM			NO	 	
2012	NO	46231HRTGN7901W	HERITAGE ENVIRONMENTAL SERVICES LLC	7901 W MORRIS ST	INDIANAPOLIS	MARION	IN	46231	YES	NO	NO	NO								562211						39.748	-86.2997	130814528										1312210802613	N106	CYANIDE COMPOUNDS	TRI	Pounds																		S	H073	H129	H121	H071	H101	H111			N 	E4																																																		NO	WINDE.HAMRICK@HERITAGE-ENVIRO.COM			NO	 	
2012	NO	47933NCRST400SO	NUCOR STEEL	4537 S NUCOR RD	CRAWFORDSVILLE	MONTGOMERY	IN	47933	YES	NO	NO	NO								331111						39.975	-86.827778	181157009								NUCOR CORP	003446796	1312210327161	N458	MERCURY COMPOUNDS	PBT	Pounds																		NA									N 																																																			NO	DAVE.SULC@NUCOR.COM			YES	 	
2012	NO	46143RVNNR2615E	CTP	2615 ENDRESS PL	GREENWOOD	JOHNSON	IN	46143	YES	NO	NO	NO								332996						39.5801	-86.090983	021382718								TUBE PROCESSING CORP	006037196	1312210681223	007440473	CHROMIUM	TRI	Pounds																		NA									N 																																																			NO	DSEYBERT@AEROFAB.COM			YES	 	
2012	NO	46567RNKRB207CH	NAUTIC GLOBAL GROUP INC DBA RINKER BOAT CO	300 W CHICAGO ST	SYRACUSE	KOSCIUSKO	IN	46567	YES	NO	NO	NO								336612						41.41958	-85.75189	005479753								SILVER POINT CAPITAL		1312209989033	N120	DIISOCYANATES	TRI	Pounds																		NA									N 																																																			NO	MAHONEN@NAUTICGLOBALGROUP.COM			NO	 	
2012	NO	47512SCPTRKNOXC	SCEPTER INC	6467 N SCEPTER RD	BICKNELL	KNOX	IN	47512	YES	NO	NO	NO								331314						38.771194	-87.328222	123140126								SCEPTER INC		1312210618714	007664393	HYDROGEN FLUORIDE	TRI	Pounds																		A	A06	A07							N 	E5																																																		NO				NO	 	
2012	NO	46542CTBNC611NR	CTB INC	611 N HIGBEE ST	MILFORD	KOSCIUSKO	IN	46542	YES	NO	NO	NO								333111						41.4153	-85.8499	078907946								BERKSHIRE HATHAWAY	958167967	1312209942388	007440020	NICKEL	TRI	Pounds																		NA									N 																																																			NO	PSPURGEON@CTBINC.COM			YES	 	
2012	NO	46580RRDNNOLDRO	R R DONNELLEY & SONS CO	2801 W OLD RD 30	WARSAW	KOSCIUSKO	IN	46580	YES	NO	NO	NO								323111						41.242301	-85.897171	005480710								R R DONNELLEY & SONS CO	005119573	1312210024598	N040	BARIUM COMPOUNDS	TRI	Pounds																		NA									N 																																																			NO	JOHN.PIEROG@RRD.COM			YES	 	
2012	NO	46992WBSHLOLDUS	ALERIS SPECIFICATION ALLOYS INC	4525 W OLD 24	WABASH	WABASH	IN	46992	YES	NO	NO	NO								331314						40.790833	-85.877089	963915108								ALERIS SPECIFICATION ALLOYS INC.	963598144	1312210108003	007429905	ALUMINUM (FUME OR DUST)	TRI	Pounds																		A	A06								N 	E4																																																		NO	TONY.WHITT@ALERIS.COM			YES	 	
2012	NO	46320DVSMP1275S	DAVIES IMPERIAL COATINGS INC	1275 STATE ST	HAMMOND	LAKE	IN	46320	YES	NO	NO	NO								325510						41.60945	-87.49749	047023197										1312210625000	000108883	TOLUENE	TRI	Pounds																		NA									N 																																																			NO	TIMES@DAVIESIMPERIAL.COM			NO	 	
2012	NO	46526DRYFR1110S	DAIRY FARMERS OF AMERICA INC GOSHEN	1110-24 S 9TH ST	GOSHEN	ELKHART	IN	46526	YES	NO	NO	NO								311514						41.571028	-85.826056	092044171								DAIRY FARMERS OF AMERICA INC	029855640	1312210080762	007697372	NITRIC ACID	TRI	Pounds																		W	H129	H121							N 	E4																																																		NO	BGEHLKE@DFAMILK.COM			NO	 	
2012	NO	46540MDDLB58481	MIDDLEBURY HARDWOOD PRODUCTS	101 JOAN DR	MIDDLEBURY	ELKHART	IN	46540	YES	NO	NO	NO								337110						41.647354	-85.706464									PATRICK INDUSTRIES		1312210327007	N230	CERTAIN GLYCOL ETHERS	TRI	Pounds																		NA									N 																																																			NO	MIKEWAGNER@MHPI.US			NO	 	
2012	NO	46515LJHNS2100S	L E JOHNSON PRODUCTS INC	2100 STERLING AVE	ELKHART	ELKHART	IN	46516	YES	NO	NO	NO								332510						41.666398	-85.951905	005470562										1312209932336	007440484	COBALT	TRI	Pounds																		NA									N 																																																			NO	SMJOHNSON@JOHNSONHARDWARE.COM			YES	 	
2012	NO	46514SPRRF1030A	SUPERIOR FIBERGLASS & RESINS	1030 ALL PRO DR	ELKHART	ELKHART	IN	465148815	YES	NO	NO	NO								424690						41.729649	-85.990509	039994975								SUPERIOR OIL CO INC	039994975	1312210224414	000108101	METHYL ISOBUTYL KETONE	TRI	Pounds																																																																														NO				NO	 	
2012	NO	47250CLFTY1335C	CLIFTY CREEK STATION	1335 CLIFTY HOLLOW RD	MADISON	JEFFERSON	IN	47250	YES	NO	NO	NO								221112						38.740722	-85.4115	007777915								OHIO VALLEY ELECTRIC CORP	007903925	1312210300291	N040	BARIUM COMPOUNDS	TRI	Pounds																		S	H040								N 	E6		W	H123	H124							N 	E3		A	A05	A07							N 	E4		A	A07	A05							N 	E4														NO				YES	 	
2012	NO	46312PLLTN4343K	TRADEBE TREATMENT & RECYCLING LLC	4343 KENNEDY AVE	EAST CHICAGO	LAKE	IN	46312	YES	NO	NO	NO								562211						41.63454	-87.461596	859385254								TRADEBE ENVIRONMENTAL SERVICES LLC	966208204	1312210672489	000079947	TETRABROMOBISPHENOL A	PBT	Pounds																		S	H111								N 	E6																																																		NO	TITA.LAGRIMAS@TRADEBE.COM			NO	 	
2012	NO	46227TPCCT3750S	CTP	3750 S SHELBY ST	INDIANAPOLIS	MARION	IN	46227	YES	NO	NO	NO								332999						39.711562	-86.139285	021382718								TUBE PROCESSING CORP	006037196	1312210681286	007439965	MANGANESE	TRI	Pounds																		NA									N 																																																			NO	DSEYBERT@AEROFAB.COM			YES	 	
2012	NO	47711PRNML2124L	LAND O'LAKES PURINA FEED LLC - EVANSVILLE	2124 LYNCH RD	EVANSVILLE	VANDERBURGH	IN	47711	YES	NO	NO	NO								311119						38.022264	-87.501403	806578337								LAND O LAKES INC	006253835	1312210637334	N450	MANGANESE COMPOUNDS	TRI	Pounds																																																																														NO	RKLENTZ@LANDOLAKES.COM			YES	 	
2012	NO	47385DRPRN411SP	DRAPER INC	411 S PEARL ST	SPICELAND	HENRY	IN	47385	NO	NO	NO	NO								337920	333315					39.834237	-85.438939	006418164										1312209941020	N120	DIISOCYANATES	TRI	Pounds																																																																														NO				NO	 	
2012	NO	46304BTHLHBURNS	ARCELORMITTAL BURNS HARBOR LLC	250 W  US HWY 12	BURNS HARBOR	PORTER	IN	463049745	YES	NO	NO	NO								331111						41.616444	-87.14725	131781473								ARCELORMITTAL USA INC	107970886	1312210559821	000115071	PROPYLENE	TRI	Pounds																		A	A07								N 	E4																																																		NO	MARYBETH.HOLDFORD@ARCELORMITTAL.COM			NO	 	
2012	NO	47331RCLMD1500W	RECLAIMED ENERGY DIV SUPERIOR OIL CO INC	1500 WESTERN AVE	CONNERSVILLE	FAYETTE	IN	47331	YES	NO	NO	NO								562211						39.653848	-85.138606	067116756								SUPERIOR OIL CO INC		1312210591804	N420	LEAD COMPOUNDS	PBT	Pounds																		NA									N 																																																			NO	KCOBB@SUPERIOROIL.COM			YES	 	
2012	NO	46206LLSNG2001S	ROLLS-ROYCE CORP- PLANTS 5 & 8	2355 & 2001 S TIBBS AVE	INDIANAPOLIS	MARION	IN	46241	YES	NO	NO	NO								336412						39.735	-86.208778	804754141								ROLLS-ROYCE PLC	210908687	1312210368700	007440484	COBALT	TRI	Pounds																		NA									N 																																																			NO	DEVIN.KENT@ROLLS-ROYCE.COM			YES	 	
2012	NO	46304MGNTC1111N	MAGNETICS INTERNATIONAL INC	1111 N STATE RD 149	BURNS HARBOR	PORTER	IN	463049429	YES	NO	NO	NO								325188						41.59737	-87.11998	604863241								MAGNETICS INTERNATIONAL INC.	604863241	1312210617270	007782505	CHLORINE	TRI	Pounds																		NA									N 																																																			NO	FMULLINGS@ISSI-AMROX-USA.COM			NO	 	
2012	NO	46394MCLC 2815I	BP PRODUCTS NORTH AMERICA WHITING	2815 INDIANAPOLIS BLVD	WHITING	LAKE	IN	46394	YES	NO	NO	NO								324110						41.663055	-87.479643	056970940		IND000810861	IND074375585	IN0000108				BP PRODUCTS NORTH AMERICA INC	039596507	1312210708057	007664939	SULFURIC ACID (1994 AND AFTER "ACID AEROSOLS" ONLY)	TRI	Pounds																		A	H129								N 	E6																																																		NO	BRAD.ETLIN@BP.COM			NO	 	
2012	NO	47710MRCNN2201W	SILGAN WHITE CAP CORP	2201 W MARYLAND ST	EVANSVILLE	VANDERBURGH	IN	47710	YES	NO	NO	NO								332115						37.985849	-87.597387	071877604								SILGAN HOLDINGS INC	614201895	1312209926967	001330207	XYLENE (MIXED ISOMERS)	TRI	Pounds																		A	H040								N 	E4																																																		NO	JOHN.BUGNITZ@SILGANCLOSURES.COM			NO	 	
2012	NO	46268RDVSN7911Z	AEARO TECHNOLOGIES LLC	7911 ZIONSVILLE RD	INDIANAPOLIS	MARION	IN	46268	NO	NO	NO	NO								326150						39.896248	-86.259809	615239571								3M CO	877113795	1312210842720	001163195	DECABROMODIPHENYL OXIDE	TRI	Pounds																																																																														NO	REHOFFMAN@MMM.COM			NO	 	
2012	NO	46992LMTCH305DI	ALERIS RECYCLING INC	305 DIMENSION AVE	WABASH	WABASH	IN	46992	YES	NO	NO	NO								331314						40.879871	-85.831009	963904649								ALERIS RECYCLING INC.	057896847	1312210108647	N495	NICKEL COMPOUNDS	TRI	Pounds																		A	A06								N 	E4																																																		NO	PHIL.BROWN@ALERIS.COM			YES	 	
2012	NO	4758WTLLCTP516	TELL CITY BOAT WORKS INC	926 S BOUNDARY SYREET	TELL CITY	PERRY	IN	47586	YES	NO	NO	NO								336611								626541924										1312210287722	007439965	MANGANESE	TRI	Pounds																		NA									N 																																																			NO	DAVID@FOERTSCHGROUP.COM			YES	 	
2012	NO	46725RLCRFUSBUS	REELCRAFT INDUSTRIES INC	2842 E BUSINESS HWY 30	COLUMBIA CITY	WHITLEY	IN	46725	YES	NO	NO	NO								332999						41.138861	-85.437528	054651674										1312210108522	007440473	CHROMIUM	TRI	Pounds																		NA									N 																																																			NO	ED@REELCRAFT.COM			YES	 	
2012	NO	46901NDNTR3660N	INDIANA TRANSMISSION PLANT	3660 N U.S. HWY 31	KOKOMO	HOWARD	IN	46901	YES	NO	NO	NO								336350						40.516701	-86.120628	179573654								CHRYSLER GROUP LLC	830966904	1312210396077	007439921	LEAD	TRI	Pounds																		A	A06								N 	E4		W	H129	H123	H129	H077	H123	H121	H075	H123	N 	E5																																						NO	JJK21@CHRYSLER.COM			YES	 	
2012	NO	47346NGNPR551SO	AUTOCAR LLC	551 S WASHINGTON ST	HAGERSTOWN	WAYNE	IN	47346	YES	NO	NO	NO								336120						39.904944	-85.160639	103386350								GVW HOLDINGS LLC		1312210261184	000107211	ETHYLENE GLYCOL	TRI	Pounds																		NA									N 																																																			NO	WSWARTZ@AUTOCARTRUCK.COM			NO	 	
2012	NO	46312PLLTN4343K	TRADEBE TREATMENT & RECYCLING LLC	4343 KENNEDY AVE	EAST CHICAGO	LAKE	IN	46312	YES	NO	NO	NO								562211						41.63454	-87.461596	859385254								TRADEBE ENVIRONMENTAL SERVICES LLC	966208204	1312210672059	007440473	CHROMIUM	TRI	Pounds																		S	H111								N 	E6																																																		NO	TITA.LAGRIMAS@TRADEBE.COM			YES	 	
2012	NO	47446LHGHP121NO	LEHIGH CEMENT CO LLC	180 N MERIDIAN RD	MITCHELL	LAWRENCE	IN	47446	YES	NO	NO	NO								327310						38.739074	-86.45703	003136355								LEHIGH HANSON		1312210442568	007440473	CHROMIUM	TRI	Pounds																																																																														NO	SQUAAS@LEHIGHCEMENT.COM			YES	 	
2012	NO	47711RDSPT96610	RED SPOT PAINT & VARNISH CO INC	1016 E COLUMBIA ST	EVANSVILLE	VANDERBURGH	IN	47711	YES	NO	NO	NO								325510						37.984931	-87.547674	006369987								RED SPOT PAINT & VARNISH CO INC	006369987	1312210585168	000071363	N-BUTYL ALCOHOL	TRI	Pounds																		NA									N 																																																			NO	RAHOSTETTLER@REDSPOT.COM			NO	 	
2012	NO	46516LPHSY5120B	APLHA SYSTEMS INC	5120 BECK DR	ELKHART	ELKHART	IN	46516	YES	NO	NO	NO								325520						41.700279	-85.893059											1312210244289	N120	DIISOCYANATES	TRI	Pounds																																																																														NO	DYOUNG@ALPHALLC.US			NO	 	
2012	NO	46809CHMRX3401M	LABECA LLC  (MCARTHUR SITE)	3401 MCARTHUR DR	FORT WAYNE	ALLEN	IN	46809	YES	NO	NO	NO								331491	331222					41.011249	-85.179657			IND058961368						LABECA LLC		1312210359853	007440473	CHROMIUM	TRI	Pounds																		W	H121	H123							N 	E3		W	H121								N 	E6																																						NO	KAY_HAGGARD@FWMETALS.COM			YES	 	
2012	NO	46304BTHLHBURNS	ARCELORMITTAL BURNS HARBOR LLC	250 W  US HWY 12	BURNS HARBOR	PORTER	IN	463049745	YES	NO	NO	NO								331111						41.616444	-87.14725	131781473								ARCELORMITTAL USA INC	107970886	1312210559528	000107211	ETHYLENE GLYCOL	TRI	Pounds																		NA									N 																																																			NO	MARYBETH.HOLDFORD@ARCELORMITTAL.COM			NO	 	
2012	NO	47331RCLMD1500W	RECLAIMED ENERGY DIV SUPERIOR OIL CO INC	1500 WESTERN AVE	CONNERSVILLE	FAYETTE	IN	47331	YES	NO	NO	NO								562211						39.653848	-85.138606	067116756								SUPERIOR OIL CO INC		1312210591842	000110543	N-HEXANE	TRI	Pounds																		A	H040								N 	E4																																																		NO	KCOBB@SUPERIOROIL.COM			NO	 	
2012	NO	46203FRSTN3525S	FIRESTONE BUILDING PRODUCTS	3525 S ARLINGTON AVE	INDIANAPOLIS	MARION	IN	46203	YES	NO	NO	NO								324122						39.716229	-86.063403	809622447								BRIDGESTONE AMERICAS HOLDING INC	111482506	1312210688519	000191242	BENZO(G,H,I)PERYLENE	PBT	Pounds																		NA									N 																																																			NO	BLACKLANCE@FIRESTONEBP.COM			NO	 	
2012	NO	47933WLMRT81CRD	WAL-MART OPTICAL LAB 9065	801 COR-DA BLVD	CRAWFORDSVILLE	MONTGOMERY	IN	47933	YES	NO	NO	NO								339115						40.0475	-86.869167	051957769								WAL-MART STORES INC	051957769	1312210072930	007439921	LEAD	TRI	Pounds																		W	H123	H124							N 	E5																																																		NO	AMANDA.MCCLELLAN@WAL-MART.COM			YES	 	
2012	NO	47021LNPNG945SM	SABIC INNOVATIVE PLASTICS	945 S MARR RD	COLUMBUS	BARTHOLOMEW	IN	47201	YES	NO	NO	NO								325991						39.186684	-85.888851			IND181138066		INR23002				SABIC INNOVATIVE PLASTICS US LLC		1312210773192	N982	ZINC COMPOUNDS	TRI	Pounds																		NA									N 																																																			NO	STEVE.RYAN@SABIC-IP.COM			YES	 	
2012	NO	46514MRRYD1536G	MOR/RYDE INTERNATIONAL INC	1536 GRANT ST	ELKHART	ELKHART	IN	46514	YES	NO	NO	NO								332999						41.701	-85.95464	016272494								MOR/RYDE INTERNATIONAL INC.	016272494	1312210860983	N495	NICKEL COMPOUNDS	TRI	Pounds																		W	H121									E6																																																		NO	DALE.BENNETT@MORRYDE.COM	RR5		YES	 	
2012	NO	46320STFFR2000M	RHODIA INC	2000 MICHIGAN ST	HAMMOND	LAKE	IN	46320	YES	NO	NO	NO								325188						41.60994	-87.480026	002959810								SOLVAY AMERICA INC	966348971	1312210602254	000100425	STYRENE	TRI	Pounds																		NA									N 																																																			NO	GREG.YATES@SOLVAY.COM			NO	 	
2012	NO	46041CRSNSSTRT2	DSM COATINGS	3110 W ST RD 28	FRANKFORT	CLINTON	IN	460411877	YES	NO	NO	NO								325211						40.279722	-86.562778	112357340								DSM RESINS BUSINESS GROUP	074726402	1312210330597	000100425	STYRENE	TRI	Pounds																		A	H040								N 	E5		W	H083								N 	E5																																						NO	KEVIN.GOODNIGHT@DSM.COM			NO	 	
2012	NO	47250MDSNP94E40	MADISON PRECISION PRODUCTS INC	94 E 400 N	MADISON	JEFFERSON	IN	47250	YES	NO	NO	NO								331521						38.795578	-85.390828	196651954										1312210822591	007440020	NICKEL	TRI	Pounds																		A	A06								N 	E3		W	H129	H124	H077	H121	H123	H101			N 	E5																																						NO	LOUISALEXANDER@MADISONPRECISION.COM			YES	 	
2012	NO	46904KKMCS1001E	KOKOMO CASTING PLANT	1001 E BLVD	KOKOMO	HOWARD	IN	46904	NO	YES	NO	NO								331521						40.46004	-86.11399	868164773								CHRYSLER GROUP LLC	830966904	1312210447708	007440508	COPPER	TRI	Pounds																		A	A06	H121	H075						N 	E6																																																		NO				YES	 	
2012	NO	46562SPXCR5ARNO	CONTECH CASTINGS LLC	5 ARNOLT DR	PIERCETON	KOSCIUSKO	IN	46562	YES	NO	NO	NO								331521						41.206123	-85.719643	176218899								REVSTONE INDUSTRIES LLC	831360933	1312210092159	007439921	LEAD	TRI	Pounds																		NA									N 																																																			NO	RANDY.KINSEY@CONTECHCASTINGS.COM			YES	 	
2012	NO	47960BVPKN501NS	BALL METAL BEVERAGE CONTAINER CORP	501 N SIXTH ST	MONTICELLO	WHITE	IN	47960	YES	NO	NO	NO								332431						40.750876	-86.775218	188910269								BALL CORP	006419147	1312209906357	007439921	LEAD	TRI	Pounds																		S	H101								N 	E6		W	H124	H071	H121	H129	H123	H101			N 	E6																																						NO	SMCCARTY@BALL.COM			YES	 	
2012	NO	47229CRRWR1002I	CERRO WIRE & CABLE CO INC	1002 INDUSTRIAL WAY	CROTHERSVILLE	JACKSON	IN	47229	YES	NO	NO	NO								331422						38.791667	-85.85	146710702								BERKSHIRE HATHAWAY	146710702	1312209926587	N010	ANTIMONY COMPOUNDS	TRI	Pounds																		NA									N 																																																			NO	PCOLWELL@CERROWIRE.COM			YES	 	
2012	NO	4713WCLRCR1RIVE	CLARCOR AIR FILTRATION PRODUCTS INC	100 RIVER RIDGE CIR	JEFFERSONVILLE	CLARK	IN	47130	YES	NO	NO	NO								333411						38.360671	-85.699994	006512669								CLARCOR INC		1312210487157	007439965	MANGANESE	TRI	Pounds																		NA									N 																																																			NO				YES	 	
2012	NO	46383WNSCR2252I	UGN INC	2252 INDUSTRIAL DR	VALPARAISO	PORTER	IN	46383	YES	NO	NO	NO								336399						41.445962	-87.017116	173425760								UGN INC		1312210585271	N120	DIISOCYANATES	TRI	Pounds																																																																														NO	DUANE.RUSHING@UGNAUTO.COM			NO	 	
2012	NO	47804DGTLD1800N	SONY DADC	1800 N FRUITRIDGE AVE	TERRE HAUTE	VIGO	IN	47804	YES	NO	NO	NO								334612						39.500936	-87.360251	103631131		IND103631131						SONY CORP OF AMERICA	602138570	1312210628828	007440020	NICKEL	TRI	Pounds																		W	H071								N 	E5																																																		NO	TONY.NEW@SONYDADC.COM			YES	 	
2012	NO	46360NRTHRWABAS	NIPSCO MICHIGAN CITY GENERATING STATION	101 WABASH	MICHIGAN CITY	LAPORTE	IN	46360	YES	NO	NO	NO								221112						41.7203	-86.9097	006937585								NISOURCE INC	185654076	1312210131278	007664393	HYDROGEN FLUORIDE	TRI	Pounds																		A	A07								N 	E5																																																		NO	NMEYER@NISOURCE.COM			NO	 	
2012	NO	46996PLYMT700W1	PLYMOUTH TUBE CO	572 W STATE RD 14	WINAMAC	PULASKI	IN	46996	YES	NO	NO	NO								331210						41.055472	-86.614917	049813314								PLYMOUTH TUBE CO	049813314	1312210231825	007440473	CHROMIUM	TRI	Pounds																		NA									N 																																																			NO	EWEBER@PLYMOUTH.COM			YES	 	
2012	NO	47987MSTRG1200E	MASTER GUARD CORP	1200 E 8TH ST	VEEDERSBURG	FOUNTAIN	IN	47987	YES	NO	NO	NO								336399						40.117151	-87.244974	556464444								FLEX-N-GATE CORP	011298072	1312210399325	N420	LEAD COMPOUNDS	PBT	Pounds																		NA									N 																																																			NO	STEPHEN.ROOSZ@FLEX-N-GATE.COM			YES	 	
2012	NO	46796NRYLGUS24E	BF GOODRICH TIRE MANUFACTURING	18906 US 24 E	WOODBURN	ALLEN	IN	46797	YES	NO	NO	NO								326211						41.135806	-84.904667	005421987								MICHELIN N.A. INC	044691848	1312210433520	N096	COBALT COMPOUNDS	TRI	Pounds																		NA									N 																																																			NO	KEVIN.ROGERS@US.MICHELIN.COM			YES	 	
2012	NO	46706CPRND725W1	COOPER STANDARD AUTOMOTIVE INC	725 W 11TH ST	AUBURN	DEKALB	IN	46706	YES	NO	NO	NO								326291						41.364581	-85.065807	005037601								COOPER-STANDARD AUTOMOTIVE INC	004183273	1312210172805	N982	ZINC COMPOUNDS	TRI	Pounds																		NA									N 																																																			NO	RMEEKS@COOPERSTANDARD.COM			YES	 	
2012	NO	46783GMCTR12200	GM TRUCK GROUP FORT WAYNE ASSEMBLY	12200 LAFAYETTE CENTER RD	ROANOKE	ALLEN	IN	46783	YES	NO	NO	NO								336112						40.964311	-85.302752	115304594								GENERAL MOTORS LLC	831247536	1312210281527	000107211	ETHYLENE GLYCOL	TRI	Pounds																		W	H121	H123							N 	E6																																																		NO	SHARON.BASEL@GM.COM			NO	 	
2012	NO	47933CRWNC400NW	CROWN BEVERAGE PACKAGING	400 N WALNUT ST	CRAWFORDSVILLE	MONTGOMERY	IN	47933	YES	NO	NO	NO								332431						40.045204	-86.902844	002282341								CROWN CORK & SEAL CO (USA) INC	002282341	1312210022529	000108101	METHYL ISOBUTYL KETONE	TRI	Pounds																		A	H040								N 	E5																																																		NO	EDWIN.UMSTEAD@CROWNCORK.COM			NO	 	
2012	NO	46304WRTHN100WO	WORTHINGTON STEEL CO	100 WORTHINGTON DR	PORTER	PORTER	IN	46304	YES	NO	NO	NO								332999						41.607288	-87.108002	059428144								WORTHINGTON INDUSTRIES INC	004312401	1312210095749	007439965	MANGANESE	TRI	Pounds																		NA									N 																																																			NO	CATHY.LYTTLE@WORTHINGTONINDUSTRIES.COM			YES	 	
2012	NO	46515FRWND701CO	THOR MOTOR COACH INC	701 COUNTY RD 15	ELKHART	ELKHART	IN	46516	YES	NO	NO	NO								336213						41.686939	-85.907501									THOR INDUSTRIES INC		1312210143741	007439921	LEAD	TRI	Pounds																		NA									N 																																																			NO	BKURTZ@TMCRV.COM			YES	 	
2012	NO	46214PTCMP7601R	REXNORD INDUSTRIES LLC	7601 ROCKVILLE RD	INDIANAPOLIS	MARION	IN	46214	YES	NO	NO	NO								332991						39.763611	-86.294444	054532635								REXNORD INDUSTRIES LLC	192130763	1312210230645	007440020	NICKEL	TRI	Pounds																		W	H124	H121	H077	H123	H101				N 	E3																																																		NO	DON.KIESLING@REXNORD.COM			YES	 	
2012	NO	46327MRTHN426CL	MARATHON PETROLEUM CO - HAMMOND IN TERMINAL	4206 COLUMBIA AVE	HAMMOND	LAKE	IN	46327	YES	NO	NO	NO								424710						41.637169	-87.499842	175805100								MARATHON PETROLEUM CORP	968393996	1312210402982	001330207	XYLENE (MIXED ISOMERS)	TRI	Pounds																		A	A01								N 	E4		W	H083								N 	E3																																						NO	WGMOORE@MARATHONPETROLEUM.COM			NO	 	
2012	NO	46131KYBND2525N	KYB AMERICAS CORP	2625 N MORTON	FRANKLIN	JOHNSON	IN	46131	YES	NO	NO	NO								336330						39.503266	-86.06893	183688837										1312210527560	N982	ZINC COMPOUNDS	TRI	Pounds																		W	H077	H101	H123						N 	E4																																																		NO	CHARLES.MANZIONE@KMNA-KYB.COM			YES	 	
2012	NO	47567FRNKR6825N	FRANK E RATTS GENERATING STAT ION	6825 N BLACKBURN RD	PETERSBURG	PIKE	IN	47567	YES	NO	NO	NO								221112						38.519307	-87.266962									HOOSIER ENERGY REC INC		1312210301141	007664939	SULFURIC ACID (1994 AND AFTER "ACID AEROSOLS" ONLY)	TRI	Pounds																		A	A05								N 	E6																																																		NO	MREILLY@HEPN.COM			NO	 	
2012	NO	47586WPCFN9856S	WAUPACA FOUNDRY - PLANT 5	9856 STATE HWY 66	TELL CITY	PERRY	IN	47586	YES	NO	NO	NO								331511						37.986835	-86.769568	006133441								WAUPACA FOUNDRY HOLDINGS INC.	078524489	1312210652778	N040	BARIUM COMPOUNDS	TRI	Pounds																		S	H129								N 	E6		A	H111	A06							N 	E4																																						NO	BRYANT.ESCH@WAUPACAFOUNDRY.COM			YES	 	
2012	NO	46312SFTYK601RI	SAFETY-KLEEN SYSTEMS INC	601 RILEY RD	EAST CHICAGO	LAKE	IN	463121638	YES	NO	NO	NO								324191						41.648417	-87.482414	051060408								SAFETY-KLEEN INC	051060408	1312210682629	000127184	TETRACHLOROETHYLENE	TRI	Pounds																		W	H124	H129	H081	H123	H073				N 	E5																																																		NO	DZAWODNI@SAFETY-KLEEN.COM			NO	 	
2012	NO	46312SFTYK601RI	SAFETY-KLEEN SYSTEMS INC	601 RILEY RD	EAST CHICAGO	LAKE	IN	463121638	YES	NO	NO	NO								324191						41.648417	-87.482414	051060408								SAFETY-KLEEN INC	051060408	1312210682643	N982	ZINC COMPOUNDS	TRI	Pounds																		NA									N 																																																			NO	DZAWODNI@SAFETY-KLEEN.COM			YES	 	
2012	NO	46534KNXFR266EA	KNOX FERTILIZER CO INC	2660 E 100 S	KNOX	STARKE	IN	46534	YES	NO	NO	NO								325314						41.31734	-86.64634	005224589										1312210288926	000094757	2,4-D	TRI	Pounds																																																																														NO	DKSELL@KNOXFERT.COM			NO	 	
2012	NO	46534KNXFR266EA	KNOX FERTILIZER CO INC	2660 E 100 S	KNOX	STARKE	IN	46534	YES	NO	NO	NO								325314						41.31734	-86.64634	005224589										1312210288991	019666309	OXYDIAZON	TRI	Pounds																																																																														NO	DKSELL@KNOXFERT.COM			NO	 	
2012	NO	46402SSGRYONENO	USS GARY WORKS	1 N BROADWAY	GARY	LAKE	IN	46402	YES	NO	NO	NO								331111						41.616667	-87.3125	005444062								US STEEL CORP	029990699	1312210465338	000554132	LITHIUM CARBONATE	TRI	Pounds																		NA									N 																																																			NO	CABOONE@USS.COM			YES	 	
2012	NO	46360SLLRC3700E	SULLAIR LLC	3700 E MICHIGAN BLVD	MICHIGAN CITY	LAPORTE	IN	46360	YES	NO	NO	NO								333912						41.702818	-86.845584	005545835								ACCUDYNE INDUSTRIES LLC	078716476	1312210520274	007439965	MANGANESE	TRI	Pounds																		NA									N 																																																			NO	JEANIE.DOWNS@SULLAIR.COM			YES	 	
2012	NO	46580THDLTCORNE	DALTON CORP WARSAW MANUFACTURING FACILITY	1900 E JEFFERSON ST	WARSAW	KOSCIUSKO	IN	46580	YES	NO	NO	NO								331511						41.23575	-85.832528	005146022								DALTON CORP		1312210669812	N120	DIISOCYANATES	TRI	Pounds																		NA									N 																																																			NO				NO	 	
2012	NO	46360THNDR402RO	FEDERAL MOGUL CORP	402 ROYAL RD	MICHIGAN CITY	LAPORTE	IN	46360	YES	NO	NO	NO								336399						41.713806	-86.845944	808387013								FEDERAL MOGUL CORP	006557045	1312210113395	007440020	NICKEL	TRI	Pounds																		W	H071	H077	H123						N 	E4																																																		NO	MARK.DRANCHAK@FEDERALMOGUL.COM			YES	 	
2012	NO	46312SSSTC101E1	USS EAST CHICAGO TIN	101 E 129TH ST	EAST CHICAGO	LAKE	IN	46312	YES	NO	NO	NO								331112						41.668042	-87.472741	143052418								US STEEL CORP	029990699	1312210464881	N420	LEAD COMPOUNDS	PBT	Pounds																		NA									N 																																																			NO	CABOONE@USS.COM			YES	 	
2012	NO	46563FRRCR1301N	FERRO CORP	1301 N FLORA ST	PLYMOUTH	MARSHALL	IN	46563	YES	NO	NO	NO								325991						41.350621	-86.321262	052867595								FERRO CORP	004161477	1312210437240	N420	LEAD COMPOUNDS	PBT	Pounds																		NA									N 																																																			NO	CARPENTERD@FERRO.COM			YES	 	
2012	NO	46516GLBLG28967	GLOBAL COMPOSITES INC PLANT 1 & 2	28967 OLD  US 33 W	ELKHART	ELKHART	IN	465161698	YES	NO	NO	NO								326199						41.69194	-86.02249	102357316								GLOBAL COMPOSITES INC	102357316	1312210035616	000100425	STYRENE	TRI	Pounds																		NA									N 																																																			NO	TSCHENK@GLOBALCOMPOSITIESINC.COM			NO	 	
2012	NO	46312NLNDS3210W	ARCELORMITTAL USA LLC	3210 WATLING ST MAIL CODE (8-130)	EAST CHICAGO	LAKE	IN	46312	YES	NO	NO	NO								331111						41.67953	-87.41687			IND005159199		IN0000094				ARCELORMITTAL USA LLC	107970886	1312210703462	000191242	BENZO(G,H,I)PERYLENE	PBT	Pounds																		NA									N 																																																			NO	MARYBETH.HOLDFORD@ARCELORMITTAL.COM			NO	 	
2012	NO	47331NDLXN512NW	SAPA EXTRUDER INC - CONNERSVILLE OPERATION	5120 N WESTERN AVE	CONNERSVILLE	FAYETTE	IN	47331	YES	NO	NO	NO								331316						39.693611	-85.138056	046105276								SAPA INC	831519652	1312210078008	007439921	LEAD	TRI	Pounds																		NA									N 																																																			NO	CHRISTOPHER.RAMSEY@SAPAGROUP.COM			YES	 	
2012	NO	46350RCTCLBOYDB	FAS-PAK INC	401 DARLINGTON ST	LA PORTE	LAPORTE	IN	46350	YES	NO	NO	NO								325612	324191	561910				41.624561	-86.696975	807542691		IND098650484						FAS-PAK INC	807542691	1312210355448	000872504	N-METHYL-2-PYRROLIDONE	TRI	Pounds																																																																														NO	LINDA.HAGEN@FAS-PAK.COM			NO	 	
2012	NO	46131CSTNG1450M	CASTING TECHNOLOGIES CO	1450 COMMERCE PKWY	FRANKLIN	JOHNSON	IN	461316963	YES	NO	NO	NO								336330						39.4948	-86.0515	627910255								MONOMOY CAPITAL PARTNERS LLC		1312210717144	007440508	COPPER	TRI	Pounds																		NA									N 																																																			NO	TIDLEWINE@C-T-C.COM			YES	 	
2012	NO	47546KMBLLW12TH	NOF - JASPER 11TH AVE	340 E 11TH ST	JASPER	DUBOIS	IN	47549	YES	NO	NO	NO								337211						38.399553	-86.921665	080960727								KIMBALL INTERNATIONAL INC	006365803	1312209921461	N120	DIISOCYANATES	TRI	Pounds																																																																														NO	BRANDEE.MCKIM@KIMBALL.COM			NO	 	
2012	NO	47842LLLLYSTATE	CLINTON LABORATORIES	10500 S STATE RD 63	CLINTON	VERMILLION	IN	47842	YES	NO	NO	NO								325411	325320					39.7175	-87.395556	039138631								ELI LILLY & CO	006421325	1312210145761	007664939	SULFURIC ACID (1994 AND AFTER "ACID AEROSOLS" ONLY)	TRI	Pounds																		NA									N 																																																			NO	SAMUESLON_DOUGLAS_A@ELANCO.COM			NO	 	
2012	NO	47933NCRST400SO	NUCOR STEEL	4537 S NUCOR RD	CRAWFORDSVILLE	MONTGOMERY	IN	47933	YES	NO	NO	NO								331111						39.975	-86.827778	181157009								NUCOR CORP	003446796	1312210327110	N100	COPPER COMPOUNDS	TRI	Pounds																		NA									N 																																																			NO	DAVE.SULC@NUCOR.COM			YES	 	
2012	NO	47630LMNMCHIGHW	ALCOA INC - WARRICK OPERATIONS	HWYS 66 & 61	NEWBURGH	WARRICK	IN	476290010	YES	NO	NO	NO								331312						37.921543	-87.329647	126536163	006366819							ALCOA INC	001339472	1312210577641	000191242	BENZO(G,H,I)PERYLENE	PBT	Pounds																		A	A04	A06							N 	E3		A	A03	A05							N 	E3		A	A04								N 	E5																										NO	JIM.BECK@ALCOA.COM			NO	 	
2012	NO	47630LMNMCHIGHW	ALCOA INC - WARRICK OPERATIONS	HWYS 66 & 61	NEWBURGH	WARRICK	IN	476290010	YES	NO	NO	NO								331312						37.921543	-87.329647	126536163	006366819							ALCOA INC	001339472	1312210577781	N106	CYANIDE COMPOUNDS	TRI	Pounds																		A	A06								N 	E3																																																		NO	JIM.BECK@ALCOA.COM			NO	 	
2012	NO	46565LKPRK75MID	LAKEPARK INDUSTRIES OF INDIANA INC	750 MIDDLEBURY ST	SHIPSHEWANA	LAGRANGE	IN	46565	YES	NO	NO	NO								336370						41.676424	-85.571671	000299883								MIDWAY PRODUCTS GROUP	874232465	1312210012338	007439965	MANGANESE	TRI	Pounds																		A	A07								N 	E4																																																		NO	RENEE.GUAY@MIDWAYPRODUCTS.COM			YES	 	
2012	NO	46514SPRRF1030A	SUPERIOR FIBERGLASS & RESINS	1030 ALL PRO DR	ELKHART	ELKHART	IN	465148815	YES	NO	NO	NO								424690						41.729649	-85.990509	039994975								SUPERIOR OIL CO INC	039994975	1312210224438	000108883	TOLUENE	TRI	Pounds																																																																														NO				NO	 	
2012	NO	4635WPRRPC7277S	PRAIRIE PACKAGING LLC	7277 S 2ND RD PLANT #3	KINGSBURY	LAPORTE	IN	46350	YES	NO	NO	NO								424690						41.516322	-86.666121									ACID PRODUCTS CO INC	148314503	1312210472635	007664393	HYDROGEN FLUORIDE	TRI	Pounds																																																																														NO	RAY.HORTON@ACIDPRODUCTS.NET			NO	 	
2012	NO	46320KLDVS3000S	DOVER CHEMICAL HAMMOND WORKS	3000 SHEFFIELD AVE	HAMMOND	LAKE	IN	46327	YES	NO	NO	NO								325199						41.6594	-87.5138	131221660								DOVER CORP	004210563	1312210493110	000108316	MALEIC ANHYDRIDE	TRI	Pounds																		NA									N 																																																			NO	MIKE.PRISING@DOVERCHEM.COM			NO	 	
2012	NO	46947CPLYCSTATE	ESSROC CEMENT CORP	STATE RD 25 S 3084 W CR. 225 S	LOGANSPORT	CASS	IN	46947	YES	NO	NO	NO								327310						40.734521	-86.433441	005081542								ESSROC CEMENT CORP	002389625	1312210678569	000534521	4,6-DINITRO-O-CRESOL	TRI	Pounds																		NA									N 																																																			NO	COREY.CONN@ESSROC.COM			NO	 	
2012	NO	46222RFBDV604EL	AEROFAB	604 E LEGRANDE AVE	INDIANAPOLIS	MARION	IN	46203	YES	NO	NO	NO								336411						39.739158	-86.148444	006037196								TUBE PROCESSING CORP	006037196	1312210681197	007440473	CHROMIUM	TRI	Pounds																		NA									N 																																																			NO	DSEYBERT@AEROFAB.COM			YES	 	
2012	NO	46227TPCCT3750S	CTP	3750 S SHELBY ST	INDIANAPOLIS	MARION	IN	46227	YES	NO	NO	NO								332999						39.711562	-86.139285	021382718								TUBE PROCESSING CORP	006037196	1312210681262	007440473	CHROMIUM	TRI	Pounds																		NA									N 																																																			NO	DSEYBERT@AEROFAB.COM			YES	 	
2012	NO	46074CNTRY17710	COUNTRYMARK REFINING & LOGISTICS LLC	17710 MULE BARN RD	WESTFIELD	HAMILTON	IN	46074	YES	NO	NO	NO								424710						40.041389	-86.22	075981365								COUNTRYMARK	007902869	1312210065658	000100414	ETHYLBENZENE	TRI	Pounds																		A	A04								N 	E3																																																		NO	JIM.PANKEY@COUNTRYMARK.COM			NO	 	
2012	NO	46205THBRL2920D	BRULIN CORP	2920 DR ANDREW J BROWN AVE	INDIANAPOLIS	MARION	IN	46205	YES	NO	NO	NO								325612						39.809076	-86.135587	006414692										1312210409544	N982	ZINC COMPOUNDS	TRI	Pounds																		NA									N 																																																			NO	GBRODNICKI@BRULIN.COM			YES	 	
2012	NO	46508WRSWB545WW	WARSAW BLACK OXIDE INC	310 S WALNUT	BURKET	KOSCIUSKO	IN	465080038	NO	NO	NO	NO								332813						41.154722	-85.968333	005157144										1312210829406	N982	ZINC COMPOUNDS	TRI	Pounds																																																																														NO				YES	 	
2012	NO	46801PHLPS4300N	REA MAGNET WIRE CO	4300 NEW HAVEN AVE	FORT WAYNE	ALLEN	IN	46803	YES	NO	NO	NO								331422	331319	335929				41.068901	-85.083643	004320032								REA MAGNET WIRE CO INC	004320032	1312210321636	001330207	XYLENE (MIXED ISOMERS)	TRI	Pounds																		A	H040								N 	E4																																																		NO	NAYALA@REAWIRE.COM			NO	 	
2012	NO	46304BTHLHBURNS	ARCELORMITTAL BURNS HARBOR LLC	250 W  US HWY 12	BURNS HARBOR	PORTER	IN	463049745	YES	NO	NO	NO								331111						41.616444	-87.14725	131781473								ARCELORMITTAL USA INC	107970886	1312210559682	N458	MERCURY COMPOUNDS	PBT	Pounds																		W	H129	H077	H123						N 	E4		A	A07								N 	E4																																						NO	MARYBETH.HOLDFORD@ARCELORMITTAL.COM			YES	 	
2012	NO	47331RCLMD1500W	RECLAIMED ENERGY DIV SUPERIOR OIL CO INC	1500 WESTERN AVE	CONNERSVILLE	FAYETTE	IN	47331	YES	NO	NO	NO								562211						39.653848	-85.138606	067116756								SUPERIOR OIL CO INC		1312210591766	000095636	1,2,4-TRIMETHYLBENZENE	TRI	Pounds																		A	H040								N 	E4																																																		NO	KCOBB@SUPERIOROIL.COM			NO	 	
2012	NO	46107JNSCH600BE	JCI JONES CHEMICALS INC	600 BETHEL AVE	BEECH GROVE	MARION	IN	46107	YES	NO	NO	NO								424690						39.7283	-86.0881	002216091								JCI JONES CHEMICALS INC		1312209978941	007782505	CHLORINE	TRI	Pounds																		NA									N 																																																			NO	VROBERTS@JCICHEM.COM			NO	 	
2012	NO	46802BSYSC2000T	BAE SYSTEMS CONTROLS	2000 TAYLOR ST	FORT WAYNE	ALLEN	IN	46802	YES	NO	NO	NO								334519						41.0681	-85.1623	938276292								BAE SYSTEMS INC	786429894	1312210559997	007439921	LEAD	TRI	Pounds																		NA									N 																																																			NO	RENEE.ESHCOFF@BAESYSTEMS.COM			YES	 	
2012	NO	47933LTHNH1615E	ACUITY BRANDS LIGHTING	1615 E ELMORE ST	CRAWFORDSVILLE	MONTGOMERY	IN	47933	YES	NO	NO	NO								332813						40.032205	-86.881293	783262520								ACUITY BRANDS LIGHTING	056201585	1312209935016	007440508	COPPER	TRI	Pounds																																																																														NO				YES	 	
2012	NO	46234MRTHN1833E	MARATHON PETROLEUM CO - CLERMONT IN TERMINAL	10833 E COUNTY RD 300 N	CLERMONT	HENDRICKS	IN	46234	YES	NO	NO	NO								424710						39.807842	-86.329855	050162804								MARATHON PETROLEUM CORP	968393996	1312210403794	N420	LEAD COMPOUNDS	PBT	Pounds																		NA									N 																																																			NO	WGMOORE@MARATHONPETROLEUM.COM			YES	 	
2012	NO	4614WJCKSN32EAS	JACKSON OIL & SOLVENTS	320 E S ST	GREENFIELD	HANCOCK	IN	46140	YES	NO	NO	NO								424710						39.78454	-85.766122									JACKSON OIL & SOLVENTS		1312210069050	000110543	N-HEXANE	TRI	Pounds																																																																														NO	RON.WILLIS@JACKSONSOLVENTS.COM			NO	 	
2012	NO	46320STFFR2000M	RHODIA INC	2000 MICHIGAN ST	HAMMOND	LAKE	IN	46320	YES	NO	NO	NO								325188						41.60994	-87.480026	002959810								SOLVAY AMERICA INC	966348971	1312210602114	000149304	2-MERCAPTOBENZOTHIAZOLE	TRI	Pounds																		NA									N 																																																			NO	GREG.YATES@SOLVAY.COM			NO	 	
2012	NO	46526LPPRT16840	LIPPERT COMPONENTS INC PLANTS 19 26 30	3152 SKYVIEW RD	GOSHEN	ELKHART	IN	46526	YES	NO	NO	NO								332312						41.54611	-85.78555	043222470								DREW INDUSTRIES INC	007871643	1312210404238	007439921	LEAD	TRI	Pounds																		NA									N 																																																			NO	ECLICK@LCI1.COM			YES	 	
2012	NO	46214CBLCP7950R	GENERAL CABLE INDUSTRIES INC	7950 ROCKVILLE RD	INDIANAPOLIS	MARION	IN	46214	YES	NO	NO	NO								325991						39.764344	-86.299741	793463209								GENERAL CABLE CORP	793463209	1312210321853	N982	ZINC COMPOUNDS	TRI	Pounds																		NA									N 																																																			NO	BWRIGHT@GENERALCABLE.COM			YES	 	
2012	NO	46544LTVMS13200	AM GENERAL LLC	13200 MCKINLEY HWY	MISHAWAKA	ST JOSEPH	IN	46545	NO	YES	NO	NO								336211						41.680898	-86.122584	054681739		IND980897524						AM GENERAL HOLDINGS LLC	189950368	1312210414645	N120	DIISOCYANATES	TRI	Pounds																		NA									N 																																																			NO	KEN.ZMUDZINSKI@AMGENERAL.COM			NO	 	
2012	NO	47150SMTCN520PA	SAMTEC INC	520 PARK E BLVD	NEW ALBANY	FLOYD	IN	47150	YES	NO	NO	NO								332813	334417					38.345556	-85.828333	020421905										1312210011603	007440020	NICKEL	TRI	Pounds																		W	H082								N 	E4																																																		NO	NICK.KNABLE@SAMTEC.COM			YES	 	
2012	NO	46036LSCRP1240S	ELSA LLC	1240 S STATE RD 37	ELWOOD	MADISON	IN	46036	YES	NO	NO	NO								336399						40.265587	-85.820126	183282789								SAKAMOTO INDUSTRIES LTD	183282789	1312210524373	007440484	COBALT	TRI	Pounds																		NA									N 																																																			NO	MDELUNA@ELSALLC.COM			YES	 	
2012	NO	4694WLGNSP8THAN	LOGANSPORT MUNICIPAL UTILITIES ELECTRIC GENERATING PLANT	8TH & RACE ST	LOGANSPORT	CASS	IN	46947	YES	NO	NO	NO								221112						40.78074	-86.37822											1312210672388	N420	LEAD COMPOUNDS	PBT	Pounds																		NA									N 																																																			NO	HARTMAN.LMU@FRONTIER.COM			YES	 	
2012	NO	46904DLCLC1800E	GM COMPONENTS HOLDINGS LLC KOKOMO OPS	2100 E LINCOLN RD	KOKOMO	HOWARD	IN	46902	YES	NO	NO	NO								334413	336322					40.455385	-86.108348	867271405	619119944							GENERAL MOTORS LLC	831247536	1312210284232	N420	LEAD COMPOUNDS	PBT	Pounds																		W	H121	H077	H123	H101					N 	E6																																																		NO	SHARON.BASEL@GM.COM			YES	 	
2012	NO	47170DVMRCJUNCT	DAVE O'MARA CONTRACTOR INC	JUNCTION SR 56 & SR 203	SCOTTSBURG	SCOTT	IN	47170	YES	NO	NO	NO								324121						38.68886	-85.65889									DAVE O'MARA CONTRACTOR INC		1312210285336	N590	POLYCYCLIC AROMATIC COMPOUNDS	PBT	Pounds																		NA									N 																																																			NO	AMYB@DAVEOMARA.COM			NO	 	
2012	NO	46345RLLCT2NDAN	PRECOAT METALS	858 E HUPP RD	LA PORTE	LAPORTE	IN	46350	YES	NO	NO	NO								332812						41.517486	-86.670517	064709876								SEQUA CORP	001374727	1312209985009	N511	NITRATE COMPOUNDS	TRI	Pounds																		W	H077	H121	H071	H123	H101				N 	E4																																																		NO	TMTIPPINS@PRECOAT.COM			NO	 	
2012	NO	47348M    0304S	3M CO - HARTFORD CITY	0304S   075E	HARTFORD CITY	BLACKFORD	IN	473481536	YES	NO	NO	NO								322222						40.445722	-85.356056	006054423								3M CO	006173082	1312210038511	000100414	ETHYLBENZENE	TRI	Pounds																		A	H040								N 	E4																																																		NO	EPCRA@MMM.COM			NO	 	
2012	NO	46222MCLC02500N	BP -- INDIANAPOLIS TERMINAL	2500 N TIBBS AVE	INDIANAPOLIS	MARION	IN	46222	YES	NO	NO	NO								424710						39.802805	-86.21581	072075294								BP PRODUCTS N.A. INC	039596507	1312210216887	000095636	1,2,4-TRIMETHYLBENZENE	TRI	Pounds																		A	A01								N 	E4		A	A07								N 	E4		W	H124								N 	E3																										NO	JEFF.PIATT@BP.COM			NO	 	
2012	NO	47302DLWRM700SM	DELAWARE DYNAMICS LLC	700 S MULBERRY ST	MUNCIE	DELAWARE	IN	47302	YES	NO	NO	NO								333514						40.188299	-85.385511	006418768										1312210284790	007439921	LEAD	TRI	Pounds																		NA									N 																																																			NO	KMAIN@DELAWAREDYNAMICS.COM			YES	 	
2012	NO	46226LRCHC3111N	BRENNTAG MID-SOUTH INC	3111 N POST RD	INDIANAPOLIS	MARION	IN	46226	YES	NO	NO	NO								424690						39.814444	-86.007778	041167107								BRENNTAG N.A. INC	041167107	1312210040580	000107211	ETHYLENE GLYCOL	TRI	Pounds																																																																														NO	DLEIGH@BRENNTAG.COM			NO	 	
2012	NO	46327MRTHN426CL	MARATHON PETROLEUM CO - HAMMOND IN TERMINAL	4206 COLUMBIA AVE	HAMMOND	LAKE	IN	46327	YES	NO	NO	NO								424710						41.637169	-87.499842	175805100								MARATHON PETROLEUM CORP	968393996	1312210402970	000108883	TOLUENE	TRI	Pounds																		A	A01								N 	E4		W	H083								N 	E3																																						NO	WGMOORE@MARATHONPETROLEUM.COM			NO	 	
2012	NO	46750MCSTL25CMM	GERDAU HUNTINGTON FACILITY	25 COMMERCIAL RD	HUNTINGTON	HUNTINGTON	IN	46750	YES	NO	NO	NO								332811						40.892232	-85.52533	082767591								GERDAU GROUP	082767591	1312210600829	N495	NICKEL COMPOUNDS	TRI	Pounds																		NA									N 																																																			NO	KENDALL.MICKLEY@GERDAU.COM			YES	 	
2012	NO	46514HRTSN28322	HARTSON-KENNEDY CABINET TOP CO INC	28322 COUNTY RD 20 W	ELKHART	ELKHART	IN	46517	YES	NO	NO	NO								337110						41.656738	-86.009644	016270423								HARTSON-KENNEDY CABINET TOP CO INC	006054779	1312210259154	000108883	TOLUENE	TRI	Pounds																		NA									N 																																																			NO	JAMLED@HARTSON-KENNEDY.COM			NO	 	
2012	NO	46402SSGRYONENO	USS GARY WORKS	1 N BROADWAY	GARY	LAKE	IN	46402	YES	NO	NO	NO								331111						41.616667	-87.3125	005444062								US STEEL CORP	029990699	1312210464994	N010	ANTIMONY COMPOUNDS	TRI	Pounds																		A	A03								N 	E6																																																		NO	CABOONE@USS.COM			YES	 	
2012	NO	46402SSGRYONENO	USS GARY WORKS	1 N BROADWAY	GARY	LAKE	IN	46402	YES	NO	NO	NO								331111						41.616667	-87.3125	005444062								US STEEL CORP	029990699	1312210465011	N040	BARIUM COMPOUNDS	TRI	Pounds																		A	A03								N 	E6		A	A06								N 	E3		A	A06								N 	E4																										NO	CABOONE@USS.COM			YES	 	
2012	NO	47744GRGKC10SEL	GEORGE KOCH SONS LLC	10 S ELEVENTH AVE	EVANSVILLE	VANDERBURGH	IN	47712	YES	NO	NO	NO								333999						37.97745	-87.59771	054457192								KOCH ENTERPRISES	006370357	1312210569784	007440473	CHROMIUM	TRI	Pounds																		NA									N 																																																			NO	RDS@KOCHLLC.COM			YES	 	
