TRIFID	DOCUMENT CONTROL NUMBER	CAS NUMBER	CHEMICAL NAME	CLASSIFICATION	REPORTING YEAR	FACILITY NAME	FACILITY STREET	FACILITY CITY	FACILITY COUNTY	FACILITY STATE	FACILITY ZIP CODE	FACILITY BIA CODE	FACILITY BIA NAME	ENTIRE FACILITY IND	PARTIAL FACILITY IND	FEDERAL FACILITY IND	GOCO FACILITY IND	PRIMARY SIC CODE	SIC CODE 2	SIC CODE 3	SIC CODE 4	SIC CODE 5	SIC CODE 6	NAICS ORIGIN	PRIMARY NAICS CODE	NAICS CODE 2	NAICS CODE 3	NAICS CODE 4	NAICS CODE 5	NAICS CODE 6	LATITUDE	LONGITUDE	DB NR A	DB NR B	RCRA NR A	RCRA NR B	NPDES NR A	NPDES NR B	UIC NR A	UIC NR B	PARENT COMPANY NAME	PARENT COMPANY DB NR	SECTION 8.11 DISPOSAL OR OTHER RELEASES, SOURCE REDUCTION, AND RECYCLING ACTIVITIES	ASSIGNED FED. FACILITY FLAG	PUBLIC CONTACT EMAIL	REVISION CODE 1	REVISION CODE 2	METAL INDICATOR	10/3/2014	
29730SMSWD103RO	1313211348697	N511	NITRATE COMPOUNDS	TRI	2013	OSMOSE INC	103 ROBERTSON RD	ROCK HILL	YORK	SC	29730			YES	NO	NO	NO								325188	325180					34.890653	-81.073753	002112944								OSMOSE INC		|SRNA:Source reduction is not possible at this current time.  This is a formulation component and is used in process with no waste.	NO	GCAVANAUGH@OSMOSE.COM			NO	 	
29730SMSWD103RO	1313211348673	N100	COPPER COMPOUNDS	TRI	2013	OSMOSE INC	103 ROBERTSON RD	ROCK HILL	YORK	SC	29730			YES	NO	NO	NO								325188	325180					34.890653	-81.073753	002112944								OSMOSE INC		|W58:In 2013, several tank clean outs were necessary for an obsolete product.  The tank sludge had to be disposed and could not be reworked into current processes.	NO	GCAVANAUGH@OSMOSE.COM			YES	 	
29730SMSWD103RO	1313211348709	007632000	SODIUM NITRITE	TRI	2013	OSMOSE INC	103 ROBERTSON RD	ROCK HILL	YORK	SC	29730			YES	NO	NO	NO								325188	325180					34.890653	-81.073753	002112944								OSMOSE INC		|SRNA:This chemical is currently used as a formulation component.  The 2013 off-site disposal was due to discontinuation of a former product in which sodium nitrite was a component.	NO	GCAVANAUGH@OSMOSE.COM			YES	 	
2960WCLMBF1354R	1313211222219	000079210	PERACETIC ACID	TRI	2013	COLUMBIA FARMS GREENVILLE DIV	1354 RUTHERFORD RD	GREENVILLE	GREENVILLE	SC	29609			YES	NO	NO	NO								311615						34.89452	-82.36693	052284072								HOUSE OF RAEFORD		|T11:we switched to a different anti-microbial	NO	CLINT.JONES@HOUSEOFRAEFORD.COM			NO	 	
29304HCHSTI85AT	1313211672441	000092524	BIPHENYL	TRI	2013	AURIGA POLYMERS INC -  SPARTANBURG FACILITY	1550 DEWBERRY RD	SPARTANBURG	SPARTANBURG	SC	29307			YES	NO	NO	NO								325211	325222					35.037623	-81.862326	068834919								AURIGA POLYMERS INC	068834919	|SRNA:Pollution prevention previously implemented- additional reduction does not appear technically or economically feasible	NO	JUAN.FLORES@US.INDORAMA.NET			NO	 	
29304HCHSTI85AT	1313211672415	000123911	1,4-DIOXANE	TRI	2013	AURIGA POLYMERS INC -  SPARTANBURG FACILITY	1550 DEWBERRY RD	SPARTANBURG	SPARTANBURG	SC	29307			YES	NO	NO	NO								325211	325222					35.037623	-81.862326	068834919								AURIGA POLYMERS INC	068834919	|SRNA:Pollution prevention previously implemented- additional reduction does not appear technically or economically feasible	NO	JUAN.FLORES@US.INDORAMA.NET			NO	 	
29304HCHSTI85AT	1313211672427	000075070	ACETALDEHYDE	TRI	2013	AURIGA POLYMERS INC -  SPARTANBURG FACILITY	1550 DEWBERRY RD	SPARTANBURG	SPARTANBURG	SC	29307			YES	NO	NO	NO								325211	325222					35.037623	-81.862326	068834919								AURIGA POLYMERS INC	068834919	|SRNA:Pollution prevention previously implemented- additional reduction does not appear technically or economically feasible	NO	JUAN.FLORES@US.INDORAMA.NET			NO	 	
29304HCHSTI85AT	1313211672504	N511	NITRATE COMPOUNDS	TRI	2013	AURIGA POLYMERS INC -  SPARTANBURG FACILITY	1550 DEWBERRY RD	SPARTANBURG	SPARTANBURG	SC	29307			YES	NO	NO	NO								325211	325222					35.037623	-81.862326	068834919								AURIGA POLYMERS INC	068834919	|SRNA:Nitrate generation is from a nutrient used to "feed" bacteria in facility's activated sludge WWTP. The nutrient is being used for its intended purpose to create more biomass.	NO	JUAN.FLORES@US.INDORAMA.NET			NO	 	
29304HCHSTI85AT	1313211672492	000067561	METHANOL	TRI	2013	AURIGA POLYMERS INC -  SPARTANBURG FACILITY	1550 DEWBERRY RD	SPARTANBURG	SPARTANBURG	SC	29307			YES	NO	NO	NO								325211	325222					35.037623	-81.862326	068834919								AURIGA POLYMERS INC	068834919	|W42:W12 - Change in production process cirtually eliminated generation of methanol.|T11:T-1 Change in production process	NO	JUAN.FLORES@US.INDORAMA.NET			NO	 	
29304HCHSTI85AT	1313211672439	N010	ANTIMONY COMPOUNDS	TRI	2013	AURIGA POLYMERS INC -  SPARTANBURG FACILITY	1550 DEWBERRY RD	SPARTANBURG	SPARTANBURG	SC	29307			YES	NO	NO	NO								325211	325222					35.037623	-81.862326	068834919								AURIGA POLYMERS INC	068834919	|SRNA:Pollution prevention previously implemented- additional reduction does not appear technically or economically feasible.	NO	JUAN.FLORES@US.INDORAMA.NET			YES	 	
29304HCHSTI85AT	1313211672478	N096	COBALT COMPOUNDS	TRI	2013	AURIGA POLYMERS INC -  SPARTANBURG FACILITY	1550 DEWBERRY RD	SPARTANBURG	SPARTANBURG	SC	29307			YES	NO	NO	NO								325211	325222					35.037623	-81.862326	068834919								AURIGA POLYMERS INC	068834919	|SRNA:Pollution prevention previously implemented- additional reduction does not appear technically or economically feasible.	NO	JUAN.FLORES@US.INDORAMA.NET			YES	 	
29304HCHSTI85AT	1313211672480	000107211	ETHYLENE GLYCOL	TRI	2013	AURIGA POLYMERS INC -  SPARTANBURG FACILITY	1550 DEWBERRY RD	SPARTANBURG	SPARTANBURG	SC	29307			YES	NO	NO	NO								325211	325222					35.037623	-81.862326	068834919								AURIGA POLYMERS INC	068834919	|SRNA:Pollution prevention previously implemented- additional reduction does not appear technically or economically feasible	NO	JUAN.FLORES@US.INDORAMA.NET			NO	 	
29101SMTHWUSHWY	1313211104916	N450	MANGANESE COMPOUNDS	TRI	2013	A O SMITH WATER PRODUCTS CO	25589 HWY 1	MC BEE	CHESTERFIELD	SC	29101			YES	NO	NO	NO								333319						34.486263	-80.245903	098398860								A O SMITH CORP	006085815	|SRNA:Product quality may decline	NO	JBARRON@HOTWATER.COM			YES	 	
29670PNDLTHIGHW	1313211174964	N420	LEAD COMPOUNDS	PBT	2013	MILLIKEN & CO-PENDLETON FINISHING PLANT	200 EXCELSIOR MILL RD	PENDLETON	ANDERSON	SC	29670			YES	NO	NO	NO								313311						34.658889	-82.805556	003357548								MILLIKEN & CO	002017440	|T11:We removed one of our coal-fired boilers.	NO	RICHARD.DILLARD@MILLIKEN.COM			YES	 	
29670PNDLTHIGHW	1313211174976	N511	NITRATE COMPOUNDS	TRI	2013	MILLIKEN & CO-PENDLETON FINISHING PLANT	200 EXCELSIOR MILL RD	PENDLETON	ANDERSON	SC	29670			YES	NO	NO	NO								313311						34.658889	-82.805556	003357548								MILLIKEN & CO	002017440	|T04:Improved daily onsite nitrate testing in our waterlab.	NO	RICHARD.DILLARD@MILLIKEN.COM			NO	 	
29657CRNLL140TE	1313211495611	007664417	AMMONIA	TRI	2013	CORNELL DUBILIER MARKETING INC	140 TECHNOLOGY PL.	LIBERTY	PICKENS	SC	29657			YES	NO	NO	NO								334414						34.81658	-82.69887	002148989								KAPLAN ELECTRONICS INC	002148989	|SRNA:Pollution prevention previously implemented- additional reduction does not appear technically or economically feasible.	NO	PWHITMIRE@CDE.COM			NO	 	
29657CRNLL140TE	1313211495623	000107211	ETHYLENE GLYCOL	TRI	2013	CORNELL DUBILIER MARKETING INC	140 TECHNOLOGY PL.	LIBERTY	PICKENS	SC	29657			YES	NO	NO	NO								334414						34.81658	-82.69887	002148989								KAPLAN ELECTRONICS INC	002148989	|SRNA:Pollution prevention previously implemented- additional reduction does not appear technically or economically feasible.	NO	PWHITMIRE@CDE.COM			NO	 	
29648MNSNTHIGHW	1313211415409	000092524	BIPHENYL	TRI	2013	ASCEND PERFORMANCE MATERIALS LLC	1515 HWY 246 S	GREENWOOD	GREENWOOD	SC	29646			YES	NO	NO	NO								325222	325211					34.2306	-82.05776	830235474								SK CAPITAL PARTNERS	830235474	|SRNA:Insufficient capital to install new source reduction equipment or implement new source reduction activities/initiatives. Also, insufficient personnel resources available for implementation.	NO	ALCUTR@ASCENDMATERIALS.COM			NO	 	
29602CRMPTWOODF	1313211508344	007440508	COPPER	TRI	2013	GREENVILLE COLORANTS LLC	105 WOOD ST	GREENVILLE	GREENVILLE	SC	29611			YES	NO	NO	NO								325130						34.85706	-82.43641											Greenville Colorants is an importer of dyestuffs. We do blending and packaging of these imported dyes. We do no actual chemistry. We do not create any products. We just standardize dyes and create new products by mixing 2 or 3 dyes together. For example we mix a blue with a yellow to get a green|SRNA:Greenville Colorants is an importer of dyestuffs. We do blending and packaging of these imported dyes. We do no actual chemistry. We do not create any products. We just standardize dyes and create new products by mixing 2 or 3 dyes together. For example we mix a blue with a yellow to get a green	NO	LARRYR@GREENVILLECOLORANTS.COM			YES	 	
29602CRMPTWOODF	1313211508332	N090	CHROMIUM COMPOUNDS(EXCEPT CHROMITE ORE MINED IN THE TRANSVAAL REGION)	TRI	2013	GREENVILLE COLORANTS LLC	105 WOOD ST	GREENVILLE	GREENVILLE	SC	29611			YES	NO	NO	NO								325130						34.85706	-82.43641											As I stated in the form pertaining to copper, Greenville Colorants is an importer of dyestuffs.We mix or blend dyes in our blenders. We have no waste- we ship all of our products to our customers. We do no chemistry. Only standardization and mixing.	NO	LARRYR@GREENVILLECOLORANTS.COM			YES	 	
29250WSTNGPOBOX	1313211785187	N511	NITRATE COMPOUNDS	TRI	2013	WESTINGHOUSE ELECTRIC CO LLC	5801 BLUFF RD	HOPKINS	RICHLAND	SC	29061			YES	NO	NO	NO								325180	325188					33.881944	-80.920556	133416862										|SRNA:Insufficient capital to install source reduction equipmentNot a regulatory requirement by SC NPDES	NO	SIMMONPA@WESTINGHOUSE.COM			NO	 	
29250WSTNGPOBOX	1313211785199	007697372	NITRIC ACID	TRI	2013	WESTINGHOUSE ELECTRIC CO LLC	5801 BLUFF RD	HOPKINS	RICHLAND	SC	29061			YES	NO	NO	NO								325180	325188					33.881944	-80.920556	133416862										|SRNA:Product quality may decline as result of source reduction	NO	SIMMONPA@WESTINGHOUSE.COM			NO	 	
29301TTXCR3020N	1313211038563	001163195	DECABROMODIPHENYL OXIDE	TRI	2013	TIETEX INTERNATIONAL LTD	3010 N BLACKSTOCK RD	SPARTANBURG	SPARTANBURG	SC	29301			YES	NO	NO	NO								313230						34.94684	-82.00569	069311546										|W89:Exiting Business|T11:Exiting Business	NO	BSCHAUB@TIETEX.COM			NO	 	
29526WLVRN8027H	1313211284233	007440508	COPPER	TRI	2013	WOLVERINE BRASS INC	2951 HWY 501 E	CONWAY	HORRY	SC	29526			YES	NO	NO	NO								332913						33.777613	-78.982558	361515679								PROFESSIONAL PLUMBING GROUP	027496441	|W29:Reduced the amount of raw material purchased	NO	DENNIS.FORE@WOLVERINEBRASS.COM			YES	 	
29625FBRCH1704D	1313211003518	N230	CERTAIN GLYCOL ETHERS	TRI	2013	CUSTOM SYNTHESIS LLC	1704 DENVER RD	ANDERSON	ANDERSON	SC	29625			YES	NO	NO	NO								325998	325199	325613				34.57504	-82.73705	062690847								PIEDMONT CHEMICAL INDUSTRIES INC	003215779	Distillate from our process is collected and purified for inclusion into future production batches.  This has reduced the amount of Glycol Ether reaching waste treatment and transfer off site as waste.|SRNA:Insufficient capital and lack of current technology required to achieve source reduction.	NO	DREW@CUSTOMSYNTHESIS.NET			NO	 	
29646CPRPW1520E	1313211408289	007440473	CHROMIUM	TRI	2013	COOPER POWER SYSTEMS LLC	1520 EMERALD RD	GREENWOOD	GREENWOOD	SC	29646			YES	NO	NO	NO								335999						34.21602	-82.08338	962460668								EATON US HOLDINGS INC. (F/K/A EATON INC.)	962460668	|SRNA:Concern that product quality may decline as a result of source reduction	NO	ROBERTCSCHOENBERGER@EATON.COM			YES	 	
29646CPRPW1520E	1313211408291	007439921	LEAD	TRI	2013	COOPER POWER SYSTEMS LLC	1520 EMERALD RD	GREENWOOD	GREENWOOD	SC	29646			YES	NO	NO	NO								335999						34.21602	-82.08338	962460668								EATON US HOLDINGS INC. (F/K/A EATON INC.)	962460668	|SRNA:Project underway to remove remaining lead solder from production in 2015	NO	ROBERTCSCHOENBERGER@EATON.COM			YES	 	
29472RCCRB19COU	1313211357672	000191242	BENZO(G,H,I)PERYLENE	PBT	2013	SHOWA DENKO CARBON INC	478 RIDGE RD	RIDGEVILLE	DORCHESTER	SC	29472			YES	NO	NO	NO								335991						33.090278	-80.341667	001368114								SHOWA INVESTMENT KK	690914619	W19:Reuse;W51:Reuse	NO	CLUCAS@SDKC.COM			NO	 	
29472RCCRB19COU	1313211357684	000085018	PHENANTHRENE	TRI	2013	SHOWA DENKO CARBON INC	478 RIDGE RD	RIDGEVILLE	DORCHESTER	SC	29472			YES	NO	NO	NO								335991						33.090278	-80.341667	001368114								SHOWA INVESTMENT KK	690914619	W19:Reuse;W51:Reuse	NO	CLUCAS@SDKC.COM			NO	 	
29472RCCRB19COU	1313211357696	N590	POLYCYCLIC AROMATIC COMPOUNDS	PBT	2013	SHOWA DENKO CARBON INC	478 RIDGE RD	RIDGEVILLE	DORCHESTER	SC	29472			YES	NO	NO	NO								335991						33.090278	-80.341667	001368114								SHOWA INVESTMENT KK	690914619	W19:reuse;W51:Reuse	NO	CLUCAS@SDKC.COM			NO	 	
29116THYLCCANNA	1313211338088	N450	MANGANESE COMPOUNDS	TRI	2013	AFTON CHEMICAL CORP	725 CANNON BRIDGE RD	ORANGEBURG	ORANGEBURG	SC	29115			YES	NO	NO	NO								325199						33.4675	-80.881111	053969234								NEWMARKET CORP	152227067	Beginning in CY 2014, the facility has installed a centrifuge to recover the Mn from process waste streams.  Plans are to send resulting centrifuge solids to an reclaimer of Mn.  This should reduce future off-site transfers to landfill.	NO	ED.COX@AFTONCHEMICAL.COM			YES	 	
29415SBNRT4090A	1313211698194	N982	ZINC COMPOUNDS	TRI	2013	SALISBURY ELECTRICAL SAFETY LLC	4091 AZALEA DR	CHARLESTON	CHARLESTON	SC	29405			YES	NO	NO	NO								339113						32.846058	-80.002274	059980441								HONEYWELL INTERNATIONAL INC	139691877	Zinc Compound is required in the processing of rubber gloves. Although the facility has not target a specific program to reduce Zn compound; the facility has made changes in the manufacturing process which directly reduces the Zn compound. Some of these changes includes: ¿Shutting down milling operation (this reduced PM and any Zn released to air) ¿Shutting down Latex operations.  ¿The facility also incorporated aggressive program to reduce the amount of hazardous waste cement. The scrap rate to produced gloves has been also reduced.	NO	DANYELLELYNN.PHELPS@HONEYWELL.COM			YES	 	
29706PPGND1497L	1313211090461	007439921	LEAD	TRI	2013	PPG INDUSTRIES FIBER GLASS PRODUCTS INC	1497 LANCASTER HWY	CHESTER	CHESTER	SC	29706			YES	NO	NO	NO								327212						34.7288	-81.1373	933390080		SCR000000026		SCR000000				PPG INDUSTRIES INC	001344803	|SRNA:Lead is an impurity in a natural occurring mineral used as a raw material.	NO	WWALTON@PPG.COM			YES	 	
29550SNCPRNORTH	1313211662655	N150	DIOXIN AND DIOXIN-LIKE COMPOUNDS	DIOXIN	2013	SONOCO PRODUCTS CO	1 N SECOND ST	HARTSVILLE	DARLINGTON	SC	29550			YES	NO	NO	NO								322130	322214	322110				34.384861	-80.067449	003354230								SONOCO PRODUCTS CO		|W58:Shutdown coal boiler. Start up biomass boiler.	NO	ROGER.SCHRUM@SONOCO.COM			NO	 	
29550SNCPRNORTH	1313211662642	007664417	AMMONIA	TRI	2013	SONOCO PRODUCTS CO	1 N SECOND ST	HARTSVILLE	DARLINGTON	SC	29550			YES	NO	NO	NO								322130	322214	322110				34.384861	-80.067449	003354230								SONOCO PRODUCTS CO		|W42:Reduced coal consumption. Shutdown coal fired boiler. Replace with biomass boiler.	NO	ROGER.SCHRUM@SONOCO.COM			NO	 	
29550SNCPRNORTH	1313211662681	N458	MERCURY COMPOUNDS	PBT	2013	SONOCO PRODUCTS CO	1 N SECOND ST	HARTSVILLE	DARLINGTON	SC	29550			YES	NO	NO	NO								322130	322214	322110				34.384861	-80.067449	003354230								SONOCO PRODUCTS CO		|W58:Shutdown a coal boiler. Started a biomass boiler.	NO	ROGER.SCHRUM@SONOCO.COM			YES	 	
29550SNCPRNORTH	1313211662679	N420	LEAD COMPOUNDS	PBT	2013	SONOCO PRODUCTS CO	1 N SECOND ST	HARTSVILLE	DARLINGTON	SC	29550			YES	NO	NO	NO								322130	322214	322110				34.384861	-80.067449	003354230								SONOCO PRODUCTS CO		|W58:Shutdown a coal fired boiler. Started up a biomass boiler.	NO	ROGER.SCHRUM@SONOCO.COM			YES	 	
29160TPKNCSTARR	1313211393689	N511	NITRATE COMPOUNDS	TRI	2013	DEVRO INC	785 OLD SWAMP RD	SWANSEA	CALHOUN	SC	29160			YES	NO	NO	NO								311613						33.81028	-80.921	005106083								DEVRO INTERNATIONAL PLC		Devro will be undergoing source reduction with the construction of more efficient process scheduled to start production in 2015. The process inherent design reduces use and leak potential resulting in a much more favorable chemical use.	NO	HYACINTH.WALKER@DEVRO.COM			NO	 	
29512FLKBR579WI	1313211064997	000050000	FORMALDEHYDE	TRI	2013	FLAKEBOARD AMERICA LTD BENNETTSVILLE MDF	579 WILLAMETTE RD	BENNETTSVILLE	MARLBORO	SC	29512			YES	NO	NO	NO								321219						34.595452	-79.776449	783169753								FLAKEBOARD AMERICA LTD	783169753	Increased efficiencies in resin application have reduced formaldehyde emissions in process.	NO	RICH.WEBER@FLAKEBOARD.COM			NO	 	
29512FLKBR579WI	1313211065002	000067561	METHANOL	TRI	2013	FLAKEBOARD AMERICA LTD BENNETTSVILLE MDF	579 WILLAMETTE RD	BENNETTSVILLE	MARLBORO	SC	29512			YES	NO	NO	NO								321219						34.595452	-79.776449	783169753								FLAKEBOARD AMERICA LTD	783169753	Resin efficiency was increased reducing methanol and formaldehyde generation during pressing.  New source tests confirmed increases.	NO	RICH.WEBER@FLAKEBOARD.COM			NO	 	
29731TTCHS1750O	1313211376191	N100	COPPER COMPOUNDS	TRI	2013	ATOTECH USA	1750 OVERVIEW DR	ROCK HILL	YORK	SC	29730			YES	NO	NO	NO								325180	325188					34.94701	-80.95024	800185910								TOTAL HOLDINGS USA INC	164559929	|W19:Retain samples held for 2 years not previous 1 year.|T04:done to help ensure product quality if complaint.	NO	CHRISTINE.KNEZEVICH@ATOTECH.COM			YES	 	
29161HNDFS1111H	1313211529565	007439921	LEAD	TRI	2013	HONDA OF SOUTH CAROLINA MANUFACTURING INC	1111 HONDA WAY	TIMMONSVILLE	FLORENCE	SC	291610942			YES	NO	NO	NO								336999						34.11808	-79.9177	012165564		SCR000006643		SCR003304				AMERICAN HONDA MOTOR CO INC	008860389	|SRNA:Impurity in aluminum used in casting engine parts.	NO	JEFF_HELTON@HSC.HONDA.COM			YES	 	
29161HNDFS1111H	1313211529540	007440508	COPPER	TRI	2013	HONDA OF SOUTH CAROLINA MANUFACTURING INC	1111 HONDA WAY	TIMMONSVILLE	FLORENCE	SC	291610942			YES	NO	NO	NO								336999						34.11808	-79.9177	012165564		SCR000006643		SCR003304				AMERICAN HONDA MOTOR CO INC	008860389	|SRNA:Copper is in weld wire used and aluminum used to case engine parts.  This cannot be changed.	NO	JEFF_HELTON@HSC.HONDA.COM			YES	 	
29334LLDSG120RI	1313211527674	007440020	NICKEL	TRI	2013	FRAM GROUP AUTOLITE	120 RIDGEVIEW CENTER DR	DUNCAN	SPARTANBURG	SC	29334			YES	NO	NO	NO								336322						34.91953	-82.11181	968500111								FRAM GROUP OPERATIONS LLC	968500111	|SRNA:Pollution prevention previously implemented- additional reduction does not appear technically or economically feasible.	NO	JEFFREY.GOLDACKER@AUTOLITE.COM			YES	 	
29687CHPTRTANNE	1313211209681	000064186	FORMIC ACID	TRI	2013	CPJ TECHNOLOGIES	200 TANNER DR	TAYLORS	GREENVILLE	SC	29687			YES	NO	NO	NO								325520	325199	325188	325613	325211		34.91386	-82.33265	124383071										Demand for the product containing formic acid has declined and efforts are being made to find a replacement for it.	NO	BCHATHAM@CPJTECHNOLOGIES.COM			NO	 	
29687CHPTRTANNE	1313211209630	000141322	BUTYL ACRYLATE	TRI	2013	CPJ TECHNOLOGIES	200 TANNER DR	TAYLORS	GREENVILLE	SC	29687			YES	NO	NO	NO								325520	325199	325188	325613	325211		34.91386	-82.33265	124383071										|SRNA:Began installation of chiller to recycle cooling water and improve condensation in reflux processes by delivering recycled water at 40F where in the past cooling water temperature depended on the weather and varied from ca. 54F to ca. 84F.	NO	BCHATHAM@CPJTECHNOLOGIES.COM			NO	 	
29605SPCLT3QUAL	1313211173176	007440473	CHROMIUM	TRI	2013	SPECIALTY BAR PRODS CO GREENVILLE PLANT	3 QUALITY WAY, BEECHTREE INDL PARK	GREENVILLE	GREENVILLE	SC	29605			YES	NO	NO	NO								332722						34.76464	-82.40509	805345170								DONCASTERS LTD		With Product mix and customer sales it depends on how many of which materials we use each year.	NO	HOWARD.KILGORE@SPECIALTY-BAR.COM			YES	 	
29636RYMTLBOX38	1313211694981	N495	NICKEL COMPOUNDS	TRI	2013	ROY METAL FINISHING CO INC	112 CONESTEE RD	GREENVILLE	GREENVILLE	SC	29607			YES	NO	NO	NO								332813						34.772439	-82.342642	003341849								ROY METAL FINISHING CO INC		Weekly meetings to optimize maintenance and operational hours of process.	NO	JPAZDAN@ROYMETAL.COM			YES	 	
29636RYMTLBOX38	1313211695022	N982	ZINC COMPOUNDS	TRI	2013	ROY METAL FINISHING CO INC	112 CONESTEE RD	GREENVILLE	GREENVILLE	SC	29607			YES	NO	NO	NO								332813						34.772439	-82.342642	003341849								ROY METAL FINISHING CO INC		Weekly meeting to optimize maintenance and production operations.	NO	JPAZDAN@ROYMETAL.COM			YES	 	
29802SDSVNSCHWY	1313211631181	N420	LEAD COMPOUNDS	PBT	2013	US DOE SAVANNAH RIVER OPS	SC HWY 19	AIKEN	AIKEN	SC	29802			YES	NO	YES	NO								928110	921190					33.290556	-81.648889									US DEPARTMENT OF ENERGY		The Savannah River Site (SRS) won two 2013 Department of Energy (DOE) Sustainability Awards and an EPA Federal Electronics Challenge (FEC) Silver-Level Award.The SRS shipped 18 boxes and 2 large Lead shields (~50 mtons) under the DOE recycle metal moratorium for recycling.	YES	DAVID-P.ROBERTS@SRS.GOV			YES	 	
29072MCHLN2420T	1313211247135	N096	COBALT COMPOUNDS	TRI	2013	MICHELIN NA INC	2420 TWO NOTCH RD	LEXINGTON	LEXINGTON	SC	29072			YES	NO	NO	NO								326211						33.93412	-81.28582	044691848								MICHELIN N.A. INC	044691848	We were able to start seling scrap rubber for material reuse rather than landfill.	NO	BOB.WELNICK@US.MICHELIN.COM			YES	 	
29072MCHLN2420T	1313211247150	N982	ZINC COMPOUNDS	TRI	2013	MICHELIN NA INC	2420 TWO NOTCH RD	LEXINGTON	LEXINGTON	SC	29072			YES	NO	NO	NO								326211						33.93412	-81.28582	044691848								MICHELIN N.A. INC	044691848	Implementing the in-process closed loop recycling of the Zinc Stearate powder.	NO	BOB.WELNICK@US.MICHELIN.COM			YES	 	
2915WCNTNN185HW	1313211235751	N982	ZINC COMPOUNDS	TRI	2013	CONTINENTAL TIRE THE AMERICAS LLC	1805 HWY 521 S	SUMTER	SUMTER	SC	29150			YES	NO	NO	NO								326211						33.868413	-80.319601									CONTINENTAL TIRE THE AMERICAS LLC		|T11:Start-up operations, will continue to ramp up production of new facility and optimize processes to reduce waste and scrap materials. Estimated ramp up period = 5yrs.	NO	CRAIG.BAARTMAN@CONTI-NA.COM			YES	 	
2951WFCBNN696MU	1313211027659	007439921	LEAD	TRI	2013	FCI BENNETTSVILLE	696 MUCKERMAN RD	BENNETTSVILLE	MARLBORO	SC	29512			YES	NO	YES	NO								922140						34.675387	-79.723658									US DEPARTMENT OF JUSTICE		|SRNA:Byproduct from annual shooting at the firing range.	YES	SADAMS@BOP.GOV			YES	 	
2984WBNDXNTWMAX	1313211483336	000108883	TOLUENE	TRI	2013	BONDEX INC	2 MAXWELL DR	TRENTON	AIKEN	SC	29847			YES	NO	NO	NO								313230	322220					33.64847	-81.9015	016235504										Production scheduling was modified to run formulations using like chemicals consecutively in an effort to reduce fugitive emissions. Additionally, chemicals were used on a first in first out basis such that shelf life from old stock would not result in unnecessary waste generation.	NO	JAY@BONDEXINC.COM			NO	 	
29801HBBLL2200R	1313211413669	007440508	COPPER	TRI	2013	HUBBELL POWER SYSTEMS INC	1850 RICHLAND AVE E	AIKEN	AIKEN	SC	29801			YES	NO	NO	NO								335999	334413					33.564907	-81.744683	054202080								HUBBELL INC	001181858	In 2013 the plant greatly increased recycling efforts.	NO	GBLESSING@HUBBELL.COM			YES	 	
29646GRNWD1PACK	1313211292002	007664417	AMMONIA	TRI	2013	CAROLINA PRIDE FOODS INC	1 PACKER AVE	GREENWOOD	GREENWOOD	SC	29646			YES	NO	NO	NO								311611						34.19017	-82.1471	003345949								CAROLINA PRIDE FOODS INC	003345949	|SRNA:Concern that product quality may decline as a result of source reduction.	NO	BFRENCH@CAROLINAPRIDEONLINE.COM			NO	 	
29625PLSTC5100O	1313211568050	N230	CERTAIN GLYCOL ETHERS	TRI	2013	PLASTIC OMNIUM AUTO EXTERIOR LLC	5100 OLD PEARMAN DAIRY RD	ANDERSON	ANDERSON	SC	29625			YES	NO	NO	NO								336390	336399					34.551314	-82.711283	966229627								PLASTIC OMNIUM AUTO EXTERIOR LLC	809862907	|W71:CAS No. 111-76-2 was eliminated from a chemical used for cleaning floors, equipment, etc.	NO	HUGO.HERNANDEZ@PLASTICOMNIUM.COM			NO	 	
29406WSTVC5600V	1313211547967	000079107	ACRYLIC ACID	TRI	2013	MEADWESTVACO SC LLC CHARLESTON CHEMICAL PLANT	5598 VIRGINIA AVE	NORTH CHARLESTON	CHARLESTON	SC	29406			YES	NO	NO	NO								325194	325199					32.89778	-79.97299	137673117		SCD991279332						MEADWESTVACO CORP	102235004	All emission sources equipped with control devices.	NO	TUCKER.MCNEIL@MWV.COM			NO	 	
29627DDGRC905HI	1313211513155	007440508	COPPER	TRI	2013	BALDOR ELECTRIC	905 HWY 247	BELTON	ANDERSON	SC	29627			YES	NO	NO	NO								333612						34.539973	-82.445656									ABB INC	808229041	We discovered a glaringly large difference between the copper offsite recycle numbers between RY 2012 and RY 2013 which made us investigate our numbers from our recycle vendor.  Our original numbers were grossly inaccurate and the individual who provided us with the inaccurate numbers is no longer with the vendor.  We had no reason to believe the numbers were inaccurate until this year.Volume 2013      Volume 2012      Volume 2011      Volume 2010      Volume 2009             32,889                 32,077                38,484                18,054                18,623	NO	MIKE.ROSS@BALDOR.ABB.COM			YES	 	
29620FLXBLCARWE	1313211091158	N230	CERTAIN GLYCOL ETHERS	TRI	2013	FLEXIBLE TECHNOLOGIES INC	528 CARWELLYN RD	ABBEVILLE	ABBEVILLE	SC	29620			YES	NO	NO	NO								326220						34.162157	-82.384244	144931136								SMITHS GROUP PLC		|SRNA:Production demands dictate the need for this chemical.	NO	MATHEW.SWEET@FLEXIBLETECHNOLOGIES.COM			NO	 	
29620FLXBLCARWE	1313211091133	N010	ANTIMONY COMPOUNDS	TRI	2013	FLEXIBLE TECHNOLOGIES INC	528 CARWELLYN RD	ABBEVILLE	ABBEVILLE	SC	29620			YES	NO	NO	NO								326220						34.162157	-82.384244	144931136								SMITHS GROUP PLC		|W82:Our products are moving toward using compounds that do not contain antimony trioxide.	NO	MATHEW.SWEET@FLEXIBLETECHNOLOGIES.COM			YES	 	
29620FLXBLCARWE	1313211091160	000117817	DI(2-ETHYLHEXYL) PHTHALATE	TRI	2013	FLEXIBLE TECHNOLOGIES INC	528 CARWELLYN RD	ABBEVILLE	ABBEVILLE	SC	29620			YES	NO	NO	NO								326220						34.162157	-82.384244	144931136								SMITHS GROUP PLC		|T11:Products moving toward a non-pvc compound base	NO	MATHEW.SWEET@FLEXIBLETECHNOLOGIES.COM			NO	 	
29620FLXBLCARWE	1313211091172	007439921	LEAD	TRI	2013	FLEXIBLE TECHNOLOGIES INC	528 CARWELLYN RD	ABBEVILLE	ABBEVILLE	SC	29620			YES	NO	NO	NO								326220						34.162157	-82.384244	144931136								SMITHS GROUP PLC		|SRNA:The lead is in the forklift batteries and that does not change	NO	MATHEW.SWEET@FLEXIBLETECHNOLOGIES.COM			YES	 	
29048CHSPKHWY45	1313211050719	N020	ARSENIC COMPOUNDS	TRI	2013	CAROLINA POLE INC	237 FORESTRY RD	EUTAWVILLE	ORANGEBURG	SC	29048			YES	NO	NO	NO								321114						33.37762	-80.36013									COX INDUSTRIES INC		|SRNA:No specific reason except we cannot change the type of chemical used nor the quantity at this time.	NO	JHOUSE@COXWOOD.COM			YES	 	
29817GSTFBROUTE	1313211637133	000075092	DICHLOROMETHANE	TRI	2013	AUGUSTA FIBERGLASS COATINGS INC	86 LAKE CYNTHIA RD	BLACKVILLE	BARNWELL	SC	298174126			YES	NO	NO	NO								326199						33.339013	-81.284673	075872267		SCD075872267		SCR001342				AUGUSTA FIBERGLASS COATINGS INC	075872267	Batch distillation of dichloromethane	NO	FE.TEMPLETON@AUGUSTAFIBERGLASS.COM			NO	 	
2965WSTJDM253FI	1313211262035	N511	NITRATE COMPOUNDS	TRI	2013	ST JUDE MEDICAL IESD	253 FINANCIAL BLVD	LIBERTY	PICKENS	SC	29657			YES	NO	NO	NO								334414						34.791868	-82.665685	080232168								ST. JUDE MEDICAL INC.	080232168	Improved process efficiency by increasing the number of anodes produced for each sheet of etched foil.	NO	GFANDRICH@SJM.COM			NO	 	
29836SNDZCHIGHW	1313211077514	000120718	P-CRESIDINE	TRI	2013	ARCHROMA US INC	788 CHERT QUARRY RD	MARTIN	ALLENDALE	SC	29836			YES	NO	NO	NO								325132	325192	325199				33.071793	-81.476499	079129806	093609436							ARCHROMA U.S. INC.		The site is working diligently on loss of primary containment issues. This work includes training for site employees and equipment inspections.	NO	CHAD.PERRY@ARCHROMA.COM			NO	 	
29836SNDZCHIGHW	1313211077540	007632000	SODIUM NITRITE	TRI	2013	ARCHROMA US INC	788 CHERT QUARRY RD	MARTIN	ALLENDALE	SC	29836			YES	NO	NO	NO								325132	325192	325199				33.071793	-81.476499	079129806	093609436							ARCHROMA U.S. INC.		The site is working diligently on loss of primary containment issues. This work includes training for site employees and equipment inspections.	NO	CHAD.PERRY@ARCHROMA.COM			YES	 	
29836SNDZCHIGHW	1313211077425	000062533	ANILINE	TRI	2013	ARCHROMA US INC	788 CHERT QUARRY RD	MARTIN	ALLENDALE	SC	29836			YES	NO	NO	NO								325132	325192	325199				33.071793	-81.476499	079129806	093609436							ARCHROMA U.S. INC.		The site is working diligently on loss of primary containment issues. This work includes training for site employees and equipment inspections.	NO	CHAD.PERRY@ARCHROMA.COM			NO	 	
29836SNDZCHIGHW	1313211077488	000106898	EPICHLOROHYDRIN	TRI	2013	ARCHROMA US INC	788 CHERT QUARRY RD	MARTIN	ALLENDALE	SC	29836			YES	NO	NO	NO								325132	325192	325199				33.071793	-81.476499	079129806	093609436							ARCHROMA U.S. INC.		The site is working diligently on loss of primary containment issues. This work includes training for site employees and equipment inspections.	NO	CHAD.PERRY@ARCHROMA.COM			NO	 	
29836SNDZCHIGHW	1313211077452	000111422	DIETHANOLAMINE	TRI	2013	ARCHROMA US INC	788 CHERT QUARRY RD	MARTIN	ALLENDALE	SC	29836			YES	NO	NO	NO								325132	325192	325199				33.071793	-81.476499	079129806	093609436							ARCHROMA U.S. INC.		The site is working diligently on loss of primary containment issues. This work includes training for site employees and equipment inspections.	NO	CHAD.PERRY@ARCHROMA.COM			NO	 	
29836SNDZCHIGHW	1313211077490	007647010	HYDROCHLORIC ACID (1995 AND AFTER "ACID AEROSOLS" ONLY)	TRI	2013	ARCHROMA US INC	788 CHERT QUARRY RD	MARTIN	ALLENDALE	SC	29836			YES	NO	NO	NO								325132	325192	325199				33.071793	-81.476499	079129806	093609436							ARCHROMA U.S. INC.		The site is working diligently on loss of primary containment issues. This work includes training for site employees and equipment inspections.	NO	CHAD.PERRY@ARCHROMA.COM			NO	 	
29836SNDZCHIGHW	1313211077526	000108952	PHENOL	TRI	2013	ARCHROMA US INC	788 CHERT QUARRY RD	MARTIN	ALLENDALE	SC	29836			YES	NO	NO	NO								325132	325192	325199				33.071793	-81.476499	079129806	093609436							ARCHROMA U.S. INC.		The site is working diligently on loss of primary containment issues. This work includes training for site employees and equipment inspections.	NO	CHAD.PERRY@ARCHROMA.COM			NO	 	
29836SNDZCHIGHW	1313211077476	000124403	DIMETHYLAMINE	TRI	2013	ARCHROMA US INC	788 CHERT QUARRY RD	MARTIN	ALLENDALE	SC	29836			YES	NO	NO	NO								325132	325192	325199				33.071793	-81.476499	079129806	093609436							ARCHROMA U.S. INC.		The site is working diligently on loss of primary containment issues. This work includes training for site employees and equipment inspections.	NO	CHAD.PERRY@ARCHROMA.COM			NO	 	
29836SNDZCHIGHW	1313211077437	N230	CERTAIN GLYCOL ETHERS	TRI	2013	ARCHROMA US INC	788 CHERT QUARRY RD	MARTIN	ALLENDALE	SC	29836			YES	NO	NO	NO								325132	325192	325199				33.071793	-81.476499	079129806	093609436							ARCHROMA U.S. INC.		The site is working diligently on loss of primary containment issues. This work includes training for site employees and equipment inspections.	NO	CHAD.PERRY@ARCHROMA.COM			NO	 	
29836SNDZCHIGHW	1313211077449	N100	COPPER COMPOUNDS	TRI	2013	ARCHROMA US INC	788 CHERT QUARRY RD	MARTIN	ALLENDALE	SC	29836			YES	NO	NO	NO								325132	325192	325199				33.071793	-81.476499	079129806	093609436							ARCHROMA U.S. INC.		The site is working diligently on loss of primary containment issues. This work includes training for site employees and equipment inspections.	NO	CHAD.PERRY@ARCHROMA.COM			YES	 	
29696JHNSN124LD	1313211101807	N420	LEAD COMPOUNDS	PBT	2013	JOHNSON CONTROLS BATTERY GROUP INC	1204 OLD WALHALLA HWY	WEST UNION	OCONEE	SC	29696			YES	NO	NO	NO								326199	335911					34.728734	-83.004053	144836178								JOHNSON CONTROLS INC	006092860	|W82:Reduction in thickness of select lead grids.  Reduces lead consumption.|W51:Modified Drossing procedure, that allows greater reclaim of lead within process line.|W15:Installed Camera system that identifies the progression ratio and adjusts feed to optimal ratio.  System reduces lead grid scrap.	NO	JEFFERY.S.MAY@JCI.COM			YES	 	
29731SNBLT2120B	1313211393715	007632000	SODIUM NITRITE	TRI	2013	SUNBELT CORP	2120 BURKETT RD	ROCK HILL	YORK	SC	29730			YES	NO	NO	NO								325130	325132					34.948754	-80.98233	040004051								SUNBELT CORP	040004051	|SRNA:Changes in raw materials will result in negative impact on quality and yield.	NO	MWEINSCHEUTZ@SUNBELTCOLORS.COM			YES	 	
29731SNBLT2120B	1313211393727	001330207	XYLENE (MIXED ISOMERS)	TRI	2013	SUNBELT CORP	2120 BURKETT RD	ROCK HILL	YORK	SC	29730			YES	NO	NO	NO								325130	325132					34.948754	-80.98233	040004051								SUNBELT CORP	040004051	Sunbelt Corporation has continued pollution prevention activities from prior years in RY2013.  These include such items as recycling of spent solvents to reduce the amount to be disposed of as waste.|W55:Began storing certain hazardous products in reusable 275 totes rather than single use 55 gal drums.	NO	MWEINSCHEUTZ@SUNBELTCOLORS.COM			NO	 	
2972WCLYGR861QU	1313210973968	N010	ANTIMONY COMPOUNDS	TRI	2013	COOLEY GROUP	861 QUALITY DR	LANCASTER	LANCASTER	SC	29720			YES	NO	NO	NO								313320						34.732645	-80.763291	102944456								COOLEY GROUP	001199728	|T04:Onsite recycling to reduce waste to landfill.	NO	DONNDELINGERP@COOLEYGROUP.COM			YES	 	
29630BSFCRHIGHW	1313211679257	N120	DIISOCYANATES	TRI	2013	BASF CORPORATE/CLEMSON SITE	1215 GREENVILLE  HWY	CENTRAL	PICKENS	SC	29630			YES	NO	NO	NO								325211						34.747711	-82.7539	154213458								BASF CORP	071014385	|SRNA:MDI emissions have been reduced through engineering controls to the greatest extent possible. Onsite treatment includes neutralization of MDI residue in empty containers prior to reuse or reconditioning.	NO	BRIAN.TRAMMELL@BASF.COM			NO	 	
29630BSFCRHIGHW	1313211679271	000064186	FORMIC ACID	TRI	2013	BASF CORPORATE/CLEMSON SITE	1215 GREENVILLE  HWY	CENTRAL	PICKENS	SC	29630			YES	NO	NO	NO								325211						34.747711	-82.7539	154213458								BASF CORP	071014385	Off-spec material containing formic acid did not require disposal as a waste in 2013.	NO	BRIAN.TRAMMELL@BASF.COM			NO	 	
29630BSFCRHIGHW	1313211679269	000107211	ETHYLENE GLYCOL	TRI	2013	BASF CORPORATE/CLEMSON SITE	1215 GREENVILLE  HWY	CENTRAL	PICKENS	SC	29630			YES	NO	NO	NO								325211						34.747711	-82.7539	154213458								BASF CORP	071014385	In prior years the off-spec resin was sent off site for disposal. In 2013, this material was sold as a usable product.|SRNA:Emissions of ethylene glycol have been reduced to the maximum extent possible. In 2013 off-spec resin was sold as usable material instead of being disposed of as waste.	NO	BRIAN.TRAMMELL@BASF.COM			NO	 	
29609STLHD1801R	1313210926313	007439921	LEAD	TRI	2013	STEEL HEDDLE INC	1801 RUTHERFORD RD	GREENVILLE	GREENVILLE	SC	296091901			YES	NO	NO	NO								332999	333292					34.90159	-82.35601	057551053		SCD002267490								Lead solder was changed to a non haz solder in the process.	NO	MIKE.PERRY@STEELHEDDLE.COM			YES	 	
29621SSCTD1100S	1313211398716	007440508	COPPER	TRI	2013	ASSOCIATED FUEL PUMP SYSTEMS CORP	1100 SCOTTS  BRIDGE RD	ANDERSON	ANDERSON	SC	29621			YES	NO	NO	NO								336399						34.62162	-82.63378	618442347										|SRNA:New additions added to existing equipment. In process of source reduction. POLLUTION PREVENT PREVIOUSLY IMPLEMENTED-additional reduction does not appear technically or economically feasible.	NO	DONNA.BAKER@AFCO-SC.COM			YES	 	
29621SSCTD1100S	1313211398728	007697372	NITRIC ACID	TRI	2013	ASSOCIATED FUEL PUMP SYSTEMS CORP	1100 SCOTTS  BRIDGE RD	ANDERSON	ANDERSON	SC	29621			YES	NO	NO	NO								336399						34.62162	-82.63378	618442347										|SRNA:Pollution Prevention previously implemented additional reduction does not appear technically or economically feasible.	NO	DONNA.BAKER@AFCO-SC.COM			NO	 	
29151BCTNDAIRPO	1313211650217	N982	ZINC COMPOUNDS	TRI	2013	BD DIAGNOSTICS	1575 AIRPORT RD	SUMTER	SUMTER	SC	29153			YES	NO	NO	NO								339112						33.96493	-80.34985	050196096								BECTON DICKINSON & CO	001292192	|W78:Testing and trials of alternative surface coatings that could reduce the amount of zinc in our products and our waste streams.|T10:Alternative vendors have assisted our trials.	NO	ROBERT_FAUVIE@BD.COM			YES	 	
29620BRNSTCARWE	1313211610302	007440508	COPPER	TRI	2013	BURNSTEIN VON SEELEN	608 CARWELLYN RD	ABBEVILLE	ABBEVILLE	SC	29620			YES	NO	NO	NO								331529						34.162296	-82.38445	144842317				SCR003166						New treatment systems scheduled to be installed for stormwater discharges in FY 2014.|SRNA:Other - New treatment systems scheduled to be installed for stormwater discharges in FY 2014.	NO	BURN4@WCTEL.NET			YES	 	
29841CBRDC131RE	1313211523737	007440508	COPPER	TRI	2013	ALLNEX USA INC NORTH AUGUSTA FACILITY	131 REVCO RD	NORTH AUGUSTA	AIKEN	SC	29842			YES	NO	NO	NO								325211						33.48044	-81.92247	805852936								ALLNEX USA INC	078786182	Additional process optimization of this unit.|W50:Additional process optimization of this unit.	NO	JOSH.LIVINGSTON@ALLNEX.COM			YES	 	
29841CBRDC131RE	1313211523713	000079107	ACRYLIC ACID	TRI	2013	ALLNEX USA INC NORTH AUGUSTA FACILITY	131 REVCO RD	NORTH AUGUSTA	AIKEN	SC	29842			YES	NO	NO	NO								325211						33.48044	-81.92247	805852936								ALLNEX USA INC	078786182	Continual process optimization will allow for further recycle and reuse.	NO	JOSH.LIVINGSTON@ALLNEX.COM			NO	 	
29841CBRDC131RE	1313211523788	000108883	TOLUENE	TRI	2013	ALLNEX USA INC NORTH AUGUSTA FACILITY	131 REVCO RD	NORTH AUGUSTA	AIKEN	SC	29842			YES	NO	NO	NO								325211						33.48044	-81.92247	805852936								ALLNEX USA INC	078786182	Energy Recovery reported in 2012 will be updated to reflect offsite energy recovery.	NO	JOSH.LIVINGSTON@ALLNEX.COM			NO	 	
29732TRXLG59HUE	1313211301712	000107211	ETHYLENE GLYCOL	TRI	2013	TEREX USA LLC	590 HUEY RD	ROCK HILL	YORK	SC	29730			YES	NO	NO	NO								333120	335312					34.95103	-80.99479									TEREX CORP	022574552	|W36:Weekly hazardous waste inspections|T01:SPCC audits	NO	BLAKE.SMITH@TEREX.COM			NO	 	
2965WDRCRL2375H	1313211584103	001330207	XYLENE (MIXED ISOMERS)	TRI	2013	DUER/CAROLINA COIL INC	2375 HWY 101 S	GREER	SPARTANBURG	SC	29651			YES	NO	NO	NO								332613	332611					34.87093	-82.14306	098404759								SSS MANAGEMENT CORP	098404759	Duer/Carolina Coil utilizes Lean practices to minimize wastes.	NO	RICKE@DCCOIL.COM			NO	 	
2965WDRCRL2375H	1313211584089	007439965	MANGANESE	TRI	2013	DUER/CAROLINA COIL INC	2375 HWY 101 S	GREER	SPARTANBURG	SC	29651			YES	NO	NO	NO								332613	332611					34.87093	-82.14306	098404759								SSS MANAGEMENT CORP	098404759	Duer/Carolina Coil utilizes Lean practices to minimize waste.	NO	RICKE@DCCOIL.COM			YES	 	
2965WDRCRL2375H	1313211584065	007440473	CHROMIUM	TRI	2013	DUER/CAROLINA COIL INC	2375 HWY 101 S	GREER	SPARTANBURG	SC	29651			YES	NO	NO	NO								332613	332611					34.87093	-82.14306	098404759								SSS MANAGEMENT CORP	098404759	Duer/Carolina Coil utilizes Lean practices to minimize waste.	NO	RICKE@DCCOIL.COM			YES	 	
2965WDRCRL2375H	1313211584091	007440020	NICKEL	TRI	2013	DUER/CAROLINA COIL INC	2375 HWY 101 S	GREER	SPARTANBURG	SC	29651			YES	NO	NO	NO								332613	332611					34.87093	-82.14306	098404759								SSS MANAGEMENT CORP	098404759	Duer/Carolina Coil utilizes Lean practices to minimize wastes.	NO	RICKE@DCCOIL.COM			YES	 	
2965WDRCRL2375H	1313211584077	007440508	COPPER	TRI	2013	DUER/CAROLINA COIL INC	2375 HWY 101 S	GREER	SPARTANBURG	SC	29651			YES	NO	NO	NO								332613	332611					34.87093	-82.14306	098404759								SSS MANAGEMENT CORP	098404759	Duer/Carolina Coil utilizes Lean practices to minimize waste.	NO	RICKE@DCCOIL.COM			YES	 	
29349KYSTN2165H	1313211381381	N090	CHROMIUM COMPOUNDS(EXCEPT CHROMITE ORE MINED IN THE TRANSVAAL REGION)	TRI	2013	KEYSTONE ANILINE CORP	2165 HWY 292	INMAN	SPARTANBURG	SC	29349			YES	NO	NO	NO								424690						35.08423	-82.05611	005182019										|SRNA:Pollution prevention previously implemented-additional reduction does not appear technically or economically feasible.	NO	RRHODES@DYES.COM			YES	 	
29349KYSTN2165H	1313211381379	N230	CERTAIN GLYCOL ETHERS	TRI	2013	KEYSTONE ANILINE CORP	2165 HWY 292	INMAN	SPARTANBURG	SC	29349			YES	NO	NO	NO								424690						35.08423	-82.05611	005182019										|SRNA:Pollution prevention previously implemented - additional reduction does not appear technically feasible.	NO	RRHODES@DYES.COM			NO	 	
2962WTHRMF381CA	1313211091119	001163195	DECABROMODIPHENYL OXIDE	TRI	2013	THERMAFLEX	381 CARWELLYN RD	ABBEVILLE	ABBEVILLE	SC	29620			YES	NO	NO	NO								326220						34.161963	-82.383829									SMITHS GROUP PLC		|W42:Eliminated use of this chemical in our adhesives in Oct 2013	NO	MATTHEW.SWEET@FLEXIBLETECHNOLOGIES.COM			NO	 	
2962WTHRMF381CA	1313211091145	007439921	LEAD	TRI	2013	THERMAFLEX	381 CARWELLYN RD	ABBEVILLE	ABBEVILLE	SC	29620			YES	NO	NO	NO								326220						34.161963	-82.383829									SMITHS GROUP PLC		|SRNA:The lead is contained in the batteries of the forklifts. There are no plans to change forklift.	NO	MATTHEW.SWEET@FLEXIBLETECHNOLOGIES.COM			YES	 	
2962WTHRMF381CA	1313211091107	N010	ANTIMONY COMPOUNDS	TRI	2013	THERMAFLEX	381 CARWELLYN RD	ABBEVILLE	ABBEVILLE	SC	29620			YES	NO	NO	NO								326220						34.161963	-82.383829									SMITHS GROUP PLC		|SRNA:Production demands were increased this past year.	NO	MATTHEW.SWEET@FLEXIBLETECHNOLOGIES.COM			YES	 	
29560NNYPLHWY52	1313211355399	007440020	NICKEL	TRI	2013	NAN YA PLASTICS CORP AMERICA	140 E BEULAH RD	LAKE CITY	FLORENCE	SC	29560			YES	NO	NO	NO								325211	313111	313112	325222			33.834271	-79.763919	080625106								NAN YA PLASTICS CORP AMERICA		|W71:Improved cleaning methods will allow us to re-use the metal for longer periods of time.	NO	ENVIRONMENTAL@NALC.NPCAM.COM			YES	 	
29560NNYPLHWY52	1313211355351	007440473	CHROMIUM	TRI	2013	NAN YA PLASTICS CORP AMERICA	140 E BEULAH RD	LAKE CITY	FLORENCE	SC	29560			YES	NO	NO	NO								325211	313111	313112	325222			33.834271	-79.763919	080625106								NAN YA PLASTICS CORP AMERICA		|W71:Improved clening methods will allow us to re-use the metal for longer periods of time.	NO	ENVIRONMENTAL@NALC.NPCAM.COM			YES	 	
29690DMNDWPOBOX	1313211477272	007439921	LEAD	TRI	2013	SAINT-GOBAIN ABRASIVES INC	100 WILHELM WINTER ST	TRAVELERS REST	GREENVILLE	SC	29690			YES	NO	NO	NO								327910	333515	332813				34.95693	-82.44072	033546839								SAINT-GOBAIN CORP	001126234	|SRNA:The lead that is used is .35% of the steel we use to manufacture some of our products. The advantage is the machinability of that steel. If we change to non-leaded steel, quality may be impacted. Production Management is investigating alternative materials.	NO	WILLIAM.SEIBERLICH@SAINT-GOBAIN.COM			YES	 	
29115KYCRPHWY60	1313211133881	007440508	COPPER	TRI	2013	KOYO CORP OF USA	2850 MAGNOLIA ST	ORANGEBURG	ORANGEBURG	SC	29115			YES	NO	NO	NO								332991						33.521937	-80.843223	073723868								KOYO CORP OF USA		Looking to recycle the by products of our manufacturing	NO	JEFF.SHERRILL@JTEKT.COM			YES	 	
29115KYCRPHWY60	1313211133905	000067561	METHANOL	TRI	2013	KOYO CORP OF USA	2850 MAGNOLIA ST	ORANGEBURG	ORANGEBURG	SC	29115			YES	NO	NO	NO								332991						33.521937	-80.843223	073723868								KOYO CORP OF USA		Fugitive emission from storage containers	NO	JEFF.SHERRILL@JTEKT.COM			NO	 	
29115KYCRPHWY60	1313211133879	007440473	CHROMIUM	TRI	2013	KOYO CORP OF USA	2850 MAGNOLIA ST	ORANGEBURG	ORANGEBURG	SC	29115			YES	NO	NO	NO								332991						33.521937	-80.843223	073723868								KOYO CORP OF USA		Work in future to make by products of process more recycle friendly.|W15:better quality of process, and early detection of defects	NO	JEFF.SHERRILL@JTEKT.COM			YES	 	
29526HNYWL440AL	1313211074772	N090	CHROMIUM COMPOUNDS(EXCEPT CHROMITE ORE MINED IN THE TRANSVAAL REGION)	TRI	2013	METGLAS INC	440 ALLIED DR	CONWAY	HORRY	SC	29526			YES	NO	NO	NO								332999						33.79818	-78.99619	139727395								HITACHI METALS OF AMERICA LTD	070572482	|W89:We were able to use an outside scrap metal company to recycle our slag for 1415 pounds of Cr, zero pounds disposal. The slag is being used by outside smelting or melting facilities to recover the metal alloy.	NO	DODD.SMITH@METGLAS.COM			YES	 	
29526HNYWL440AL	1313211074808	007723140	PHOSPHORUS (YELLOW OR WHITE)	TRI	2013	METGLAS INC	440 ALLIED DR	CONWAY	HORRY	SC	29526			YES	NO	NO	NO								332999						33.79818	-78.99619	139727395								HITACHI METALS OF AMERICA LTD	070572482	|W89:Production inprovements have helped in reducing waste and recycling|T11:Internal recycling recovers all phosphorous in our melting process|T02:Local scrap dealer recycled the slag that contained 1,132 pounds of phosphorous. It is being recycled by melting or smelting to recover the metal alloy.	NO	DODD.SMITH@METGLAS.COM			NO	 	
29526HNYWL440AL	1313211074796	N495	NICKEL COMPOUNDS	TRI	2013	METGLAS INC	440 ALLIED DR	CONWAY	HORRY	SC	29526			YES	NO	NO	NO								332999						33.79818	-78.99619	139727395								HITACHI METALS OF AMERICA LTD	070572482	|W49:Production methos improvements reduced the amount of internal and external recycling.|W89:Local scrap dealer recycled 8,490 pounds of nickell alloy. It is being metal recovered by smelting or melting processes.	NO	DODD.SMITH@METGLAS.COM			YES	 	
29526HNYWL440AL	1313211074784	N096	COBALT COMPOUNDS	TRI	2013	METGLAS INC	440 ALLIED DR	CONWAY	HORRY	SC	29526			YES	NO	NO	NO								332999						33.79818	-78.99619	139727395								HITACHI METALS OF AMERICA LTD	070572482	|W49:Production improvements have been made to reduce the amount of waste and recycled cobalt|W89:Local scrap dealer has recycled 354 pounds of Cobalt. The alloy is being recyled by smelting or melting processes	NO	DODD.SMITH@METGLAS.COM			YES	 	
2915WBRGSS222DI	1313211249370	007439921	LEAD	TRI	2013	BURGESS BROGDON LLC - SUMTER	222 DINGLE ST	SUMTER	SUMTER	SC	29150			YES	NO	NO	NO								327320						33.914666	-80.346811									CONCRETE SUPPLY CO	024469637	The decrease in total releases is due to a decrease construction demand.	NO	JOHNIE.ALEXANDER@CONCRETESUPPLYCO.COM			YES	 	
2945WTTKLB413CA	1313211476155	007440508	COPPER	TRI	2013	KALIBURN INC	4130 CAROLINA COMMERCE PKWY	LADSON	CHARLESTON	SC	29456			YES	NO	NO	NO								332999						32.974331	-80.12451	156985186								THE LINCOLN ELECTRIC CO	071783596	|SRNA:Concern that product quality may decline as a result of source reduction.	NO	KEN_SKILES@LINCOLNELECTRIC.COM			YES	 	
2958WHSFRF1344B	1313211815764	007664417	AMMONIA	TRI	2013	HOUSE OF RAEFORD FARMS INC- HEMINGWAY DIV	1344 BATTERY PARK RD	NESMITH	WILLIAMSBURG	SC	29580			YES	NO	NO	NO								311615						33.72174	-79.57417	003199346								NASH JOHNSON & SONS FARMS INC	003199346	Personnel training	NO	ROBERT.FLAGLER@HOUSEOFRAEFORD.COM			NO	 	
29673DRVTM12MNA	1313211570229	N982	ZINC COMPOUNDS	TRI	2013	DRIVE AUTOMOTIVE INDUSTRIES OF AMERICA INC	120 MOON ACRES RD	PIEDMONT	GREENVILLE	SC	29673			YES	NO	NO	NO								336370						34.71834	-82.38311									MAGNA US HOLDING INC		We purchased less total metal but used the metal we did buy in a more productive way.	NO	FRANK.ERVIN@MAGNA.COM			YES	 	
29662QNTMC2GOLD	1313211590284	007664939	SULFURIC ACID (1994 AND AFTER "ACID AEROSOLS" ONLY)	TRI	2013	BASF CORP MAULDIN PLANT	1520 OLD STAGE RD	MAULDIN	GREENVILLE	SC	29662			YES	NO	NO	NO								325613						34.7683	-82.29793	058745894								BASF CORP	001307032	|T04:Added catch pot.	NO	NEV.LOCKWOOD@BASF.COM			NO	 	
29662QNTMC2GOLD	1313211590245	000107211	ETHYLENE GLYCOL	TRI	2013	BASF CORP MAULDIN PLANT	1520 OLD STAGE RD	MAULDIN	GREENVILLE	SC	29662			YES	NO	NO	NO								325613						34.7683	-82.29793	058745894								BASF CORP	001307032	|W13:Critical equipment now sent off for testing, calibration & certification.	NO	NEV.LOCKWOOD@BASF.COM			NO	 	
29662QNTMC2GOLD	1313211590272	000075569	PROPYLENE OXIDE	TRI	2013	BASF CORP MAULDIN PLANT	1520 OLD STAGE RD	MAULDIN	GREENVILLE	SC	29662			YES	NO	NO	NO								325613						34.7683	-82.29793	058745894								BASF CORP	001307032	|T10:Expanded LDAR program.	NO	NEV.LOCKWOOD@BASF.COM			NO	 	
29662QNTMC2GOLD	1313211590260	000067561	METHANOL	TRI	2013	BASF CORP MAULDIN PLANT	1520 OLD STAGE RD	MAULDIN	GREENVILLE	SC	29662			YES	NO	NO	NO								325613						34.7683	-82.29793	058745894								BASF CORP	001307032	|T04:Maximized collection of Methanol to be sold to re-use.	NO	NEV.LOCKWOOD@BASF.COM			NO	 	
29662QNTMC2GOLD	1313211590258	000075218	ETHYLENE OXIDE	TRI	2013	BASF CORP MAULDIN PLANT	1520 OLD STAGE RD	MAULDIN	GREENVILLE	SC	29662			YES	NO	NO	NO								325613						34.7683	-82.29793	058745894								BASF CORP	001307032	|T10:LDAR program increased.	NO	NEV.LOCKWOOD@BASF.COM			NO	 	
29662QNTMC2GOLD	1313211590221	N230	CERTAIN GLYCOL ETHERS	TRI	2013	BASF CORP MAULDIN PLANT	1520 OLD STAGE RD	MAULDIN	GREENVILLE	SC	29662			YES	NO	NO	NO								325613						34.7683	-82.29793	058745894								BASF CORP	001307032	|T04:Cycle optimization.	NO	NEV.LOCKWOOD@BASF.COM			NO	 	
29440VCHMCPENNY	1313211710328	000075092	DICHLOROMETHANE	TRI	2013	3V INC	888 WOODSTOCK ST	GEORGETOWN	GEORGETOWN	SC	294404789			YES	NO	NO	NO								325998						33.362222	-79.383056	009104381										Pressure testing on pipework was conducted towards the end of 2013. Process vent piping to the cryogenic condenser (on-stie recycling controlled monitored device) was found to have significant corrosion, leading to fugitive emissions.  This is the reason for increased fugitive losses from 2012-2013. The vent pipe has been replaced with stainless steal that will eliminate fugitive air emissions. I predict a reduction in total fugitive losses in 2014.	NO	K.WILLIAMS@3VUSA.COM			NO	 	
29440VCHMCPENNY	1313211710316	000062533	ANILINE	TRI	2013	3V INC	888 WOODSTOCK ST	GEORGETOWN	GEORGETOWN	SC	294404789			YES	NO	NO	NO								325998						33.362222	-79.383056	009104381										Aniline was eliminated as a reactant for one of our chemical manufacturing processes in 2013	NO	K.WILLIAMS@3VUSA.COM			NO	 	
29483BRTLNHWY61	1313211115795	007697372	NITRIC ACID	TRI	2013	BRITELINE EXTRUSIONS INC	575 BEECH HILL RD	SUMMERVILLE	DORCHESTER	SC	29485			YES	NO	NO	NO								331316						32.94969	-80.21306											We installed a larger scrubber.	NO	ELK@BRITELINE.NET			NO	 	
29678NGLHR554MO	1313211755285	007782505	CHLORINE	TRI	2013	BASF CORP	554 ENGELHARD DR	SENECA	OCONEE	SC	29678			YES	NO	NO	NO								325180	331492	325188				34.650437	-82.956115	157499179								BASF CORP	001307032	Site continues to optimize and improve its ability to recycle and recover precious metal.|SRNA:Chlorine is a by-product in various refining steps.	NO	FRANK.LAMSON-SCRIBNER@BASF.COM			NO	 	
29678NGLHR554MO	1313211755400	N511	NITRATE COMPOUNDS	TRI	2013	BASF CORP	554 ENGELHARD DR	SENECA	OCONEE	SC	29678			YES	NO	NO	NO								325180	331492	325188				34.650437	-82.956115	157499179								BASF CORP	001307032	Reduction in concentrations of nitrates measured in wastewater.  Cause is probably just due to the variability of wastewaters.|W81:N/A|T01:N/A	NO	FRANK.LAMSON-SCRIBNER@BASF.COM			NO	 	
29678NGLHR554MO	1313211755335	000302012	HYDRAZINE	TRI	2013	BASF CORP	554 ENGELHARD DR	SENECA	OCONEE	SC	29678			YES	NO	NO	NO								325180	331492	325188				34.650437	-82.956115	157499179								BASF CORP	001307032	Very conservative air emission estimated were made.  Site continues to improve its ability to  treat wastewater.	NO	FRANK.LAMSON-SCRIBNER@BASF.COM			NO	 	
29678NGLHR554MO	1313211755347	007647010	HYDROCHLORIC ACID (1995 AND AFTER "ACID AEROSOLS" ONLY)	TRI	2013	BASF CORP	554 ENGELHARD DR	SENECA	OCONEE	SC	29678			YES	NO	NO	NO								325180	331492	325188				34.650437	-82.956115	157499179								BASF CORP	001307032	Expect to be able to recycle some HCl in 2014.|SRNA:Increased production rates have strained resources available to recycle HCl.  HCl recovery/condensation is not efficient and reuse can create quality issues.	NO	FRANK.LAMSON-SCRIBNER@BASF.COM			NO	 	
29678NGLHR554MO	1313211755374	N420	LEAD COMPOUNDS	PBT	2013	BASF CORP	554 ENGELHARD DR	SENECA	OCONEE	SC	29678			YES	NO	NO	NO								325180	331492	325188				34.650437	-82.956115	157499179								BASF CORP	001307032	Site continues to optimize and improve its ability to recycle and recover precious metal.|SRNA:It is not possible to reduce lead content found in customer feed.	NO	FRANK.LAMSON-SCRIBNER@BASF.COM			YES	 	
29678NGLHR554MO	1313211755297	N100	COPPER COMPOUNDS	TRI	2013	BASF CORP	554 ENGELHARD DR	SENECA	OCONEE	SC	29678			YES	NO	NO	NO								325180	331492	325188				34.650437	-82.956115	157499179								BASF CORP	001307032	Site continues to improve its ability to remove copper compounds. from wastewater.	NO	FRANK.LAMSON-SCRIBNER@BASF.COM			YES	 	
29678NGLHR554MO	1313211755261	N040	BARIUM COMPOUNDS	TRI	2013	BASF CORP	554 ENGELHARD DR	SENECA	OCONEE	SC	29678			YES	NO	NO	NO								325180	331492	325188				34.650437	-82.956115	157499179								BASF CORP	001307032	Site continues to optimize and improve its ability to recycle and recover precious metal.|SRNA:It is not possible to reduce barium content found in customer feed.	NO	FRANK.LAMSON-SCRIBNER@BASF.COM			YES	 	
29678NGLHR554MO	1313211755323	000064186	FORMIC ACID	TRI	2013	BASF CORP	554 ENGELHARD DR	SENECA	OCONEE	SC	29678			YES	NO	NO	NO								325180	331492	325188				34.650437	-82.956115	157499179								BASF CORP	001307032	Site continues to improve its ability to  treat wastewater.	NO	FRANK.LAMSON-SCRIBNER@BASF.COM			NO	 	
29678NGLHR554MO	1313211755398	N495	NICKEL COMPOUNDS	TRI	2013	BASF CORP	554 ENGELHARD DR	SENECA	OCONEE	SC	29678			YES	NO	NO	NO								325180	331492	325188				34.650437	-82.956115	157499179								BASF CORP	001307032	Site continues to improve its ability to treat wastewater.|SRNA:Nickel content in feedstock cannot be controlled.	NO	FRANK.LAMSON-SCRIBNER@BASF.COM			YES	 	
29678NGLHR554MO	1313211755412	007697372	NITRIC ACID	TRI	2013	BASF CORP	554 ENGELHARD DR	SENECA	OCONEE	SC	29678			YES	NO	NO	NO								325180	331492	325188				34.650437	-82.956115	157499179								BASF CORP	001307032	Site has implemented more precise delivery methods and metering of nitric acid to reduce usage.|W49:N/A|T01:Opportunity for cost reduction.	NO	FRANK.LAMSON-SCRIBNER@BASF.COM			NO	 	
29349HDSNNCAMPT	1313211353180	007440020	NICKEL	TRI	2013	IWG HIGH PERFORMANCE CONDUCTORS INC	1570 CAMPTON RD	INMAN	SPARTANBURG	SC	29349			YES	NO	NO	NO								331420	331421					35.0288	-82.05741	001326115								INTERNATIONAL WIRE GROUP	883498446	|W68:Improvements on processes to reduce scrap|T05:Periodica Kaizan events to improve production and reduce scrap|W29:Reduction in inventory to reduce potential of aging to scrap.|T11:Constant QC on production to reduce scap	NO	TRAVIS.DALTON@IWGHPC.COM			YES	 	
29349HDSNNCAMPT	1313211353154	007440508	COPPER	TRI	2013	IWG HIGH PERFORMANCE CONDUCTORS INC	1570 CAMPTON RD	INMAN	SPARTANBURG	SC	29349			YES	NO	NO	NO								331420	331421					35.0288	-82.05741	001326115								INTERNATIONAL WIRE GROUP	883498446	|W29:Inventory reduction to keep less matarial on hand.  This reduces the chance raw matarials sit in storage and end up aging to the point of discard.|W68:Operational cleaning and rinsing improvements result in less scrap and contamination.|T06:Periodic Kaizan events to help with quality improvements and scrap reduction.	NO	TRAVIS.DALTON@IWGHPC.COM			YES	 	
29349HDSNNCAMPT	1313211353166	N106	CYANIDE COMPOUNDS	TRI	2013	IWG HIGH PERFORMANCE CONDUCTORS INC	1570 CAMPTON RD	INMAN	SPARTANBURG	SC	29349			YES	NO	NO	NO								331420	331421					35.0288	-82.05741	001326115								INTERNATIONAL WIRE GROUP	883498446	|W29:Inventory reductions to keep stock close to as needed basis.|T11:Constant QC checks to maintain operations and extend use.	NO	TRAVIS.DALTON@IWGHPC.COM			NO	 	
29349HDSNNCAMPT	1313211353204	007440224	SILVER	TRI	2013	IWG HIGH PERFORMANCE CONDUCTORS INC	1570 CAMPTON RD	INMAN	SPARTANBURG	SC	29349			YES	NO	NO	NO								331420	331421					35.0288	-82.05741	001326115								INTERNATIONAL WIRE GROUP	883498446	|W29:Inventory reductions to reduce aging of material and scrap|T11:Constant QC checks to maintain processes and reduce scrap	NO	TRAVIS.DALTON@IWGHPC.COM			YES	 	
29644HLLYK101CA	1313210907325	000050000	FORMALDEHYDE	TRI	2013	HOLLY OAK CHEMICAL INC	101 CASE ST	FOUNTAIN INN	GREENVILLE	SC	29644			YES	NO	NO	NO								325613						34.690556	-82.198611	040709680								HOLLYOAK CHEMICAL INC	040709680	|SRNA:Pollution prevention previously implemented- additional reduction does not appear technically or economically feasible	NO	JAMESC@HOLLYOAKCHEM.COM			NO	 	
29607RYMTL12MCD	1313211695008	N982	ZINC COMPOUNDS	TRI	2013	ROY METAL FINISHING CO INC	120 MCDOUGAL CT	GREENVILLE	GREENVILLE	SC	29607			YES	NO	NO	NO								332813						34.79403	-82.306946	003341849								ROY METAL FINISHING CO INC		Passivate renewal system to extend passivate life.	NO	JPAZDAN@ROYMETAL.COM			YES	 	
29520STNLY100ST	1313211556838	N495	NICKEL COMPOUNDS	TRI	2013	STANLEY WORKS INC TOOLS DIV	100 STANLEY DR	CHERAW	CHESTERFIELD	SC	29520			YES	NO	NO	NO								332212	332213	332813	332811	326199		34.682168	-79.894569	067012781								STANLEY BLACK & DECKER	001152461	Concentrated on maximizing capture of nickel in rinse water and returned it to the Nickel bath. the result was less need to add new nickel chip to the bath while discharging less.	NO	NICHOLAS.HOOGEWERFF@SBDINC.COM			YES	 	
29605NPPNC1250P	1313211138932	000100425	STYRENE	TRI	2013	NIPPON CARBIDE INDUSTRIES	1250 PERIMETER RD	GREENVILLE	GREENVILLE	SC	29605			YES	NO	NO	NO								325211						34.75676	-82.36087	015799463										|SRNA:Technology is not available.	NO	BSTEVES@NCI-SC.COM			NO	 	
29729GRDNN610LC	1313211450248	N420	LEAD COMPOUNDS	PBT	2013	GUARDIAN INDUSTRIES CORP	610 L&C RAILWAY DIST PK	RICHBURG	CHESTER	SC	29729			YES	NO	NO	NO								327211						34.706035	-81.000812	188861199								GUARDIAN INDUSTRIES CORP	054671169	|SRNA:It is a trace in our raw material.	NO	TWUNDERLICH@GUARDIAN.COM			YES	 	
29154CRSCN43486	1313211655752	007632000	SODIUM NITRITE	TRI	2013	APEX TOOL GROUP LLC SUMTER SC OPERATION	1150 CLIPPER RD	SUMTER	SUMTER	SC	29154			YES	NO	NO	NO								332216	331512					33.85435	-80.37842	963348037								APEX TOOL GROUP LLC	963348037	|SRNA:The sodium ions produced from rinsing hardening salts from the parts during processing is related to the amount of parts run and no options to reduce the quantity of ion produced is known to the site.	NO	MAC.SUMMERS@APEXTOOLGROUP.COM			YES	 	
29154CRSCN43486	1313211655749	000067561	METHANOL	TRI	2013	APEX TOOL GROUP LLC SUMTER SC OPERATION	1150 CLIPPER RD	SUMTER	SUMTER	SC	29154			YES	NO	NO	NO								332216	331512					33.85435	-80.37842	963348037								APEX TOOL GROUP LLC	963348037	|SRNA:Use of the chemical is directly tied to the amount produced and no other source of carbon can be used in our heat treat process,	NO	MAC.SUMMERS@APEXTOOLGROUP.COM			NO	 	
29207SRMYSESSAY	1313211412743	N420	LEAD COMPOUNDS	PBT	2013	US ARMY FORT JACKSON	2563 ESSAYONS WAY	FORT JACKSON	RICHLAND	SC	29207			YES	NO	YES	NO								928110						34.004167	-80.952222									US DEPARTMENT OF DEFENSE		|SRNA:The Lead Compound releases are a result of weapons firing activities at a U.S. Army installation. The only way to reduce the amount of the release is to reduce the amount of firing/training at the installation.	YES	BARBARA.WILLIAMS7@US.ARMY.MIL			YES	 	
29207SRMYSESSAY	1313211412756	000055630	NITROGLYCERIN	TRI	2013	US ARMY FORT JACKSON	2563 ESSAYONS WAY	FORT JACKSON	RICHLAND	SC	29207			YES	NO	YES	NO								928110						34.004167	-80.952222									US DEPARTMENT OF DEFENSE		|SRNA:Release reduction can only be achieved through reduced use of ammunition on the installation. This is a U.S. Army training facility.	YES	BARBARA.WILLIAMS7@US.ARMY.MIL			NO	 	
29207SRMYSESSAY	1313211412729	007440508	COPPER	TRI	2013	US ARMY FORT JACKSON	2563 ESSAYONS WAY	FORT JACKSON	RICHLAND	SC	29207			YES	NO	YES	NO								928110						34.004167	-80.952222									US DEPARTMENT OF DEFENSE		|SRNA:The release of copper is a result of firing weapons at ranges at US Army Training Installation. Source reduction can only be achieved if the number of rounds fired is reduced.	YES	BARBARA.WILLIAMS7@US.ARMY.MIL			YES	 	
29207SRMYSESSAY	1313211412731	007439921	LEAD	TRI	2013	US ARMY FORT JACKSON	2563 ESSAYONS WAY	FORT JACKSON	RICHLAND	SC	29207			YES	NO	YES	NO								928110						34.004167	-80.952222									US DEPARTMENT OF DEFENSE		|SRNA:The lead release originates from range firing activities at a U.S. Army training installation. The only way to significantly reduce the release would be to reduce the amount of ammunition fired.	YES	BARBARA.WILLIAMS7@US.ARMY.MIL			YES	 	
