Year,TRI Facility ID,Facility Name,Street Address,City,County,ST,ZIP,Latitude,Longitude,Primary SIC,SIC 2,SIC 3,SIC 4,SIC 5,SIC 6,Primary NAICS,NAICS 2,NAICS 3,NAICS 4,NAICS 5,NAICS 6,Doc_Ctrl_Num,Chemical,CAS #/Compound ID,Clean Air Act Chemical,Classification,Metal,Metal Category,Carcinogen,Form Type,Unit of Measure,5.1 Fugitive Air,5.2 Stack Air,5.3 Water,5.4.1 Underground Class I,5.4.2 Underground Class II-V,5.5.1A RCRA C Landfills,5.5.1B Other Landfills,5.5.2 Land Treatment,5.5.3 Surface Impoundment,5.5.3A RCRA C Surface Impoundment,5.5.3B Other Surface Impoundment,5.5.4 Other Disposal,On-site Release Total,6.1 POTW - Metals and Metal Compounds,6.1 POTW - Non-Metals,6.1 POTW - Total Transfers,6.2 M10,6.2 M41,6.2 M62,6.2 M71,6.2 M81,6.2 M82,6.2 M72,6.2 M63,6.2 M66,6.2 M67,6.2 M64,6.2 M65,6.2 M73,6.2 M79,6.2 M90,6.2 M94,6.2 M99,Off-Site Release Total,6.2 M20,6.2 M24,6.2 M26,6.2 M28,6.2 M93,Off-Site Recycled Total,6.2 M56,6.2 M92,Off-Site Recovery Total,6.2 M40,6.2 M50,6.2 M54,6.2 M61,6.2 M69,6.2 M95,Off-Site Treated Total,Total Releases,8.1 Releases,8.1a On-site Contained Releases,8.1b On-site Other Releases,8.1c Off-site Contained Releases,8.1d Off-site Other Releases,8.2 Energy Recovery On-site,8.3 Energy Recovery Off-site,8.4 Recycling On-Site,8.5 Recycling Off-Site,8.6 Treatment On-site,8.7 Treatement Off-site,Production Waste (8.1 thru 8.7),8.8 One-time Release,8.9 Production Ratio,Parent Company Name,Parent Company DB Number,3/3/2012 v10
1998,38501HRRSM2437H,HARRIS METALS CO LLC,2437 HILHAM RD,COOKEVILLE,PUTNAM,TN,38501,36.195074,-85.491467,3365,,,,,,331524,,,,,,1398120000841,ALUMINUM (FUME OR DUST),007429905,NO,NON-PBT,YES,4,NO,R,Pounds,750,0,0,0,0,0,0,0,0,0,0,0,750,0,0,0,0,0,0,0,0,0,0,0,0,0,0,0,0,0,0,0,0,0,0,0,0,0,0,0,0,0,0,0,0,0,0,0,0,0,750,900,0,0,0,0,0,0,0,0,0,0,900,0,1,NA,NA
1998,37091CSMLB1100G,COSMOLAB INC.,1100 GARRETT PKY.,LEWISBURG,MARSHALL,TN,370913541,35.42677,-86.75843,2844,,,,,,325620,,,,,,1398120076738,TOLUENE,000108883,YES,NON-PBT,NO,0,NO,R,Pounds,19500,0,0,0,0,0,0,0,0,0,0,0,19500,0,0,0,0,0,0,0,0,0,0,0,0,0,0,0,0,0,0,0,0,0,0,0,0,0,0,0,0,0,0,0,0,0,0,0,0,0,19500,19500,0,0,0,0,0,0,0,0,0,0,19500,0,.83,NEWELL CO,161403852
1998,37857STVJHOLDHW,US TVA JOHN SEVIER FOSSIL PLANT,611 OLD HWY 70,ROGERSVILLE,HAWKINS,TN,37857,36.376667,-82.963056,4911,,,,,,221112,,,,,,1398120106428,NICKEL COMPOUNDS,N495,YES,NON-PBT,YES,1,NO,R,Pounds,5,250,250,0,0,0,11000,0,18000,0,0,0,29505,0,0,0,0,0,0,0,0,0,0,0,0,0,0,0,0,5,0,0,0,5,0,0,0,0,0,0,0,0,0,0,0,0,0,0,0,0,29510,29000,0,0,0,0,0,0,0,0,0,0,29000,0,0,US TENNESSEE VALLEY AUTHORITY,NA
1998,37211CMLLY481AL,A SCHULMAN INC NASHVILLE PLANT,481 ALLIED DR,NASHVILLE,DAVIDSON,TN,37211,36.09633,-86.74629,3087,,,,,,325991,,,,,,1398120008836,ANTIMONY,007440360,YES,NON-PBT,YES,1,NO,R,Pounds,0,5,0,0,0,0,0,0,0,0,0,0,5,0,0,0,0,0,0,0,0,0,0,0,0,0,0,0,0,26,0,0,0,26,0,0,0,0,0,0,0,0,0,0,0,0,0,0,0,0,31,26,0,0,0,0,0,0,0,0,0,0,26,0,.01,A SCHULMAN INC,006998413
1998,38108VLSCL1100W,VELSICOL CHEMICAL LLC,1199 WARFORD ST,MEMPHIS,SHELBY,TN,38108,35.165278,-89.96527,2869,,,,,,325320,,,,,,1398120130568,BENZYL CHLORIDE,000100447,YES,NON-PBT,NO,0,NO,R,Pounds,0,0,0,0,0,0,0,0,0,0,0,0,0,0,0,0,0,0,0,0,0,0,0,0,0,0,0,0,0,0,0,0,0,0,0,0,0,0,0,0,0,0,0,0,0,0,0,0,0,0,0,0,0,0,0,0,0,0,0,0,766,0,766,0,1.41,NA,NA
1998,38108VLSCL1100W,VELSICOL CHEMICAL LLC,1199 WARFORD ST,MEMPHIS,SHELBY,TN,38108,35.165278,-89.96527,2869,,,,,,325199,,,,,,1398120130618,HEXACHLOROBENZENE,000118741,YES,PBT,NO,0,YES,R,Pounds,12,0,0,0,0,96,0,0,0,0,0,0,108,0,0,0,0,0,0,0,0,0,0,0,0,0,0,0,0,0,0,0,0,0,0,0,0,0,0,0,0,0,0,96,2740,0,0,0,0,2836,108,12,0,0,0,0,0,0,0,0,142457,2836,145305,0,.95,NA,NA
1998,37311MGCCH740KI,MAYTAG CORP CLEVELAND COOKING PRODUCTS PLANT 1,740 KING EDWARD AVE SE,CLEVELAND,BRADLEY,TN,37311,35.152502,-84.874182,3631,,,,,,335221,,,,,,1398120150584,NITRATE COMPOUNDS,N511,NO,NON-PBT,NO,0,NO,R,Pounds,0,0,0,0,0,0,0,0,0,0,0,0,0,0,1774,1774,0,0,0,0,0,0,9,0,0,0,0,0,0,0,0,0,0,9,0,0,0,0,0,0,0,0,0,0,0,0,0,0,0,0,9,1783,0,0,0,0,0,0,0,0,0,0,1783,0,1.14,MAYTAG CORP,005285689
1998,37167NSSNMNISSA,NISSAN NA INC SMYRNA MANUFACTURING PLANT,983 NISSAN DR,SMYRNA,RUTHERFORD,TN,37167,35.96285,-86.49536,3711,,,,,,336111,,,,,,1398120035035,CYCLOHEXANE,000110827,NO,NON-PBT,NO,0,NO,R,Pounds,23,0,0,0,0,0,0,0,0,0,0,0,23,0,0,0,0,0,0,0,0,0,0,0,0,0,0,0,0,0,0,0,0,0,0,0,0,0,0,0,10,0,10,0,0,0,0,0,0,0,23,23,0,0,0,0,0,10,0,0,0,0,33,0,.78,NISSAN MOTOR LTD,NA
1998,37167NSSNMNISSA,NISSAN NA INC SMYRNA MANUFACTURING PLANT,983 NISSAN DR,SMYRNA,RUTHERFORD,TN,37167,35.96285,-86.49536,3711,,,,,,336111,,,,,,1398120035136,METHYL TERT-BUTYL ETHER,001634044,YES,NON-PBT,NO,0,NO,R,Pounds,236,0,0,0,0,0,0,0,0,0,0,0,236,0,0,0,0,0,0,0,0,0,0,0,0,0,0,0,0,0,0,0,0,0,0,0,0,0,0,0,153,0,153,0,0,0,0,0,0,0,236,236,0,0,0,0,0,153,0,0,0,0,389,0,.78,NISSAN MOTOR LTD,NA
1998,37167NSSNMNISSA,NISSAN NA INC SMYRNA MANUFACTURING PLANT,983 NISSAN DR,SMYRNA,RUTHERFORD,TN,37167,35.96285,-86.49536,3711,,,,,,336000,,,,,,1398120035187,PHOSPHORIC ACID,007664382,NO,NON-PBT,NO,0,NO,R,Pounds,250,0,0,0,0,0,0,0,0,0,0,0,250,0,0,0,0,0,0,0,0,0,0,0,0,0,0,0,0,0,0,0,0,0,0,0,0,0,0,0,0,0,0,0,0,0,0,0,0,0,250,250,0,0,0,0,0,0,0,0,64186,0,64436,0,.78,NISSAN MOTOR LTD,NA
1998,37055FBRGLROUTE,FIBERGLASS WORKS INC,2111 HWY 47 E,DICKSON,DICKSON,TN,37055,36.059388,-87.336226,3732,,,,,,336612,,,,,,1398120058918,STYRENE,000100425,YES,NON-PBT,NO,0,YES,R,Pounds,0,1146,0,0,0,0,0,0,0,0,0,0,1146,0,0,0,0,0,0,0,0,0,0,0,0,0,0,0,0,0,0,0,0,0,0,0,0,0,0,0,0,0,0,0,0,0,0,0,0,0,1146,1146,0,0,0,0,0,0,0,0,0,0,1146,0,.51,NA,NA
1998,37066STVGL1499S,US TVA GALLATIN FOSSIL PLANT,1499 STEAM PLANT RD,GALLATIN,SUMNER,TN,370668714,36.315278,-86.400278,4911,,,,,,221112,,,,,,1398120140999,BARIUM COMPOUNDS,N040,NO,NON-PBT,YES,3,NO,R,Pounds,5,2900,22000,0,0,0,0,0,540000,0,0,120000,684905,0,0,0,0,0,0,0,0,0,0,0,0,0,0,0,0,2750,0,0,0,2750,0,0,0,0,0,0,0,0,0,0,0,0,0,0,0,0,687655,690000,0,0,0,0,0,0,0,0,0,0,690000,0,0,US TENNESSEE VALLEY AUTHORITY,NA
1998,37324NSSNP520WA,NISSAN NORTH AMERICA INC,520 WARREN CHAPEL RD,DECHERD,FRANKLIN,TN,37324,35.2278,-86.05333,3714,,,,,,336312,,,,,,1398120062664,METHYL TERT-BUTYL ETHER,001634044,YES,NON-PBT,NO,0,NO,R,Pounds,31,0,0,0,0,0,0,0,0,0,0,0,31,0,0,0,0,0,0,0,0,0,0,0,0,0,0,0,0,0,0,0,0,0,0,0,0,0,0,0,0,0,0,0,0,0,0,0,0,0,31,31,0,0,0,0,0,0,0,0,0,0,31,0,1.65,NISSAN MOTOR LTD,009602533
1998,38340GRNNL2870O,ANVIL INTERNATIONAL,2870 OLD JACKSON RD,HENDERSON,CHESTER,TN,38340,35.473756,-88.692336,3498,3469,3441,,,,332999,,,,,,1398120062714,MANGANESE,007439965,YES,NON-PBT,YES,1,NO,R,Pounds,5,0,0,0,0,0,0,0,0,0,0,0,5,0,0,0,0,0,0,0,0,0,250,0,0,0,0,0,0,0,0,0,0,250,0,0,0,0,0,0,0,0,0,0,0,0,0,0,0,0,255,65,0,0,0,0,0,0,0,31000,0,0,31065,0,1.02,MUELLER WATER PRODUCTS INC,003501079
1998,37871SRCNC1977W,NYSTAR - YOUNG MINE & MILL,1977 W HWY 11E,NEW MARKET,JEFFERSON,TN,37820,36.065167,-83.67353,1031,,,,,,212231,,,,,,1398120117662,CADMIUM COMPOUNDS,N078,YES,NON-PBT,YES,1,NO,R,Pounds,1,0,6,0,0,0,0,0,5,0,0,3851,3863,0,0,0,0,0,0,0,0,0,0,0,0,0,0,0,0,0,0,0,0,0,0,0,0,0,0,0,0,0,0,0,0,0,0,0,0,0,3863,3868,0,0,0,0,0,0,0,0,0,0,3868,0,0,NA,NA
1998,38301JMSRV727AN,PRINTPACK INC.,727 ANGLIN LN.,JACKSON,MADISON,TN,383015628,35.632688,-88.907962,2752,2754,,,,,322223,,,,,,1398120107103,AMMONIA,007664417,NO,NON-PBT,NO,0,NO,R,Pounds,9583,0,0,0,0,0,0,0,0,0,0,0,9583,0,2257,2257,0,0,0,0,0,0,0,0,0,0,0,0,0,0,0,0,0,0,0,0,0,0,0,0,0,0,0,0,0,0,0,0,0,0,9583,11840,0,0,0,0,0,0,0,0,0,2257,14097,0,.96,PRINTPACK INC,003274545
1998,37363PWRSR9404O,HAWKER POWEROURCE INC,9404 OOLTEWAH INDUSTRIAL DR,OOLTEWAH,HAMILTON,TN,37363,35.077091,-85.059288,3691,,,,,,335911,,,,,,1398120029020,ANTIMONY,007440360,YES,NON-PBT,YES,1,NO,R,Pounds,0,0,0,0,0,0,0,0,0,0,0,0,0,0,0,0,0,0,0,0,0,0,0,0,0,0,0,0,0,0,0,0,0,0,0,30735,0,0,0,30735,0,0,0,0,0,0,0,0,0,0,0,0,0,0,0,0,0,0,0,30735,0,0,30735,0,1.16,ENERSYS,052412533
1998,37066STVGL1499S,US TVA GALLATIN FOSSIL PLANT,1499 STEAM PLANT RD,GALLATIN,SUMNER,TN,370668714,36.315278,-86.400278,4911,,,,,,221112,,,,,,1398120141054,NICKEL COMPOUNDS,N495,YES,NON-PBT,YES,1,NO,R,Pounds,0,250,2700,0,0,0,0,0,51000,0,0,7700,61650,0,0,0,0,0,0,0,0,0,5,0,0,0,0,0,0,760,0,0,0,765,0,250,0,0,0,250,0,0,0,0,0,0,0,0,0,0,62415,62000,0,0,0,0,0,0,0,13,0,0,62013,0,0,US TENNESSEE VALLEY AUTHORITY,NA
1998,37066STVGL1499S,US TVA GALLATIN FOSSIL PLANT,1499 STEAM PLANT RD,GALLATIN,SUMNER,TN,370668714,36.315278,-86.400278,4911,,,,,,221112,,,,,,1398120141104,N-HEXANE,000110543,YES,NON-PBT,NO,0,NO,R,Pounds,250,250,0,0,0,0,0,0,0,0,0,0,500,0,0,0,0,0,0,0,0,0,0,0,0,0,0,0,0,0,0,0,0,0,0,0,0,0,0,0,0,0,0,0,0,0,0,0,0,0,500,510,0,0,0,0,0,0,0,0,0,0,510,0,0,US TENNESSEE VALLEY AUTHORITY,NA
1998,37398CKRNDRTE3B,TEPRO INC,590 BAXTER LN,WINCHESTER,FRANKLIN,TN,37398,35.19562,-86.082193,3069,,,,,,326291,,,,,,1398120089267,METHYL ETHYL KETONE,000078933,NO,NON-PBT,NO,0,NO,R,Pounds,6700,45000,0,0,0,0,0,0,0,0,0,0,51700,0,0,0,0,0,0,0,0,0,0,0,0,0,0,0,0,0,0,0,0,0,0,0,0,0,0,0,23752,0,23752,0,0,0,0,0,0,0,51700,51700,0,0,0,0,0,23800,0,0,0,0,75500,0,55.47,NA,NA
1998,38562RQPCRHWY53,EATON AEROQUIP LLC,1107 N GRUNDY QUARLES HWY,GAINESBORO,JACKSON,TN,38562,36.378357,-85.639904,3351,,,,,,332721,,,,,,1398120135052,MANGANESE,007439965,YES,NON-PBT,YES,1,NO,R,Pounds,0,0,0,0,0,0,0,0,0,0,0,0,0,0,0,0,0,0,0,0,0,0,0,0,0,0,0,0,0,0,0,0,0,0,0,71609,0,0,0,71609,0,0,0,0,0,0,0,0,0,0,0,0,0,0,0,0,0,0,0,71609,0,0,71609,0,.96,EATON CORP,004155818
1998,37091TLDYN1425H,TELEDYNE EMS,1425 HIGGS RD,LEWISBURG,MARSHALL,TN,37091,35.429021,-86.762435,3571,3679,3699,,,,334111,,,,,,1398120009939,"ISOPROPYL ALCOHOL (MANUFACTURING,STRONG-ACID PROCESS ONLY,NO SUPPLIER)",000067630,NO,NON-PBT,NO,0,NO,R,Pounds,16500,0,0,0,0,0,0,0,0,0,0,0,16500,0,0,0,0,0,0,0,0,0,0,0,0,0,0,0,0,0,0,0,0,0,0,0,0,0,0,0,0,0,0,0,0,0,0,0,0,0,16500,16500,0,0,0,0,0,0,0,0,0,0,16500,0,1.4,TELEDYNE TECHNOLOGIES INC,009578113
1998,37086WHRLP1714H,WHIRLPOOL CORP,1714 HEIL QUAKER BLVD,LA VERGNE,DAVIDSON,TN,37086,36.023056,-86.602222,3585,3634,3632,,,,333415,,,,,,1398120070646,"1,1-DICHLORO-1-FLUOROETHANE",001717006,NO,NON-PBT,NO,0,NO,R,Pounds,750,8000,0,0,0,0,0,0,0,0,0,0,8750,0,0,0,0,0,0,0,0,0,0,0,0,0,0,0,0,0,0,0,0,0,0,0,0,0,4600,4600,0,0,0,0,0,0,0,0,0,0,8750,8900,0,0,0,0,0,0,0,4600,0,0,13500,0,1.3,WHIRLPOOL CORP,001288075
1998,38017CRRRC975BY,UNITED TECHNOLOGIES - CARRIER,97 S BYHALIA RD,COLLIERVILLE,SHELBY,TN,38017,35.04333,-89.69041,3585,3499,,,,,333415,,,,,,1398120026190,DIBUTYL PHTHALATE,000084742,YES,NON-PBT,NO,0,NO,R,Pounds,250,11701,0,0,0,0,0,0,0,0,0,0,11951,0,5,5,0,0,0,0,0,0,0,0,0,0,0,0,0,0,0,0,0,0,0,0,0,0,0,0,0,0,0,0,0,250,0,0,0,250,11951,11701,0,0,0,0,0,0,0,523,0,302,12526,0,1.15,UNITED TECHNOLOGIES CORP,001344142
1998,38462BSTNNSWANA,OLIVER FIBERGLASS PRODUCTS,609 SWAN AVE,HOHENWALD,LEWIS,TN,38462,35.562011,-87.53065,3052,,,,,,326220,,,,,,1398120107370,SODIUM NITRITE,007632000,NO,NON-PBT,YES,2,NO,R,Pounds,250,16000,0,0,0,0,0,0,0,0,0,0,16250,0,250,250,0,0,0,0,0,0,0,0,0,0,0,0,0,0,0,0,0,0,0,0,0,0,0,0,0,0,0,0,0,1400,0,0,0,1400,16250,16000,0,0,0,0,0,0,0,0,0,1400,17400,0,.93,NA,NA
1998,38019DLFLD1DELF,DELFIELD CO,1 DELFIELD DR,COVINGTON,TIPTON,TN,38019,35.5393,-89.64946,3585,,,,,,333415,,,,,,1398120053196,NICKEL,007440020,YES,NON-PBT,YES,1,YES,R,Pounds,5,5,0,0,0,0,0,0,0,0,0,0,10,0,0,0,0,0,0,0,0,0,0,0,0,0,0,0,0,250,0,0,0,250,0,0,0,0,83180,83180,0,0,0,0,0,0,0,0,0,0,260,49,0,0,0,0,0,0,0,83180,0,0,83229,0,.99,THE MANITOWOC CO INC,006073183
1998,38106XXNCS454WI,EXXON MOBIL CORP MEMPHIS TERMINAL,454 WISCONSIN AVE,MEMPHIS,SHELBY,TN,38106,35.120176,-90.07534,5171,,,,,,424710,,,,,,1398120097718,ETHYLBENZENE,000100414,YES,NON-PBT,NO,0,NO,R,Pounds,250,250,0,0,0,0,0,0,0,0,0,0,500,0,0,0,0,0,0,0,0,0,0,0,0,0,0,0,0,0,0,0,0,0,0,0,0,0,0,0,0,0,0,0,0,0,0,0,0,0,500,190,0,0,0,0,0,0,0,0,0,0,190,0,0,EXXON MOBIL CORP,001213214
1998,37015TRTNB15BLU,TRITON BOAT CO LLC,15 BLUEGRASS RD,ASHLAND CITY,CHEATHAM,TN,37015,36.228163,-87.01491,3732,,,,,,336612,,,,,,1398120135189,DIISOCYANATES,N120,YES,NON-PBT,NO,0,NO,R,Pounds,1,0,0,0,0,0,0,0,0,0,0,0,1,0,0,0,0,0,0,0,0,0,0,0,0,0,0,0,0,0,0,0,0,0,0,0,0,0,0,0,0,0,0,0,0,0,0,0,0,0,1,1,0,0,0,0,0,0,0,0,0,0,1,0,2.6,BRUNSWICK CORP,NA
1998,37072PRFCT213CO,PERFECTION MOLDERS,213 CONNELL ST,GOODLETTSVILLE,DAVIDSON,TN,37072,36.32563,-86.71014,3365,3366,3369,,,,331524,,,,,,1398120018421,ZINC COMPOUNDS,N982,NO,NON-PBT,YES,1,NO,R,Pounds,323,0,0,0,0,0,0,0,0,0,0,0,323,0,0,0,0,0,0,0,0,0,0,0,0,0,0,0,0,0,0,0,0,0,0,10614,0,0,0,10614,0,0,0,0,0,0,0,0,0,0,323,323,0,0,0,0,0,0,3230,10614,0,0,14167,0,.93,NA,NA
1998,37406WRGRC4000N,WR GRACE - CHATTANOOGA,4000 N HAWTHORNE ST,CHATTANOOGA,HAMILTON,TN,37406,35.081032,-85.25592,2819,,,,,,325188,,,,,,1398120088075,COPPER,007440508,NO,NON-PBT,YES,1,NO,R,Pounds,47,0,0,0,0,0,0,0,0,0,0,0,47,21,0,21,0,0,0,0,0,0,0,0,0,0,0,0,0,0,0,0,0,0,0,0,0,0,0,0,0,0,0,0,0,0,0,0,0,0,68,68,0,0,0,0,0,0,1300,0,0,0,1368,0,1.3,W R GRACE & CO,003093606
1998,37406WRGRC4000N,WR GRACE - CHATTANOOGA,4000 N HAWTHORNE ST,CHATTANOOGA,HAMILTON,TN,37406,35.081032,-85.25592,2819,,,,,,325188,,,,,,1398120088149,CHROMIUM COMPOUNDS(EXCEPT CHROMITE ORE MINED IN THE TRANSVAAL REGION),N090,YES,NON-PBT,YES,1,NO,R,Pounds,0,10,0,0,0,0,0,0,0,0,0,0,10,0,0,0,0,270,120,0,0,0,5000,0,0,0,0,0,0,0,0,0,0,5390,0,0,0,0,0,0,0,0,0,0,0,0,0,0,0,0,5400,5400,0,0,0,0,0,0,0,0,0,0,5400,0,0,W R GRACE & CO,003093606
1998,37406PLYSR3805A,BASF CORP,32 LOST MOUND DR,CHATTANOOGA,HAMILTON,TN,37406,35.095909,-85.258568,2822,,,,,,325212,,,,,,1398120031909,AMMONIA,007664417,NO,NON-PBT,NO,0,NO,R,Pounds,1180,0,0,0,0,0,0,0,0,0,0,0,1180,0,5710,5710,0,0,0,0,0,0,130,0,0,0,0,0,0,0,0,0,0,130,0,0,0,0,0,0,0,0,0,0,0,0,670,0,0,670,1310,1310,0,0,0,0,0,0,0,0,0,6380,7690,0,.94,BASF CORP,001307032
1998,37204CCCLB407CR,COCA-COLA BOTTLING CO CONSOLIDATED OF NASHVILLE,407 CRAIGHEAD ST,NASHVILLE,DAVIDSON,TN,37204,36.125799,-86.766231,2086,,,,,,312111,,,,,,1398120120136,PHOSPHORIC ACID,007664382,NO,NON-PBT,NO,0,NO,R,Pounds,0,0,0,0,0,0,0,0,0,0,0,0,0,0,1293,1293,0,0,0,0,0,0,0,0,0,0,0,0,0,0,0,0,0,0,0,0,0,0,0,0,0,0,0,0,0,0,0,0,0,0,0,0,0,0,0,0,0,0,0,0,0,1293,1293,0,1.15,COCA-COLA BOTTLING CO CONSOLIDATED,057931230
1998,37814LNDST1600W,LEA INDUSTRIES INC,1600 W. MORRIS BLVD.,MORRISTOWN,HAMBLEN,TN,37814,36.203054,-83.309497,2511,,,,,,337122,,,,,,1398120057284,METHYL ETHYL KETONE,000078933,NO,NON-PBT,NO,0,NO,R,Pounds,677,21902,0,0,0,0,0,0,0,0,0,0,22579,0,0,0,0,0,0,0,0,0,0,0,0,0,0,0,0,0,0,0,0,0,0,0,0,0,0,0,5645,0,5645,0,0,0,0,0,0,0,22579,28224,0,0,0,0,0,5645,0,0,0,0,33869,0,0,LA-Z-BOY INC,005042841
1998,37716STVBL1265E,US TVA BULL RUN FOSSIL PLANT,1265 EDGEMOOR RD,CLINTON,ANDERSON,TN,37716,36.020556,-84.1575,4911,,,,,,221112,,,,,,1398120149873,COPPER COMPOUNDS,N100,NO,NON-PBT,YES,1,NO,R,Pounds,5,250,4500,0,0,0,9000,0,25000,0,0,0,38755,0,0,0,0,0,0,0,0,0,0,0,0,0,0,0,0,34025,0,0,0,34025,0,0,0,0,0,0,0,0,0,0,0,0,0,0,0,0,72780,72000,0,0,0,0,0,0,0,0,0,0,72000,0,0,US TENNESSEE VALLEY AUTHORITY,NA
1998,37716STVBL1265E,US TVA BULL RUN FOSSIL PLANT,1265 EDGEMOOR RD,CLINTON,ANDERSON,TN,37716,36.020556,-84.1575,4911,,,,,,221112,,,,,,1398120149935,HYDROGEN FLUORIDE,007664393,YES,NON-PBT,NO,0,NO,R,Pounds,5,310000,0,0,0,0,0,0,0,0,0,0,310005,0,0,0,0,0,0,0,0,0,0,0,0,0,0,0,0,0,0,0,0,0,0,0,0,0,0,0,0,0,0,0,0,0,0,0,0,0,310005,310000,0,0,0,0,0,0,0,0,0,0,310000,0,0,US TENNESSEE VALLEY AUTHORITY,NA
1998,37921XXNCS5009M,EXXONMOBIL CORP KNOXVILLE TERMINAL,5009 MIDDLEBROOK PIKE,KNOXVILLE,KNOX,TN,37921,35.9644,-83.9991,5171,,,,,,424710,,,,,,1398120097821,METHYL TERT-BUTYL ETHER,001634044,YES,NON-PBT,NO,0,NO,R,Pounds,750,1000,0,0,0,0,0,0,0,0,0,0,1750,0,0,0,0,0,0,0,0,0,0,0,0,0,0,0,0,0,0,0,0,0,0,0,0,0,0,0,0,0,0,0,250,0,0,0,0,250,1750,1700,0,0,0,0,0,0,0,0,0,14,1714,25,0,EXXONMOBIL CORP,001213214
1998,38108BCKMN1256N,BUCKMAN LABORATORIES INC,1256 N MCLEAN BLVD,MEMPHIS,SHELBY,TN,38108,35.168333,-89.995556,2899,2819,2879,,,,325998,,,,,,1398120118649,ACRYLAMIDE,000079061,YES,NON-PBT,NO,0,YES,R,Pounds,5,250,0,0,0,0,0,0,0,0,0,0,255,0,250,250,250,0,0,0,0,0,5,0,0,0,0,0,0,0,0,0,0,255,0,0,0,0,0,0,0,0,0,0,0,0,0,0,0,0,510,164,0,0,0,0,0,0,0,0,0,350,514,0,.91,BUCKMAN LABORATORIES INC,NA
1998,38109STVLL2574P,US TVA ALLEN FOSSIL PLANT,2574 PLANT RD,MEMPHIS,SHELBY,TN,38109,35.073611,-90.148889,4911,,,,,,221112,,,,,,1398120107887,"HYDROCHLORIC ACID (1995 AND AFTER ""ACID AEROSOLS"" ONLY)",007647010,YES,NON-PBT,NO,0,NO,R,Pounds,5,99000,0,0,0,0,0,0,0,0,0,0,99005,0,0,0,0,0,0,0,0,0,0,0,0,0,0,0,0,0,0,0,0,0,0,0,0,0,0,0,0,0,0,0,0,0,0,0,0,0,99005,99000,0,0,0,0,0,0,0,0,11000,0,110000,0,0,US TENNESSEE VALLEY AUTHORITY,NA
1998,38002LLSTT11154,ALLSTATES FABRICATING CO.,11154 HWY. 64,ARLINGTON,SHELBY,TN,38002,35.209739,-89.691523,3535,3449,,,,,333922,,,,,,1398120052055,XYLENE (MIXED ISOMERS),001330207,YES,NON-PBT,NO,0,NO,R,Pounds,29529,0,0,0,0,0,0,0,0,0,0,2343,31872,0,0,0,0,0,0,0,0,0,0,0,0,0,0,0,0,0,0,0,0,0,2393,0,0,0,0,2393,0,0,0,0,0,0,0,0,0,0,31872,29529,0,0,0,0,0,2393,0,0,0,0,31922,0,3.98,ALLSTATES COS INC,NA
1998,37763STVKNSWANP,US TVA KINGSTON FOSSIL PLANT,714 SWAN POND RD,HARRIMAN,ROANE,TN,37748,35.925445,-84.548514,4911,,,,,,221112,,,,,,1398120150038,HYDROGEN FLUORIDE,007664393,YES,NON-PBT,NO,0,NO,R,Pounds,5,600000,0,0,0,0,0,0,0,0,0,0,600005,0,0,0,0,0,0,0,0,0,0,0,0,0,0,0,0,0,0,0,0,0,0,0,0,0,0,0,0,0,0,0,0,0,0,0,0,0,600005,600000,0,0,0,0,0,0,0,0,0,0,600000,0,0,US TENNESSEE VALLEY AUTHORITY,NA
1998,37763STVKNSWANP,US TVA KINGSTON FOSSIL PLANT,714 SWAN POND RD,HARRIMAN,ROANE,TN,37748,35.925445,-84.548514,4911,,,,,,221112,,,,,,1398120150103,N-HEXANE,000110543,YES,NON-PBT,NO,0,NO,R,Pounds,250,250,0,0,0,0,0,0,0,0,0,0,500,0,0,0,0,0,0,0,0,0,0,0,0,0,0,0,0,0,0,0,0,0,0,0,0,0,0,0,0,0,0,0,0,0,0,0,0,0,500,510,0,0,0,0,0,0,0,0,0,0,510,0,0,US TENNESSEE VALLEY AUTHORITY,NA
1998,37744PHLPS1515I,CIRCUIT SYS. OF TENNESSEE L.P.,1515 INDUSTRIAL RD.,GREENEVILLE,GREENE,TN,37745,36.18259,-82.80508,3672,,,,,,334412,,,,,,1398120135759,CHLORINE,007782505,YES,NON-PBT,NO,0,NO,R,Pounds,0,250,0,0,0,0,0,0,0,0,0,0,250,0,0,0,0,0,0,0,0,0,0,0,0,0,0,0,0,0,0,0,0,0,0,0,0,0,0,0,0,0,0,0,0,0,0,0,0,0,250,15,0,0,0,0,0,0,0,0,0,0,15,0,1.03,CIRCUIT SYS INC,046576526
1998,37821NWPRTROUTE,ACE PRODUCTS LLC,850 INDUSTRIAL RD,NEWPORT,COCKE,TN,37821,36.021531,-83.206793,3069,,,,,,326211,,,,,,1398120081791,THIRAM,000137268,NO,NON-PBT,NO,0,NO,R,Pounds,0,0,0,0,0,0,0,0,0,0,0,0,0,0,0,0,0,0,0,0,0,0,180,0,0,0,0,0,0,0,0,0,0,180,0,0,0,0,0,0,0,0,0,0,0,0,0,0,0,0,180,180,0,0,0,0,0,0,0,0,0,0,180,0,.78,SAR HOLDINGS 1 LLC,NA
1998,38127DPNTM2571F,DUPONT MEMPHIS PLANT,2571 FITE RD,MEMPHIS,SHELBY,TN,381271940,35.272131,-89.978988,2819,2813,2869,2842,,,325188,,,,,,1398120140405,CYANIDE COMPOUNDS,N106,YES,NON-PBT,NO,0,NO,R,Pounds,117,372,1,0,0,0,0,0,0,0,0,0,490,0,2676,2676,0,0,0,0,0,0,72,0,0,0,0,0,0,0,0,0,0,72,0,0,0,0,0,0,0,0,0,0,1982,0,0,0,0,1982,562,562,0,0,0,0,0,0,0,0,132354,4658,137574,0,.82,E I DU PONT DE NEMOURS & CO INC,001315704
1998,38109NTDPN404EM,SHERWIN-WILLIAMS CO,404 E MALLORY AVE,MEMPHIS,SHELBY,TN,38109,35.086372,-90.050016,2851,,,,,,325510,,,,,,1398120110390,METHYL ETHYL KETONE,000078933,NO,NON-PBT,NO,0,NO,R,Pounds,254,1018,0,0,0,0,0,0,0,0,0,0,1272,0,0,0,0,0,0,0,0,0,0,0,0,0,0,0,0,0,0,0,0,0,0,0,0,0,0,0,70,0,70,0,0,0,0,0,0,0,1272,1272,0,0,0,0,0,70,417,0,0,0,1759,0,1.37,THE SHERWIN WILLIAMS CO,004206397
1998,38108BCKMN1256N,BUCKMAN LABORATORIES INC,1256 N MCLEAN BLVD,MEMPHIS,SHELBY,TN,38108,35.168333,-89.995556,2899,2819,2879,,,,325998,,,,,,1398120118690,CERTAIN GLYCOL ETHERS,N230,YES,NON-PBT,NO,0,NO,R,Pounds,5,250,0,0,0,0,0,0,0,0,0,0,255,0,250,250,25168,0,0,0,0,0,5,0,0,0,0,0,0,0,0,0,0,25173,0,0,0,0,0,0,0,0,0,0,0,0,0,0,0,0,25428,33,0,0,0,0,0,0,0,0,0,25168,25201,0,.75,BUCKMAN LABORATORIES INC,NA
1998,37055WBSHLSOUTH,WABASH ALLOYS LLC,600 PRINTWOOD DR,DICKSON,DICKSON,TN,37055,36.045416,-87.349059,3341,,,,,,331314,,,,,,1398120118815,NICKEL,007440020,YES,NON-PBT,YES,1,YES,R,Pounds,0,0,5,0,0,0,0,0,0,0,0,0,5,0,0,0,0,0,0,0,0,0,0,0,0,0,0,0,0,0,0,0,0,0,0,2250,0,0,0,2250,0,0,0,0,0,0,0,0,0,0,5,2,0,0,0,0,0,0,0,2300,0,0,2302,0,1,ALCHEM ALUMINUM SHELBYVILLE INC,601946770
1998,37309BWTRSROUTE,ABIBOW US INC - CALHOUN OPERATIONS,5020 HWY 11S,CALHOUN,MCMINN,TN,37309,35.295556,-84.760278,2611,2621,,,,,322122,,,,,,1398120241219,PHOSPHORIC ACID,007664382,NO,NON-PBT,NO,0,NO,R,Pounds,10,0,0,0,0,0,0,0,0,0,0,0,10,0,0,0,0,0,0,0,0,0,0,0,0,0,0,0,0,0,0,0,0,0,0,0,0,0,0,0,0,0,0,0,0,0,0,0,0,0,10,10,0,0,0,0,0,0,0,0,0,0,10,0,0,ABIBOW US INC,001946011
1998,37662TNNSSEASTM,EASTMAN CHEMICAL CO TENNESSEE OPERATIONS,100 EASTMAN RD,KINGSPORT,SULLIVAN,TN,37662,36.533333,-82.560833,2823,2821,2869,2865,2893,,325221,,,,,,1398120266592,"4,4'-ISOPROPYLIDENEDIPHENOL",000080057,NO,NON-PBT,NO,0,NO,R,Pounds,0,0,0,0,0,0,0,0,0,0,0,0,0,0,0,0,0,0,0,0,0,0,0,0,0,0,0,0,0,0,0,0,0,0,0,0,0,0,0,0,0,0,0,0,0,0,0,0,0,0,0,0,0,0,0,0,0,0,0,0,82,0,82,0,1,EASTMAN CHEMICAL CO,NA
1998,37662TNNSSEASTM,EASTMAN CHEMICAL CO TENNESSEE OPERATIONS,100 EASTMAN RD,KINGSPORT,SULLIVAN,TN,37662,36.533333,-82.560833,2823,2821,2869,2865,2893,,325211,,,,,,1398120266642,METHYL IODIDE,000074884,YES,NON-PBT,NO,0,NO,R,Pounds,13000,4200,8,0,0,0,0,0,0,0,0,0,17208,0,0,0,0,0,0,0,0,0,0,0,0,0,0,0,0,0,0,0,0,0,0,0,0,0,0,0,0,0,0,0,0,0,0,0,0,0,17208,17000,0,0,0,0,0,0,0,0,5000,0,22000,80,1,EASTMAN CHEMICAL CO,NA
1998,37662TNNSSEASTM,EASTMAN CHEMICAL CO TENNESSEE OPERATIONS,100 EASTMAN RD,KINGSPORT,SULLIVAN,TN,37662,36.533333,-82.560833,2823,2821,2869,2865,2893,,325211,,,,,,1398120266717,PHTHALIC ANHYDRIDE,000085449,YES,NON-PBT,NO,0,NO,R,Pounds,1600,80,0,0,0,0,0,0,0,0,0,0,1680,0,0,0,0,0,0,0,0,0,0,0,0,0,0,0,0,0,0,0,0,0,0,0,0,0,0,0,0,0,0,0,0,0,0,0,0,0,1680,1700,0,0,0,0,7,0,0,0,9900,0,11607,0,1,EASTMAN CHEMICAL CO,NA
1998,37807MRLCKRTE2B,MARLOCK INC.,200 RACCOON VALLEY RD.,MAYNARDVILLE,UNION,TN,37807,36.20775,-83.87952,3089,,,,,,326199,,,,,,1398120274372,DIISOCYANATES,N120,YES,NON-PBT,NO,0,NO,R,Pounds,0,0,0,0,0,0,0,0,0,0,0,0,0,0,0,0,0,0,0,0,0,0,46053,0,0,0,0,0,0,0,0,0,0,46053,0,0,0,0,0,0,0,0,0,0,0,0,0,0,0,0,46053,50240,0,0,0,0,0,0,0,0,0,0,50240,0,1.23,NA,NA
1998,37406WDBRD100JU,WOODBRIDGE FOAM FABRICATING INC,1120 JUDD RD,CHATTANOOGA,HAMILTON,TN,37406,35.08308,-85.270302,3086,,,,,,326150,,,,,,1398120403377,"TOLUENE-2,6-DIISOCYANATE",000091087,NO,NON-PBT,NO,0,YES,R,Pounds,125,27,0,0,0,0,0,0,0,0,0,0,152,0,0,0,0,0,0,0,0,0,0,0,0,0,0,0,0,0,0,0,0,0,0,0,0,0,0,0,0,0,0,0,0,196,0,0,0,196,152,150,0,0,0,0,0,0,0,0,0,196,346,0,.92,WOODBRIDGE HOLDINGS,161659883
1998,38109XCLTS552RI,EXCEL TSD INC,552 RIVERGATE RD,MEMPHIS,SHELBY,TN,38109,35.074005,-90.078953,7389,,,,,,562112,,,,,,1398120363852,DICHLOROMETHANE,000075092,YES,NON-PBT,NO,0,YES,R,Pounds,5,250,0,0,0,0,0,0,0,0,0,0,255,0,0,0,0,0,0,0,0,0,0,0,0,0,0,0,0,0,0,0,0,0,0,0,0,0,0,0,101291,0,101291,0,0,0,0,0,0,0,255,215,0,0,0,0,0,101292,0,0,0,0,101507,0,0,NA,NA
1998,38109XCLTS552RI,EXCEL TSD INC,552 RIVERGATE RD,MEMPHIS,SHELBY,TN,38109,35.074005,-90.078953,7389,,,,,,562112,,,,,,1398120363926,P-XYLENE,000106423,YES,NON-PBT,NO,0,NO,R,Pounds,0,5,0,0,0,0,0,0,0,0,0,0,5,0,0,0,0,0,0,0,0,0,0,0,0,0,0,0,0,0,0,0,0,0,0,0,0,0,0,0,182097,0,182097,0,0,0,0,0,0,0,5,6,0,0,0,0,0,182097,0,0,0,0,182103,0,0,NA,NA
1998,38108QCHMC3324C,PENNAKEM LLC,3324 CHELSEA AVE,MEMPHIS,SHELBY,TN,38108,35.173611,-89.948889,2869,,,,,,325199,,,,,,1398120361896,NAPHTHALENE,000091203,YES,NON-PBT,NO,0,NO,R,Pounds,1300,200,0,0,0,0,0,0,0,0,0,0,1500,0,25,25,0,0,0,0,0,0,0,0,0,0,0,0,0,0,0,0,0,0,0,0,0,0,0,0,8800,0,8800,0,0,0,0,0,0,0,1500,1500,0,0,0,0,194000,8800,0,0,0,0,204300,0,1.15,MINAFIN SARL,NA
1998,38372WDCRS445AR,WOODCREST-SAVANNAH INC.,445 ARMORY LN.,SAVANNAH,HARDIN,TN,38372,35.166934,-88.220691,2511,,,,,,337000,,,,,,1398120497399,XYLENE (MIXED ISOMERS),001330207,YES,NON-PBT,NO,0,NO,R,Pounds,0,15545,0,0,0,0,0,0,0,0,0,0,15545,0,0,0,0,0,0,0,0,0,0,0,0,0,0,0,0,0,0,0,0,0,0,0,0,0,0,0,0,0,0,0,0,0,0,0,0,0,15545,15545,0,0,0,0,0,0,0,0,0,0,15545,0,.75,NA,NA
1998,37409STHRN105WE,ADM SOUTHERN CELLULOSE,103 W 45TH ST,CHATTANOOGA,HAMILTON,TN,37410,34.997921,-85.318581,2611,,,,,,322110,,,,,,1398120514878,PHOSPHORIC ACID,007664382,NO,NON-PBT,NO,0,NO,R,Pounds,0,0,0,0,0,0,0,0,0,0,0,0,0,0,0,0,0,0,0,0,0,0,0,0,0,0,0,0,0,0,0,0,0,0,0,0,0,0,0,0,0,0,0,0,0,0,0,0,0,0,0,0,0,0,0,0,0,0,0,0,169957,0,169957,0,1.13,ARCHER DANIELS MIDLAND,001307586
1998,37055GNRLPCOLES,SUN CHEMICAL CORP,1667 OLD COLUMBIA HWY,DICKSON,DICKSON,TN,37055,36.045838,-87.343173,2893,,,,,,325910,,,,,,1398120558150,ETHYLBENZENE,000100414,YES,NON-PBT,NO,0,NO,R,Pounds,2,8,0,0,0,0,0,0,0,0,0,0,10,0,0,0,0,0,0,0,0,0,0,0,0,0,0,0,0,0,0,0,0,0,0,0,0,0,0,0,0,0,0,0,0,0,0,0,0,0,10,10,0,0,0,0,0,0,0,0,0,0,10,0,1,SUN CHEMICAL CORP,144638558
1998,38025BKRTCONEBE,BEKAERT CORP,ONE BEKAERT RD INDUSTRIAL PARK,DYERSBURG,DYER,TN,38024,36.061389,-89.33,2296,,,,,,314992,,,,,,1398120263037,PHOSPHORIC ACID,007664382,NO,NON-PBT,NO,0,NO,R,Pounds,250,0,0,0,0,0,0,0,0,0,0,0,250,0,0,0,0,0,0,0,0,0,0,0,0,0,0,0,0,0,0,0,0,0,0,0,0,0,0,0,0,0,0,0,0,0,0,0,0,0,250,370,0,0,0,0,0,0,0,0,53000,0,53370,0,1.08,BEKAERT CORP,051525129
1998,38109XCLTS552RI,EXCEL TSD INC,552 RIVERGATE RD,MEMPHIS,SHELBY,TN,38109,35.074005,-90.078953,7389,,,,,,562112,,,,,,1398120364031,M-CRESOL,000108394,YES,NON-PBT,NO,0,NO,R,Pounds,0,0,0,0,0,0,0,0,0,0,0,0,0,0,0,0,0,0,0,0,0,0,0,0,0,0,0,0,0,0,0,0,0,0,0,0,0,0,0,0,45523,0,45523,0,0,0,0,0,0,0,0,0,0,0,0,0,0,45524,0,0,0,0,45524,0,0,NA,NA
1998,38109XCLTS552RI,EXCEL TSD INC,552 RIVERGATE RD,MEMPHIS,SHELBY,TN,38109,35.074005,-90.078953,7389,,,,,,562112,,,,,,1398120364082,P-CRESOL,000106445,YES,NON-PBT,NO,0,NO,R,Pounds,0,0,0,0,0,0,0,0,0,0,0,0,0,0,0,0,0,0,0,0,0,0,0,0,0,0,0,0,0,0,0,0,0,0,0,0,0,0,0,0,45523,0,45523,0,0,0,0,0,0,0,0,0,0,0,0,0,0,45524,0,0,0,0,45524,0,0,NA,NA
1998,37334MNRFR1810W,GOODMAN CO LP,1810 WILSON PKWY,FAYETTEVILLE,LINCOLN,TN,37334,35.143861,-86.585769,3585,,,,,,335000,,,,,,1398120458423,ETHYLENE GLYCOL,000107211,YES,NON-PBT,NO,0,NO,R,Pounds,0,1,0,0,0,0,0,0,0,0,0,0,1,0,0,0,0,0,0,0,0,0,0,0,0,0,0,0,0,0,0,0,0,0,1760,0,0,0,0,1760,0,0,0,0,0,0,0,0,0,0,1,1,0,0,0,0,0,0,0,1800,0,0,1801,0,1.13,GOODMAN HOLDING CO,948347927
1998,37821GRTLKROUTE,SI GROUP INC,380 CHEMWOOD DR,NEWPORT,COCKE,TN,37821,35.98741,-83.202661,2869,2879,,,,,325110,,,,,,1398120409115,NITRATE COMPOUNDS,N511,NO,NON-PBT,NO,0,NO,R,Pounds,0,0,100,0,0,0,0,0,0,0,0,0,100,0,37600,37600,0,0,0,0,0,0,0,0,0,0,0,0,0,0,0,0,0,0,0,0,0,0,0,0,0,0,0,0,0,0,0,0,0,0,100,100,0,0,0,0,0,0,0,0,0,37600,37700,0,1.9,SI GROUP INC,002070100
1998,37040SCRCRHWY79,UCAR CARBON CO. INC.,HWY. 79 N. HAMPTON STATION RD.,CLARKSVILLE,MONTGOMERY,TN,37040,36.626667,-87.221111,3624,,,,,,335991,,,,,,1398120413188,POLYCYCLIC AROMATIC COMPOUNDS,N590,YES,PBT,NO,0,YES,R,Pounds,0,250,5,0,0,0,0,0,250,0,0,0,505,0,0,0,0,0,0,0,0,0,0,0,0,0,0,0,0,0,0,0,0,0,0,0,0,0,0,0,250,0,250,0,0,0,0,0,0,0,505,140,0,0,0,0,1200000,410,0,0,16000,0,1216550,0,.72,GRAPHTECH INTERNATIONAL LTD,877176578
1998,37662MDPPRPOBOX,DOMTAR PAPER CO LLC KINGSPORT MILL,100 CLINCHFIELD ST,KINGSPORT,SULLIVAN,TN,37660,36.546111,-82.574444,2621,2611,,,,,322121,,,,,,1398120570179,CHLORINE,007782505,YES,NON-PBT,NO,0,NO,R,Pounds,60,13000,0,0,0,0,0,0,0,0,0,0,13060,0,0,0,0,0,0,0,0,0,0,0,0,0,0,0,0,0,0,0,0,0,0,0,0,0,0,0,0,0,0,0,0,0,0,0,0,0,13060,13000,0,0,0,0,0,0,0,0,370000,0,383000,0,1.1,DOMTAR CORP,NA
1998,37309BWTRSROUTE,ABIBOW US INC - CALHOUN OPERATIONS,5020 HWY 11S,CALHOUN,MCMINN,TN,37309,35.295556,-84.760278,2611,2621,,,,,322122,,,,,,1398120241284,"HYDROCHLORIC ACID (1995 AND AFTER ""ACID AEROSOLS"" ONLY)",007647010,YES,NON-PBT,NO,0,NO,R,Pounds,0,174240,0,0,0,0,0,0,0,0,0,0,174240,0,0,0,0,0,0,0,0,0,0,0,0,0,0,0,0,0,0,0,0,0,0,0,0,0,0,0,0,0,0,0,0,0,0,0,0,0,174240,174240,0,0,0,0,0,0,0,0,986,0,175226,0,0,ABIBOW US INC,001946011
1998,37309BWTRSROUTE,ABIBOW US INC - CALHOUN OPERATIONS,5020 HWY 11S,CALHOUN,MCMINN,TN,37309,35.295556,-84.760278,2611,2621,,,,,322122,,,,,,1398120241373,NICKEL COMPOUNDS,N495,YES,NON-PBT,YES,1,NO,R,Pounds,0,166,0,0,0,0,2250,0,817,0,0,0,3233,0,0,0,0,0,0,0,0,0,0,0,0,0,0,0,0,0,0,0,0,0,0,0,0,0,0,0,0,0,0,0,0,0,0,0,0,0,3233,4700,0,0,0,0,0,0,0,0,0,0,4700,0,1,ABIBOW US INC,001946011
1998,37662TNNSSEASTM,EASTMAN CHEMICAL CO TENNESSEE OPERATIONS,100 EASTMAN RD,KINGSPORT,SULLIVAN,TN,37662,36.533333,-82.560833,2823,2821,2869,2865,2893,,325221,,,,,,1398120266857,P-XYLENE,000106423,YES,NON-PBT,NO,0,NO,R,Pounds,12000,140000,0,0,0,0,0,0,0,0,0,0,152000,0,0,0,0,0,0,0,0,0,0,0,0,0,0,0,0,0,0,0,0,0,0,0,0,0,0,0,0,0,0,0,3500,0,0,0,0,3500,152000,150000,0,0,0,0,180,0,0,0,2600,3500,156280,0,1.23,EASTMAN CHEMICAL CO,NA
1998,38039SQNTN450NO,CRANE COMPOSITES INC,450 N HWY 368,GRAND JUNCTION,HARDEMAN,TN,380390569,35.055698,-89.185699,3089,,,,,,326199,,,,,,1398120278371,METHYL METHACRYLATE,000080626,YES,NON-PBT,NO,0,NO,R,Pounds,2125,2401,0,0,0,0,0,0,0,0,0,0,4526,0,0,0,0,0,0,0,0,0,0,0,0,0,0,0,0,0,0,0,0,0,0,0,0,0,0,0,0,0,0,0,0,0,0,0,0,0,4526,4526,0,0,0,0,0,0,0,0,0,0,4526,0,1.08,CRANE CO,001280726
1998,37854HRSHDENDOF,HORSEHEAD CORP,END OF W BALDWIN ST,ROCKWOOD,ROANE,TN,37854,35.865555,-84.697502,2816,,,,,,331492,,,,,,1398120447002,ZINC COMPOUNDS,N982,NO,NON-PBT,YES,1,NO,R,Pounds,9,4600,0,0,0,0,0,0,0,0,0,0,4609,0,0,0,0,0,0,0,0,0,0,0,0,0,0,0,0,0,0,0,0,0,0,0,0,0,0,0,0,0,0,0,0,0,0,0,0,0,4609,4600,0,0,0,0,0,0,1100000,0,0,0,1104600,0,1.01,HORSEHEAD HOLDING CORP,NA
1998,37660VNWTR302RI,UNIVAR USA INC KINGSPORT FACIL ITY,302 RIVERPORT LN,KINGSPORT,SULLIVAN,TN,37660,36.54464,-82.580125,5169,,,,,,424690,,,,,,1398120420839,"N,N-DIMETHYLFORMAMIDE",000068122,YES,NON-PBT,NO,0,YES,R,Pounds,0,0,0,0,0,0,0,0,0,0,0,0,0,0,0,0,0,0,0,0,0,0,0,0,0,0,0,0,0,0,0,0,0,0,0,0,0,0,0,0,0,0,0,0,0,0,0,0,0,0,0,0,0,0,0,0,0,0,0,0,0,0,0,0,0,NA,NA
1998,38113CNTNN1305H,LUCITE INTERNATIONAL INC.,1305 HARBOR AVE,MEMPHIS,SHELBY,TN,381130328,35.106281,-90.097935,3081,,,,,,325991,,,,,,1398120515111,ETHYL ACRYLATE,000140885,YES,NON-PBT,NO,0,YES,R,Pounds,990,5477,0,0,0,0,0,0,0,0,0,0,6467,0,2,2,0,0,0,0,0,0,0,0,0,0,0,0,0,0,0,0,0,0,0,0,0,0,0,0,3232,0,3232,0,0,0,60,0,0,60,6467,6529,0,0,0,0,0,3230,0,0,0,2,9761,0,.98,LUCITE INTERNATIONAL INC,006266563
1998,38310QGLSSINDUS,MASCO BATH CORP,320 INDUSTRIAL PARK RD,ADAMSVILLE,MCNAIRY,TN,38310,35.250876,-88.391588,3088,,,,,,326191,,,,,,1398120544527,CERTAIN GLYCOL ETHERS,N230,YES,NON-PBT,NO,0,NO,R,Pounds,0,12754,0,0,0,0,0,0,0,0,0,0,12754,0,0,0,0,0,0,0,0,0,0,0,0,0,0,0,0,0,0,0,0,0,0,0,0,0,0,0,0,0,0,0,0,0,0,0,0,0,12754,12754,0,0,0,0,0,0,0,0,0,0,12754,0,1,MASCO CORP,005320924
1998,38478MRMNTBENNE,MAGNETI MARELLI SUSPENSIONS USA,181 BENNETT DR,PULASKI,GILES,TN,38478,35.20804,-87.062283,3714,,,,,,336000,,,,,,1398120164001,PHOSPHORIC ACID,007664382,NO,NON-PBT,NO,0,NO,R,Pounds,0,0,0,0,0,0,0,0,0,0,0,0,0,0,0,0,0,0,0,0,0,0,0,0,0,0,0,0,0,0,0,0,0,0,0,0,0,0,0,0,0,0,0,0,0,0,0,0,0,0,0,0,0,0,0,0,0,0,0,0,0,0,0,0,.95,NA,NA
1998,37826CKWDM623ST,OAKWOOD FURNITURE MFG. INC.,623 STRAIGHT CREEK RD.,NEW TAZEWELL,CLAIBORNE,TN,378256408,36.438947,-83.579972,2511,,,,,,337000,,,,,,1398120179852,TOLUENE,000108883,YES,NON-PBT,NO,0,NO,R,Pounds,0,11848,0,0,0,0,0,0,0,0,0,0,11848,0,0,0,0,0,0,0,0,0,0,0,0,0,0,0,0,0,0,0,0,0,0,0,0,0,0,0,0,0,0,0,0,0,0,0,0,0,11848,11848,0,0,0,0,0,0,0,0,0,0,11848,0,1.01,OAKWOOD FURNITURE MFG,048916035
1998,37055CCNTRONECE,MASONITE CORP DICKSON DOOR PLANT,ONE PREMDOR DR,DICKSON,DICKSON,TN,37055,36.047721,-87.340052,3442,,,,,,326150,,,,,,1398120368345,CERTAIN GLYCOL ETHERS,N230,YES,NON-PBT,NO,0,NO,R,Pounds,600,59000,0,0,0,0,0,0,0,0,0,0,59600,0,0,0,0,0,0,0,0,0,0,0,0,0,0,0,0,0,0,0,0,0,0,0,0,0,0,0,0,0,0,1100,0,0,0,0,0,1100,59600,60000,0,0,0,0,0,0,0,0,0,1100,61100,0,1,MASONITE CORP,858499569
1998,37857PCDNN530WM,IPC & L CO. INC.,530 W MAIN,ROGERSVILLE,HAWKINS,TN,37857,36.404462,-83.012178,2754,,,,,,332000,,,,,,1398120372053,N-HEXANE,000110543,YES,NON-PBT,NO,0,NO,R,Pounds,3456,134,0,0,0,0,0,0,0,0,0,0,3590,0,0,0,0,0,0,0,0,0,0,0,0,0,0,0,0,0,0,0,0,0,4667,0,0,0,0,4667,0,0,0,0,0,0,0,0,0,0,3590,3580,0,0,0,0,0,0,0,0,59691,4667,67938,0,.95,NA,NA
1998,37873PCLCN306GE,IPC & L CO. INC.,170 GEIGER RD,SURGOINSVILLE,HAWKINS,TN,37873,36.466501,-82.811376,2754,,,,,,323111,,,,,,1398120372115,N-HEXANE,000110543,YES,NON-PBT,NO,0,NO,R,Pounds,540,60,0,0,0,0,0,0,0,0,0,0,600,0,0,0,0,0,0,0,0,0,0,0,0,0,0,0,0,0,0,0,0,0,879,0,0,0,0,879,0,0,0,0,0,0,0,0,0,0,600,600,0,0,0,0,0,0,0,0,62871,1439,64910,0,0,NA,NA
1998,37406VNWTRTHREE,UNIVAR USA INC CHATTANOOGA FAC ILITY,THREE RIVERSIDE LN,CHATTANOOGA,HAMILTON,TN,374061725,35.083809,-85.27459,5169,,,,,,424690,,,,,,1398120407945,METHANOL,000067561,YES,NON-PBT,NO,0,NO,R,Pounds,60,1895,0,0,0,0,0,0,0,0,0,0,1955,0,0,0,0,0,0,0,0,0,0,0,0,0,0,0,0,0,0,0,0,0,0,0,0,0,0,0,250,0,250,0,0,0,0,0,0,0,1955,1955,0,0,0,0,0,44,0,0,0,0,1999,0,0,UNIVAR USA INC,NA
1998,37409CHTTM3801S,CHATTEM CHEMICALS INC,3801 SAINT ELMO AVE,CHATTANOOGA,HAMILTON,TN,37409,35.0114,-85.3283,2833,2834,2869,2819,,,325412,,,,,,1398120584368,ETHYLBENZENE,000100414,YES,NON-PBT,NO,0,NO,R,Pounds,12,0,0,0,0,0,0,0,0,0,0,0,12,0,0,0,0,0,0,0,0,0,0,0,0,0,0,0,0,0,0,0,0,0,0,0,0,0,0,0,0,0,0,0,0,0,0,0,0,0,12,12,0,0,0,0,0,0,0,0,0,0,12,0,.39,SUN PHARMACEUTICALS,NA
1998,37409CHTTM3801S,CHATTEM CHEMICALS INC,3801 SAINT ELMO AVE,CHATTANOOGA,HAMILTON,TN,37409,35.0114,-85.3283,2833,2834,2869,2819,,,325412,,,,,,1398120584418,CHLOROACETIC ACID,000079118,YES,NON-PBT,NO,0,NO,R,Pounds,0,0,0,0,0,0,0,0,0,0,0,0,0,0,0,0,0,0,0,0,0,0,0,0,0,0,0,0,0,0,0,0,0,0,0,0,0,0,0,0,0,0,0,0,0,0,0,0,0,0,0,0,0,0,0,0,0,0,0,0,91,0,91,0,1.02,SUN PHARMACEUTICALS,NA
1998,37311JHNSTHWY64,JOHNSTON COCA-COLA BOTTLING CO,HWY 64 BYPASS,CLEVELAND,BRADLEY,TN,37311,35.135833,-84.903889,2086,,,,,,312111,,,,,,1398120334230,PHOSPHORIC ACID,007664382,NO,NON-PBT,NO,0,NO,R,Pounds,0,0,0,0,0,0,0,0,0,0,0,0,0,0,2205,2205,0,0,0,0,0,0,0,0,0,0,0,0,0,0,0,0,0,0,0,0,0,0,0,0,0,0,0,0,0,0,0,0,0,0,0,0,0,0,0,0,0,0,0,0,0,2205,2205,0,1.22,COCA-COLA ENTERPRISES INC,118267624
1998,37134DPNTJ1DUPO,DUPONT JOHNSONVILLE PLANT,1 DU PONT RD,NEW JOHNSONVILLE,HUMPHREYS,TN,371340219,36.043056,-87.981667,2816,,,,,,325131,,,,,,1398120492119,"HYDROCHLORIC ACID (1995 AND AFTER ""ACID AEROSOLS"" ONLY)",007647010,YES,NON-PBT,NO,0,NO,R,Pounds,0,60000,0,0,0,0,0,0,0,0,0,0,60000,0,0,0,0,0,0,0,0,0,0,0,0,0,0,0,0,0,0,0,0,0,0,0,0,0,0,0,0,0,0,0,0,0,0,0,0,0,60000,60000,0,0,0,0,0,0,0,0,0,0,60000,0,.99,E I DU PONT DE NEMOURS & CO INC,001315704
1998,37885TRWKY55EXC,JTEKT AUTOMOTIVE TENNESSEE-VONORE,55 EXCELLENCE WAY,VONORE,MONROE,TN,37885,35.601965,-84.256167,3714,,,,,,336000,,,,,,1398120492184,NICKEL,007440020,YES,NON-PBT,YES,1,YES,R,Pounds,0,0,0,0,0,0,0,0,0,0,0,0,0,0,0,0,0,0,0,0,0,0,0,0,0,0,0,0,0,0,0,0,0,0,0,0,0,0,13535,13535,0,0,0,0,0,0,0,0,0,0,0,0,0,0,0,0,0,0,0,13535,0,0,13535,0,8.25,JTEKT NA,NA
1998,37040NRTHM480AR,PURITY ZINC METALS LLC,498 INTERNATIONAL BLVD,CLARKSVILLE,MONTGOMERY,TN,37040,36.603071,-87.258809,3341,,,,,,331419,,,,,,1398120540861,ZINC COMPOUNDS,N982,NO,NON-PBT,YES,1,NO,R,Pounds,2100,27000,0,0,0,0,0,0,0,0,0,0,29100,0,0,0,0,0,0,0,0,0,0,0,0,0,0,0,0,0,0,0,0,0,0,0,0,0,0,0,0,0,0,0,0,0,0,0,0,0,29100,29000,0,0,0,0,0,0,0,0,0,0,29000,0,1,NA,NA
1998,37701LMNMCPOBOX,ALCOA,2300 N WRIGHT RD,ALCOA,BLOUNT,TN,377013141,35.812998,-83.97736,3334,3353,3355,,,,331312,,,,,,1398120205834,ALUMINUM (FUME OR DUST),007429905,NO,NON-PBT,YES,4,NO,R,Pounds,400,21000,0,0,0,0,0,0,0,0,0,0,21400,0,0,0,0,0,0,0,0,0,190000,0,0,0,0,0,0,0,0,0,2400,192400,0,110000,0,0,0,110000,0,0,0,0,0,0,0,0,0,0,213800,210000,0,0,0,0,0,0,0,110000,0,0,320000,0,.97,ALCOA INC,001339472
1998,37921RHMND730DA,ROHM & HAAS CHEMICALS LLC - KNOXVILLE SITE,730 DALE AVE,KNOXVILLE,KNOX,TN,37921,35.961111,-83.941389,2821,2843,2869,,,,325211,,,,,,1398120265412,ACRYLIC ACID,000079107,YES,NON-PBT,NO,0,NO,R,Pounds,7643,399,0,0,0,0,0,0,0,0,0,0,8042,0,13102,13102,0,0,0,0,0,0,0,0,0,0,0,0,0,0,15593,0,0,15593,0,0,0,0,0,0,0,0,0,0,130,0,0,0,0,130,23635,23636,0,0,0,0,0,0,0,0,2706,13232,39574,0,.87,THE DOW CHEMICAL CO,001381581
1998,37921RHMND730DA,ROHM & HAAS CHEMICALS LLC - KNOXVILLE SITE,730 DALE AVE,KNOXVILLE,KNOX,TN,37921,35.961111,-83.941389,2821,2843,2869,,,,325211,,,,,,1398120265487,CERTAIN GLYCOL ETHERS,N230,YES,NON-PBT,NO,0,NO,R,Pounds,466,4,0,0,0,0,0,0,0,0,0,0,470,0,4502,4502,0,0,0,0,0,0,0,0,0,0,0,0,0,0,4000,0,0,4000,0,0,0,0,0,0,0,0,0,0,4,0,0,0,0,4,4470,4471,0,0,0,0,0,0,0,0,37,4506,9014,0,.91,THE DOW CHEMICAL CO,001381581
1998,37419BRNRS3600C,BURNER SYSTEMS INTERNATIONAL INC,3600 CUMMINGS RD,CHATTANOOGA,HAMILTON,TN,37419,35.013451,-85.385437,3499,,,,,,333000,,,,,,1398120318910,MANGANESE,007439965,YES,NON-PBT,YES,1,NO,R,Pounds,5,0,0,0,0,0,0,0,0,0,0,0,5,5,0,5,0,0,0,0,0,0,0,0,0,0,0,0,0,0,0,0,0,0,0,3780,0,0,0,3780,0,0,0,0,0,0,0,0,0,0,10,1,0,0,0,0,0,0,0,3776,0,0,3777,0,1.13,GAS COMPONENTS GROUP INC,NA
1998,38113CNSLV2064C,CONE SOLVENTS INC MEMPHIS,2064 CHANNEL AVE,MEMPHIS,SHELBY,TN,38113,35.089957,-90.11222,5169,,,,,,424690,,,,,,1398120170319,METHYL ETHYL KETONE,000078933,NO,NON-PBT,NO,0,NO,R,Pounds,25,526,0,0,0,0,0,0,0,0,0,0,551,0,0,0,0,0,0,0,0,0,0,0,0,0,0,0,0,0,0,0,0,0,0,0,0,0,0,0,0,0,0,0,0,0,0,0,0,0,551,551,0,0,0,0,0,0,0,0,0,0,551,0,0,THE CONE COS,012989125
1998,37409VLSCL4902C,VELSICOL CHEMICAL CORP,4902 CENTRAL AVE,CHATTANOOGA,HAMILTON,TN,37409,34.989361,-85.318687,2865,2819,2869,,,,325199,,,,,,1398120395847,BENZOYL CHLORIDE,000098884,NO,NON-PBT,NO,0,NO,R,Pounds,205,430,0,0,0,0,0,0,0,0,0,0,635,0,0,0,0,0,0,0,0,0,0,0,0,0,0,0,0,0,0,0,0,0,0,0,0,0,0,0,0,0,0,0,496663,0,0,0,0,496663,635,635,0,0,0,0,0,0,0,0,0,496366,497001,0,1.13,TRUE SPECIALTY CORP,061314803
1998,38358LLSTL71DEN,HON ALLSTEEL,4071 DENTON FLY RD.,MILAN,GIBSON,TN,38358,35.877577,-88.757697,2522,,,,,,337214,,,,,,1398120350739,TOLUENE,000108883,YES,NON-PBT,NO,0,NO,R,Pounds,0,105700,0,0,0,0,0,0,0,0,0,0,105700,0,0,0,0,0,0,0,0,0,0,0,0,0,0,0,0,0,0,0,0,0,192712,0,0,0,0,192712,0,0,0,0,0,0,0,0,0,0,105700,105700,0,0,0,0,0,0,39986,192712,0,0,338398,0,1.06,HON INDUSTRIES INC,005269709
1998,37055TNNSC404EB,TENNSCO CORP PLANT 1,404 E BROAD ST,DICKSON,DICKSON,TN,37055,36.070146,-87.388716,2542,,,,,,337214,,,,,,1398120228097,"1,2,4-TRIMETHYLBENZENE",000095636,NO,NON-PBT,NO,0,NO,R,Pounds,0,15476,0,0,0,0,0,0,0,0,0,0,15476,0,0,0,0,0,0,0,0,0,0,0,0,0,0,0,0,0,0,0,0,0,0,0,0,0,0,0,0,0,0,0,0,0,0,0,0,0,15476,15476,0,0,0,0,0,0,0,1253,0,0,16729,0,1,NA,NA
1998,37209BPXPL14095,BP PRODUCTS NORTH AMERICA- NASHVILLE TERMINAL,1409 51ST AVE N,NASHVILLE,DAVIDSON,TN,37209,36.162658,-86.849153,5171,,,,,,424710,,,,,,1398120455377,TOLUENE,000108883,YES,NON-PBT,NO,0,NO,R,Pounds,248,357,19,0,0,0,0,0,0,0,0,0,624,0,0,0,0,0,0,0,0,0,0,0,0,0,0,0,0,0,0,0,0,0,1769,0,0,0,0,1769,0,0,0,0,0,0,0,0,0,0,624,624,0,0,0,0,0,0,272,1769,0,0,2665,0,0,BP PRODUCTS NORTH AMERICA,151317174
1998,38305FLRDSUSHIG,GERDAU AMERISTEEL,801 GERDAU AMERISTEEL RD HWY 45 N,JACKSON,MADISON,TN,38305,35.72415,-88.81943,3341,,,,,,331000,,,,,,1398120412046,MANGANESE COMPOUNDS,N450,YES,NON-PBT,YES,1,NO,R,Pounds,0,64,0,0,0,0,0,0,0,0,0,0,64,0,0,0,0,0,0,0,0,0,0,0,0,0,0,0,0,0,0,0,0,0,0,0,0,0,0,0,0,0,0,0,0,0,0,0,0,0,64,64,0,0,0,0,0,0,0,0,0,0,64,0,0,GERDAU GROUP,004093456
1998,37716DCTRNMODIN,CARLISLE TIRE,520 JD YARNELL PKWY,CLINTON,ANDERSON,TN,37716,36.085,-84.11,3011,,,,,,326211,,,,,,1398120415690,CYCLOHEXANE,000110827,NO,NON-PBT,NO,0,NO,R,Pounds,0,34307,0,0,0,0,0,0,0,0,0,0,34307,0,0,0,0,0,0,0,0,0,0,0,0,0,0,0,0,0,0,0,0,0,0,0,0,0,0,0,0,0,0,0,0,0,0,0,0,0,34307,34307,0,0,0,0,0,0,0,0,0,0,34307,0,0,CARLISLE COS INC,003005766
1998,37774MTLRSBLAIR,ALERIS RECYCLING INC,388 WILLIAMSON DR,LOUDON,LOUDON,TN,37774,35.740517,-84.310556,3341,,,,,,331314,,,,,,1398120498252,ALUMINUM (FUME OR DUST),007429905,NO,NON-PBT,YES,4,NO,R,Pounds,0,1800,0,0,0,0,0,0,0,0,0,0,1800,0,0,0,0,0,0,0,0,0,87000,0,0,0,0,0,0,0,0,0,0,87000,0,0,0,0,0,0,0,0,0,0,0,0,0,0,0,0,88800,89000,0,0,0,0,0,0,0,0,0,0,89000,0,1.11,ALERIS RECYCLING INC,NA
1998,37774MTLRSBLAIR,ALERIS RECYCLING INC,388 WILLIAMSON DR,LOUDON,LOUDON,TN,37774,35.740517,-84.310556,3341,,,,,,331314,,,,,,1398120498290,MANGANESE,007439965,YES,NON-PBT,YES,1,NO,R,Pounds,0,12,0,0,0,0,0,0,0,0,0,0,12,0,0,0,0,0,0,0,0,0,13570,0,0,0,0,0,0,0,0,0,0,13570,0,0,0,0,0,0,0,0,0,0,0,0,0,0,0,0,13582,13000,0,0,0,0,0,0,0,0,0,0,13000,0,1.11,ALERIS RECYCLING INC,NA
1998,37813TMTNC100SO,TIMET INC.,5501 AIR PARK BLVD.,MORRISTOWN,HAMBLEN,TN,378134328,36.170508,-83.385393,3356,,,,,,331491,,,,,,1398120587389,HYDROGEN FLUORIDE,007664393,YES,NON-PBT,NO,0,NO,R,Pounds,5,5,0,0,0,0,0,0,0,0,0,0,10,0,0,0,0,0,0,0,0,0,0,0,0,0,0,0,0,0,0,0,0,0,0,0,0,0,0,0,0,0,0,0,0,0,0,0,0,0,10,100,0,0,0,0,0,0,0,0,0,0,100,0,0,NA,NA
1998,38024HCKTHPOBOX,HECKETHORN MANUFACTURING CO INC,2005 FORREST ST,DYERSBURG,DYER,TN,38024,36.035773,-89.421841,3714,,,,,,336399,,,,,,1398120570876,CHROMIUM,007440473,YES,NON-PBT,YES,1,YES,R,Pounds,0,0,0,0,0,0,0,0,0,0,0,0,0,0,0,0,0,0,0,0,0,0,0,0,0,0,0,0,0,0,0,0,0,0,0,49240,0,0,0,49240,0,0,0,0,0,0,0,0,0,0,0,0,0,0,0,0,0,0,0,49240,0,0,49240,0,0,NA,NA
1998,37050STVCM815CU,US TVA CUMBERLAND FOSSIL PLANT,815 CUMBERLAND CITY RD,CUMBERLAND CITY,STEWART,TN,370502000,36.391944,-87.655556,4911,,,,,,221112,,,,,,1398120158946,BERYLLIUM COMPOUNDS,N050,YES,NON-PBT,YES,1,NO,R,Pounds,5,250,250,0,0,0,9900,0,250,0,0,3100,13755,0,0,0,0,0,0,0,0,0,0,0,0,0,0,0,0,0,0,0,0,0,0,0,0,0,0,0,0,0,0,0,0,0,0,0,0,0,13755,14000,0,0,0,0,0,0,0,0,0,0,14000,0,0,US TENNESSEE VALLEY AUTHORITY,NA
1998,38109MPCPT543WE,VALERO REFINING CO - TENNESSEE LLC,2385 RIVERPORT RD,MEMPHIS,SHELBY,TN,38109,35.087778,-90.08055,2911,,,,,,324110,,,,,,1398120256045,"1,2,4-TRIMETHYLBENZENE",000095636,NO,NON-PBT,NO,0,NO,R,Pounds,800,957,0,0,0,0,0,0,0,0,0,0,1757,0,0,0,0,0,0,0,0,0,274,0,0,0,0,0,0,0,0,0,0,274,0,0,0,0,0,0,0,0,0,0,0,0,0,0,0,0,2031,1800,0,0,0,0,0,0,1000,0,300,270,3370,0,1.54,VALERO ENERGY CORP,199623414
1998,38375GNRLLSFOUR,GE CO,400 FOURTH ST,SELMER,MCNAIRY,TN,38375,35.168459,-88.596445,3613,,,,,,335931,,,,,,1398120429598,NITRATE COMPOUNDS,N511,NO,NON-PBT,NO,0,NO,R,Pounds,0,0,0,0,0,0,0,0,0,0,0,0,0,0,161200,161200,0,0,0,0,0,0,0,0,0,0,0,0,0,0,0,0,0,0,0,0,0,0,0,0,0,0,0,0,0,0,0,0,0,0,0,0,0,0,0,0,0,0,0,0,0,161200,161200,0,.87,GENERAL ELECTRIC CO (GE CO),001367960
1998,37405KMTSM409SI,KOMATSU AMERICA CORP,409 SIGNAL MOUNTAIN RD,CHATTANOOGA,HAMILTON,TN,37401,35.08869,-85.329597,3531,,,,,,333120,,,,,,1398120551130,MANGANESE COMPOUNDS,N450,YES,NON-PBT,YES,1,NO,R,Pounds,750,0,0,0,0,0,0,0,0,0,0,0,750,0,0,0,1200,0,0,0,0,0,0,0,0,0,0,0,0,0,0,0,0,1200,0,0,750,0,5500,6250,0,0,0,0,0,0,0,0,0,0,1950,2000,0,0,0,0,0,0,0,6400,0,0,8400,0,1.1,KOMATSU AMERICA CORP,NA
1998,37415DPNTC4501A,DUPONT CHATTANOOGA PLANT,4501 N ACCESS RD,CHATTANOOGA,HAMILTON,TN,374153899,35.10865,-85.247269,2824,2821,,,,,325222,,,,,,1398120557133,CHLORINE,007782505,YES,NON-PBT,NO,0,NO,R,Pounds,0,0,0,0,0,0,0,0,0,0,0,0,0,0,0,0,0,0,0,0,0,0,0,0,0,0,0,0,0,0,0,0,0,0,0,0,0,0,0,0,0,0,0,0,0,0,0,0,0,0,0,0,0,0,0,0,0,0,0,0,0,0,0,0,0,E I DU PONT DE NEMOURS & CO INC,001315704
1998,38358CCDRP9159T,CECO DOOR PRODUCTS,9159 TELECOM DR,MILAN,GIBSON,TN,38358,35.89462,-88.757726,3442,,,,,,332321,,,,,,1398120578935,CERTAIN GLYCOL ETHERS,N230,YES,NON-PBT,NO,0,NO,R,Pounds,0,50100,0,0,0,0,0,0,0,0,0,0,50100,0,0,0,0,0,0,0,0,0,0,0,0,0,0,0,0,0,0,0,0,0,0,0,0,0,0,0,0,0,0,0,0,0,0,0,0,0,50100,50100,0,0,0,0,0,0,0,0,0,0,50100,0,111.56,ASSA ABLOY INC,026639109
1998,37209NSHVL17176,MOTIVA NASHVILLE TERMINAL,1717 61ST AVE N,NASHVILLE,DAVIDSON,TN,37209,36.17,-86.85944,5171,,,,,,424710,,,,,,1398120612496,TOLUENE,000108883,YES,NON-PBT,NO,0,NO,R,Pounds,17,429,0,0,0,0,0,0,0,0,0,0,446,0,0,0,0,0,0,0,0,0,0,0,0,0,0,0,0,0,0,0,0,0,0,0,0,0,0,0,0,0,0,0,0,0,1,0,0,1,446,446,0,0,0,0,0,0,0,0,0,1,447,0,0,MOTIVA ENTERPRISES LLC,023838670
1998,37015STTND500BY,STATE INDUSTRIES INC,500 TENNESSEE WALTZ PKWY,ASHLAND CITY,CHEATHAM,TN,37015,36.267222,-87.065278,3639,,,,,,335228,,,,,,1398120212168,SODIUM NITRITE,007632000,NO,NON-PBT,YES,2,NO,R,Pounds,154,2565,51,0,0,0,0,0,0,0,0,0,2770,0,0,0,0,0,0,0,0,0,2514,0,0,0,0,0,0,0,0,0,0,2514,0,0,0,0,0,0,0,0,0,0,0,0,0,0,0,0,5284,5284,0,0,0,0,0,0,6156,0,0,0,11440,0,.74,A O SMITH CORP,006085815
1998,37830GGRTC100MI,ADVANCED MEASUREMENT TECHNOLOGY,801 S ILLINOIS AVE,OAK RIDGE,ANDERSON,TN,378310895,36.00366,-84.23056,3829,3826,,,,,334516,,,,,,1398120216155,METHANOL,000067561,YES,NON-PBT,NO,0,NO,R,Pounds,250,4004,0,0,0,0,0,0,0,0,0,0,4254,0,33862,33862,0,0,0,0,0,0,0,0,0,0,0,0,0,0,0,0,0,0,0,0,0,0,0,0,20796,0,20796,0,0,0,0,0,0,0,4254,4600,0,0,0,0,0,20796,0,0,0,33862,59258,0,.89,AMETEK INC,043380095
1998,37055TNNSC1STAN,TENNSCO CORP,1ST & PICKETT ST,DICKSON,DICKSON,TN,37055,36.076389,-87.405273,2542,,,,,,337214,,,,,,1398120228299,PHOSPHORIC ACID,007664382,NO,NON-PBT,NO,0,NO,R,Pounds,0,14220,0,0,0,0,0,0,0,0,0,0,14220,0,0,0,0,0,0,0,0,0,0,0,0,0,0,0,0,0,0,0,0,0,0,0,0,0,0,0,0,0,0,0,0,0,0,0,0,0,14220,14220,0,0,0,0,0,0,0,0,0,0,14220,0,1,NA,NA
1998,37643JRLXTSTATE,ALCOA ENGINEERED PRODUCTS,1999 STATE LINE RD.,ELIZABETHTON,CARTER,TN,37643,36.327072,-82.205805,3354,3341,,,,,331316,,,,,,1398120451733,MANGANESE,007439965,YES,NON-PBT,YES,1,NO,R,Pounds,0,5,0,0,0,0,19,0,0,0,0,0,24,250,0,250,0,0,0,0,0,0,0,0,0,0,0,0,0,0,0,0,0,0,0,650,0,0,0,650,0,0,0,0,0,0,0,0,0,0,274,98,0,0,0,0,0,0,0,387,0,0,485,0,0,ALCOA INC,001339472
1998,37209BPXPL14095,BP PRODUCTS NORTH AMERICA- NASHVILLE TERMINAL,1409 51ST AVE N,NASHVILLE,DAVIDSON,TN,37209,36.162658,-86.849153,5171,,,,,,424710,,,,,,1398120455391,XYLENE (MIXED ISOMERS),001330207,YES,NON-PBT,NO,0,NO,R,Pounds,114,125,73,0,0,0,0,0,0,0,0,0,312,0,0,0,0,0,0,0,0,0,0,0,0,0,0,0,0,0,0,0,0,0,1287,0,0,0,0,1287,0,0,0,0,0,0,0,0,0,0,312,312,0,0,0,0,0,0,198,1287,0,0,1797,0,0,BP PRODUCTS NORTH AMERICA,151317174
1998,37134STVJH535ST,US TVA JOHNSONVILLE FOSSIL PLANT,535 STEAM PLANT RD,NEW JOHNSONVILLE,HUMPHREYS,TN,37134,36.021111,-87.996944,4911,,,,,,221112,,,,,,1398120473588,"HYDROCHLORIC ACID (1995 AND AFTER ""ACID AEROSOLS"" ONLY)",007647010,YES,NON-PBT,NO,0,NO,R,Pounds,5,3900000,0,0,0,0,0,0,0,0,0,0,3900005,0,0,0,0,0,0,0,0,0,0,0,0,0,0,0,0,0,0,0,0,0,0,0,0,0,0,0,0,0,0,0,0,0,0,0,0,0,3900005,3900000,0,0,0,0,0,0,0,0,1300000,0,5200000,0,0,US TENNESSEE VALLEY AUTHORITY,NA
1998,37401DMSTW1200E,STEWARD ADVANCED MATERIALS,1245 E 38TH ST,CHATTANOOGA,HAMILTON,TN,37407,35.002819,-85.29792,3679,,,,,,334417,,,,,,1398120481217,MANGANESE COMPOUNDS,N450,YES,NON-PBT,YES,1,NO,R,Pounds,1,5,6,0,0,0,0,0,0,0,0,0,12,330,0,330,0,0,0,0,0,0,40,0,0,0,0,0,0,0,0,0,0,40,0,0,0,0,0,0,0,0,0,0,0,0,0,0,0,0,382,380,0,0,0,0,0,0,3500,0,0,0,3880,0,.69,NA,NA
1998,37901RBRTS2318K,FULTON BELLOWS & COMPONENTS INC,2318 KINGSTON PIKE,KNOXVILLE,KNOX,TN,37919,35.95328,-83.94105,3494,3599,3714,3824,,,332919,,,,,,1398120481458,NICKEL COMPOUNDS,N495,YES,NON-PBT,YES,1,NO,R,Pounds,0,0,1,0,0,0,0,0,0,0,0,0,1,43,0,43,0,0,0,0,0,0,0,0,0,0,0,0,0,0,0,0,0,0,0,61236,0,0,0,61236,0,0,0,0,0,0,0,0,0,0,44,1,0,0,0,0,0,0,0,61236,0,43,61280,0,.71,NA,NA
1998,37174STRNC100SA,GM SPRING HILL MANUFACTURING,100 SATURN PKWY  MAIL DROP 371-998-M10,SPRING HILL,MAURY,TN,371741500,35.73913,-86.88178,3711,,,,,,336111,,,,,,1398120506148,NICKEL COMPOUNDS,N495,YES,NON-PBT,YES,1,NO,R,Pounds,0,0,0,0,0,0,0,0,0,0,0,0,0,10,0,10,0,0,0,0,0,0,4600,0,0,0,0,0,0,0,0,0,0,4600,0,0,0,0,0,0,0,0,0,0,0,0,0,0,0,0,4610,4600,0,0,0,0,0,0,0,0,0,0,4600,0,.9,GENERAL MOTORS LLC,831247536
1998,37716HMCRSHWY25,OMEGA CABINETRY,1709 LAKE CITY HWY,CLINTON,ANDERSON,TN,37716,36.138926,-84.152865,2434,,,,,,337110,,,,,,1398120625761,METHANOL,000067561,YES,NON-PBT,NO,0,NO,R,Pounds,859,16316,0,0,0,0,0,0,0,0,0,0,17175,0,0,0,0,0,0,0,0,0,0,0,0,0,0,0,0,0,0,0,0,0,0,0,0,0,0,0,1812,0,1812,0,0,0,0,0,0,0,17175,17175,0,0,0,0,0,1812,0,0,0,0,18987,0,1.05,FORTUNE BRANDS,001265768
1998,37050STVCM815CU,US TVA CUMBERLAND FOSSIL PLANT,815 CUMBERLAND CITY RD,CUMBERLAND CITY,STEWART,TN,370502000,36.391944,-87.655556,4911,,,,,,221112,,,,,,1398120159049,"HYDROCHLORIC ACID (1995 AND AFTER ""ACID AEROSOLS"" ONLY)",007647010,YES,NON-PBT,NO,0,NO,R,Pounds,5,550000,0,0,0,0,0,0,0,0,0,0,550005,0,0,0,0,0,0,0,0,0,0,0,0,0,0,0,0,0,0,0,0,0,0,0,0,0,0,0,0,0,0,0,0,0,0,0,0,0,550005,550000,0,0,0,0,0,0,0,0,11000000,0,11550000,0,0,US TENNESSEE VALLEY AUTHORITY,NA
1998,38109MPCPT543WE,VALERO REFINING CO - TENNESSEE LLC,2385 RIVERPORT RD,MEMPHIS,SHELBY,TN,38109,35.087778,-90.08055,2911,,,,,,324110,,,,,,1398120256072,N-HEXANE,000110543,YES,NON-PBT,NO,0,NO,R,Pounds,4131,3233,0,0,0,0,0,0,0,0,0,0,7364,0,0,0,0,0,0,0,0,0,0,0,0,0,0,0,0,0,0,0,0,0,0,0,0,0,0,0,0,0,0,0,0,0,0,0,0,0,7364,7400,0,0,0,0,0,0,110700,0,16000,0,134100,0,1.54,VALERO ENERGY CORP,199623414
1998,38109MPCPT543WE,VALERO REFINING CO - TENNESSEE LLC,2385 RIVERPORT RD,MEMPHIS,SHELBY,TN,38109,35.087778,-90.08055,2911,,,,,,324110,,,,,,1398120256159,CRESOL (MIXED ISOMERS),001319773,YES,NON-PBT,NO,0,NO,R,Pounds,0,0,377,0,0,0,0,0,0,0,0,0,377,0,12220,12220,0,0,0,0,0,0,0,0,0,0,0,0,0,0,0,0,0,0,6022,0,0,0,0,6022,0,0,0,0,0,0,0,0,0,0,377,0,0,0,0,0,0,0,0,6000,63000,12200,81200,0,1.54,VALERO ENERGY CORP,199623414
1998,38006BLLSF103DA,THE PICTSWEET CO BELLS TN PLANT,TEN PICTSWEET DR,BELLS,CROCKETT,TN,380060119,35.716111,-89.08722,2037,,,,,,311411,,,,,,1398120359233,AMMONIA,007664417,NO,NON-PBT,NO,0,NO,R,Pounds,54000,0,0,0,0,0,0,0,0,0,0,0,54000,0,1800,1800,0,0,0,0,0,0,0,0,0,0,0,0,0,0,0,0,0,0,0,0,0,0,0,0,0,0,0,0,0,0,0,0,0,0,54000,54000,0,0,0,0,0,0,0,0,0,1800,55800,0,1.12,PICTSWEET LLC,007933104
1998,38326TNNSSHIGHW,PACKAGING CORP OF AMERICA COUNCE MILL,HWY 57,COUNCE,HARDIN,TN,38326,35.046667,-88.267222,2631,2611,,,,,322130,,,,,,1398120367331,"HYDROCHLORIC ACID (1995 AND AFTER ""ACID AEROSOLS"" ONLY)",007647010,YES,NON-PBT,NO,0,NO,R,Pounds,0,83000,0,0,0,0,0,0,0,0,0,0,83000,0,0,0,0,0,0,0,0,0,0,0,0,0,0,0,0,0,0,0,0,0,0,0,0,0,0,0,0,0,0,0,0,0,0,0,0,0,83000,83000,0,0,0,0,0,0,0,0,0,0,83000,0,1.04,PACKAGING CORP OF AMERICA,NA
1998,38375KLPCK789PE,MONOGRAM REFRIGERATION LLC,789 PEACH ST,SELMER,MCNAIRY,TN,38375,35.181336,-88.600871,3632,,,,,,335222,,,,,,1398120376912,"1,1-DICHLORO-1-FLUOROETHANE",001717006,NO,NON-PBT,NO,0,NO,R,Pounds,5,5,0,0,0,0,0,0,0,0,0,0,10,0,0,0,0,0,0,0,0,0,0,0,0,0,0,0,0,0,0,0,0,0,0,0,0,0,0,0,0,0,0,0,0,0,0,0,0,0,10,442,0,0,0,0,0,0,0,0,0,0,442,0,.85,GENERAL ELECTRIC CO (GE CO),001367960
1998,37138DPNTL1002I,DUPONT OLD HICKORY PLANT,1002 INDUSTRIAL RD,OLD HICKORY,DAVIDSON,TN,371383693,36.276667,-86.643889,2869,2297,2821,,,,325000,,,,,,1398120483298,TOLUENE,000108883,YES,NON-PBT,NO,0,NO,R,Pounds,0,5415,0,0,0,0,0,0,0,0,0,0,5415,0,0,0,0,0,0,0,0,0,0,0,0,0,0,0,0,0,0,0,0,0,0,0,0,0,0,0,0,0,0,0,316,0,0,0,0,316,5415,5415,0,0,0,0,0,0,0,0,0,316,5731,0,.89,E I DU PONT DE NEMOURS & CO INC,001315704
1998,37662TNNSSEASTM,EASTMAN CHEMICAL CO TENNESSEE OPERATIONS,100 EASTMAN RD,KINGSPORT,SULLIVAN,TN,37662,36.533333,-82.560833,2823,2821,2869,2865,2893,,325211,,,,,,1398120266224,ANTIMONY COMPOUNDS,N010,YES,NON-PBT,YES,1,NO,R,Pounds,86,400,26,0,0,0,4300,0,0,0,0,0,4812,0,0,0,0,0,0,0,0,0,0,0,0,0,0,0,0,0,0,56,0,56,0,0,0,0,0,0,0,0,0,0,0,0,0,0,0,0,4868,4900,0,0,0,0,0,0,0,0,0,0,4900,0,1.02,EASTMAN CHEMICAL CO,NA
1998,37724PLSMRPOBOX,PLUS MARK INC,101 AMERICAN RD,AFTON,GREENE,TN,37616,36.194444,-82.739722,2771,,,,,,322121,,,,,,1398120481508,COPPER,007440508,NO,NON-PBT,YES,1,NO,R,Pounds,0,0,0,0,0,0,0,0,0,0,0,0,0,0,0,0,0,0,0,0,0,0,0,0,0,0,0,0,0,0,0,0,0,0,0,0,0,0,0,0,0,0,0,0,0,0,0,0,0,0,0,0,0,0,0,0,0,0,0,0,0,0,0,0,0,AMERICAN GREETINGS CORP,086394525
1998,37801NPPND1720R,DENSO MANUFACTURING TENNESSEE INC,"1720, 1725, 1755 ROBERT C JACKSON DR",MARYVILLE,BLOUNT,TN,37801,35.761051,-84.008998,3694,3714,3829,,,,336322,,,,,,1398120497045,XYLENE (MIXED ISOMERS),001330207,YES,NON-PBT,NO,0,NO,R,Pounds,250,35504,0,0,0,0,0,0,0,0,0,0,35754,0,0,0,0,0,0,0,0,0,0,0,0,0,0,0,0,0,0,0,0,0,0,0,0,0,0,0,250,0,250,0,0,0,0,0,0,0,35754,35604,0,0,0,0,0,350,0,0,0,0,35954,0,1.15,DENSO INTERNATIONAL AMERICA INC,151369881
1998,37174STRNC100SA,GM SPRING HILL MANUFACTURING,100 SATURN PKWY  MAIL DROP 371-998-M10,SPRING HILL,MAURY,TN,371741500,35.73913,-86.88178,3711,,,,,,336111,,,,,,1398120506187,LEAD COMPOUNDS,N420,YES,PBT,YES,1,NO,R,Pounds,0,0,0,0,0,0,0,0,0,0,0,0,0,1700,0,1700,0,0,0,0,0,0,6890,0,0,0,0,0,0,0,0,0,0,6890,0,0,0,0,0,0,0,0,0,0,0,0,0,0,0,0,8590,8500,0,0,0,0,0,0,0,0,0,0,8500,0,.9,GENERAL MOTORS LLC,831247536
1998,37312SCHLL4207M,MSD CONSUMER CARE INC,4207 MICHIGAN AVE NE,CLEVELAND,BRADLEY,TN,37323,35.19403,-84.811611,2834,3842,,,,,325412,,,,,,1398120579370,DIISOCYANATES,N120,YES,NON-PBT,NO,0,NO,R,Pounds,0,0,0,0,0,0,0,0,0,0,0,23400,23400,0,0,0,0,0,0,0,0,0,0,0,0,0,0,0,0,0,0,0,0,0,0,0,0,0,0,0,0,0,0,0,0,23400,0,0,0,23400,23400,23400,0,0,0,0,0,0,0,0,0,0,23400,0,0,MERCK & CO INC,054554290
1998,37862CTVTDREAGA,JOHNSON MATTHEY CATALYSTS,904 OLD KNOXVILLE HWY,SEVIERVILLE,SEVIER,TN,37862,35.880953,-83.5808,2819,,,,,,331492,,,,,,1398120621368,ALUMINUM (FUME OR DUST),007429905,NO,NON-PBT,YES,4,NO,R,Pounds,5,250,5,0,0,0,0,0,0,0,0,0,260,0,0,0,0,0,0,0,0,0,0,0,0,0,0,0,0,0,0,0,0,0,0,0,0,0,0,0,0,0,0,0,0,0,0,0,0,0,260,342,0,0,0,0,0,0,0,0,0,0,342,0,1.1,JOHNSON MATTHEY INC,002326734
1998,38474RHNPLARROW,AVENTIS CROPSCIENCE,786 ARROW LAKE RD,MOUNT PLEASANT,MAURY,TN,38474,35.506457,-87.187213,2879,,,,,,325320,,,,,,1398120228515,ETHOPROP,013194484,NO,NON-PBT,NO,0,NO,R,Pounds,0,0,0,0,0,0,0,0,0,0,0,0,0,0,0,0,0,0,0,0,0,0,0,0,0,0,0,0,0,0,0,0,0,0,0,0,0,0,0,0,0,0,0,0,0,0,2,0,0,2,0,0,0,0,0,0,0,0,0,0,0,2,2,0,1.04,AVENTIS CROPSCIENCE USA LP,001350263
1998,38111CCCLB499SO,COCA-COLA BOTTLING CO OF MEMPHIS,499 S HOLLYWOOD ST,MEMPHIS,SHELBY,TN,38111,35.118025,-89.976069,2086,,,,,,312111,,,,,,1398120327756,PHOSPHORIC ACID,007664382,NO,NON-PBT,NO,0,NO,R,Pounds,0,0,0,0,0,0,0,0,0,0,0,0,0,0,636,636,0,0,0,0,0,0,0,0,0,0,0,0,0,0,0,0,0,0,0,0,0,0,0,0,0,0,0,0,0,0,0,0,0,0,0,0,0,0,0,0,0,0,0,0,0,636,636,0,.92,COCA-COLA ENTERPRISES INC,118267624
1998,38108NNCNC3018B,ENENCO INC,3018 BELL AVE,MEMPHIS,SHELBY,TN,38108,35.164552,-89.961872,2843,,,,,,325613,,,,,,1398120525860,AMMONIA,007664417,NO,NON-PBT,NO,0,NO,R,Pounds,71000,140000,0,0,0,0,0,0,0,0,0,0,211000,0,49000,49000,0,0,0,0,0,0,0,0,0,0,0,0,0,0,0,0,0,0,0,0,0,0,0,0,0,0,0,0,0,0,0,0,0,0,211000,210000,0,0,0,0,0,0,0,0,1100000,49000,1359000,0,1.13,CROMPTON CORP,001374545
1998,38108WTCCR1231P,PMC BIOGENIX INC,1231 POPE ST,MEMPHIS,SHELBY,TN,38108,35.166667,-89.9625,2869,2899,2841,2843,2099,,325199,,,,,,1398120525961,METHANOL,000067561,YES,NON-PBT,NO,0,NO,R,Pounds,3600,3000,0,0,0,0,0,0,0,0,0,0,6600,0,250000,250000,0,0,0,0,0,0,0,0,0,0,0,0,0,0,0,0,0,0,0,0,0,0,0,0,0,0,0,0,0,0,0,0,0,0,6600,6600,0,0,0,0,0,6800,0,0,0,250000,263400,0,.51,PMC INC,NA
1998,37138DPNTL1002I,DUPONT OLD HICKORY PLANT,1002 INDUSTRIAL RD,OLD HICKORY,DAVIDSON,TN,371383693,36.276667,-86.643889,2869,2297,2821,,,,325211,,,,,,1398120483375,MANGANESE COMPOUNDS,N450,YES,NON-PBT,YES,1,NO,R,Pounds,0,1721,101,0,0,0,0,0,0,0,0,0,1822,0,0,0,0,0,0,0,0,0,4609,0,0,0,0,0,0,0,0,0,0,4609,0,43136,0,0,0,43136,0,0,0,0,0,0,0,0,0,0,6431,6431,0,0,0,0,0,0,0,43136,0,0,49567,0,.89,E I DU PONT DE NEMOURS & CO INC,001315704
1998,38040TNNSSVIARR,SIEGEL ROBERT AUTOMOTIVE RIPLEY SOUTH,164 VIAR RD,RIPLEY,LAUDERDALE,TN,38063,35.719528,-89.553627,3471,,,,,,332813,,,,,,1398120551472,XYLENE (MIXED ISOMERS),001330207,YES,NON-PBT,NO,0,NO,R,Pounds,250,124000,0,0,0,0,0,0,0,0,0,0,124250,0,0,0,0,0,0,0,0,0,0,0,0,0,0,0,0,0,0,0,0,0,9500,0,0,0,0,9500,0,0,0,0,0,0,0,0,0,0,124250,124100,0,0,0,0,0,0,0,9500,0,0,133600,0,.87,SIEGEL-ROBERT AUTOMOTIVE,006264675
1998,38449WLVRNRAILR,WOLVERINE TUBE INC ARDMORE OPERATIONS,30500 RAILROAD ST,ARDMORE,GILES,TN,38449,34.99823,-86.844673,3351,,,,,,331421,,,,,,1398120557828,"1,1,1-TRICHLOROETHANE",000071556,YES,NON-PBT,NO,0,NO,R,Pounds,0,0,0,0,0,0,0,0,0,0,0,0,0,0,0,0,0,0,0,0,0,0,0,0,0,0,0,0,0,0,0,0,0,0,3450,0,0,0,0,3450,0,0,0,0,0,0,0,0,0,0,0,0,0,0,0,0,0,0,0,3450,0,0,3450,0,1.01,WOLVERINE TUBE INC,NA
1998,38024CLNLR150SO,EXCEL POLYMERS LLC,150 S CONNELL AVE,DYERSBURG,DYER,TN,38024,36.03188,-89.39475,3069,,,,,,326000,,,,,,1398120652363,CHROMIUM COMPOUNDS(EXCEPT CHROMITE ORE MINED IN THE TRANSVAAL REGION),N090,YES,NON-PBT,YES,1,NO,R,Pounds,0,0,0,0,0,0,0,0,0,0,0,0,0,2,0,2,0,0,0,0,0,0,600,0,0,0,0,0,0,0,0,0,0,600,0,0,0,0,0,0,0,0,0,0,0,0,0,0,0,0,602,600,0,0,0,0,0,0,0,0,0,2,602,0,.51,EXCEL POLYMERS LLC,153221663
1998,37662TNNSSEASTM,EASTMAN CHEMICAL CO TENNESSEE OPERATIONS,100 EASTMAN RD,KINGSPORT,SULLIVAN,TN,37662,36.533333,-82.560833,2823,2821,2869,2865,2893,,325211,,,,,,1398120266352,CHLORODIFLUOROMETHANE,000075456,NO,NON-PBT,NO,0,NO,R,Pounds,24000,0,0,0,0,0,0,0,0,0,0,0,24000,0,0,0,0,0,0,0,0,0,0,0,0,0,0,0,0,0,0,0,0,0,0,0,0,0,0,0,0,0,0,0,0,0,0,0,0,0,24000,24000,0,0,0,0,0,0,0,0,0,0,24000,0,1.02,EASTMAN CHEMICAL CO,NA
1998,38501FLTGR1200F,CUMMINS FILTRATION,1200 FLEETGUARD RD,COOKEVILLE,PUTNAM,TN,38502,36.132526,-85.480556,3714,,,,,,336399,,,,,,1398120365438,VINYL ACETATE,000108054,YES,NON-PBT,NO,0,YES,R,Pounds,750,700,0,0,0,0,0,0,0,0,0,0,1450,0,0,0,0,0,0,0,0,0,0,0,0,0,0,0,0,0,0,0,0,0,0,0,19000,0,0,19000,0,0,0,0,0,0,0,0,0,0,1450,700,0,0,0,0,0,19000,0,0,0,0,19700,0,1.27,CUMMINS INC,006415160
1998,38063SRFTNOLDHI,SRGGI RIPLEY,2483 HWY 209 N,RIPLEY,LAUDERDALE,TN,38063,35.7789,-89.512581,3471,,,,,,332813,,,,,,1398120463880,METHYL ETHYL KETONE,000078933,NO,NON-PBT,NO,0,NO,R,Pounds,250,193700,0,0,0,0,0,0,0,0,0,0,193950,0,0,0,0,0,0,0,0,0,0,0,0,0,0,0,0,0,0,0,0,0,9240,0,0,0,0,9240,0,0,0,0,0,0,0,0,0,0,193950,193800,0,0,0,0,0,0,0,9240,0,0,203040,0,1.03,SRG GLOBAL INC,829671473
1998,37662TNNSSEASTM,EASTMAN CHEMICAL CO TENNESSEE OPERATIONS,100 EASTMAN RD,KINGSPORT,SULLIVAN,TN,37662,36.533333,-82.560833,2823,2821,2869,2865,2893,,325211,,,,,,1398120266426,DIBUTYL PHTHALATE,000084742,YES,NON-PBT,NO,0,NO,R,Pounds,3300,500,66,0,0,11,0,0,0,0,0,0,3877,0,0,0,0,0,0,0,0,0,0,0,0,0,0,0,0,0,0,0,0,0,0,0,0,0,0,0,0,0,0,0,0,0,0,0,0,0,3877,3900,0,0,0,0,1300,0,0,0,37000,0,42200,0,.99,EASTMAN CHEMICAL CO,NA
1998,38109XCLTS552RI,EXCEL TSD INC,552 RIVERGATE RD,MEMPHIS,SHELBY,TN,38109,35.074005,-90.078953,7389,,,,,,562112,,,,,,1398120363837,BENZENE,000071432,YES,NON-PBT,NO,0,YES,R,Pounds,5,250,0,0,0,0,0,0,0,0,0,0,255,0,0,0,0,0,0,0,0,0,0,0,0,0,0,0,0,0,0,0,0,0,0,0,0,0,0,0,61458,0,61458,0,0,0,0,0,0,0,255,28,0,0,0,0,0,61458,0,0,0,0,61486,0,0,NA,NA
1998,37621BRSTL390BR,BRISTOL METALS LP,390 BRISTOL METALS RD,BRISTOL,SULLIVAN,TN,37621,36.548875,-82.177481,3317,,,,,,331210,,,,,,1398120500994,CHROMIUM COMPOUNDS(EXCEPT CHROMITE ORE MINED IN THE TRANSVAAL REGION),N090,YES,NON-PBT,YES,1,NO,R,Pounds,250,5,0,0,0,0,0,0,0,0,0,0,255,5,0,5,0,0,0,0,0,0,7700,0,0,0,0,0,0,0,0,0,0,7700,0,0,0,0,270000,270000,0,0,0,0,0,0,0,0,0,0,7960,170,0,0,0,0,0,0,0,270000,0,7700,277870,0,.72,SYNALLOY CORP,003349065
1998,37854NTRNTROANE,IMCO RECYCLING INC,ROANE COUNTY INDUSTRIAL PARK HWY 27,ROCKWOOD,ROANE,TN,37854,35.89,-84.654444,3341,,,,,,333293,,,,,,1398120502784,CHROMIUM,007440473,YES,NON-PBT,YES,1,YES,R,Pounds,0,2,0,0,0,0,0,0,0,0,0,0,2,0,0,0,0,0,0,0,0,0,1579,0,0,0,0,0,0,0,0,0,0,1579,0,0,0,0,0,0,0,0,0,0,0,0,0,0,0,0,1581,1600,0,0,0,0,0,0,0,0,0,0,1600,0,1.07,NA,NA
1998,37885SRYBT100SE,SEA RAY BOATS TELLICO FACILITY,100 SEA RAY CIR,VONORE,MONROE,TN,37885,35.61305,-84.25926,3732,,,,,,336612,,,,,,1398120197215,METHYL METHACRYLATE,000080626,YES,NON-PBT,NO,0,NO,R,Pounds,0,50000,0,0,0,0,0,0,0,0,0,0,50000,0,0,0,0,0,0,0,0,0,0,0,0,0,0,0,0,0,0,0,0,0,0,0,0,0,0,0,0,0,0,0,0,0,0,0,0,0,50000,50000,0,0,0,0,0,0,0,0,0,0,50000,0,1.04,BRUNSWICK CORP,001307636
1998,38474CMRCSMTJOY,CYTEC INDUSTRIES INC,7910 MT JOY RD,MOUNT PLEASANT,MAURY,TN,38474,35.519154,-87.241478,2821,2822,2869,2899,,,325211,,,,,,1398120258746,CHLOROETHANE,000075003,YES,NON-PBT,NO,0,NO,R,Pounds,230,0,0,0,0,0,0,0,0,0,0,0,230,0,0,0,0,0,0,0,0,0,0,0,0,0,0,0,0,0,0,0,0,0,0,0,0,0,0,0,0,0,0,0,0,0,0,0,0,0,230,230,0,0,0,0,0,0,0,0,850000,0,850230,0,.2,CYTEC INDUSTRIES INC,809749948
1998,38104BTRCH1351W,CONAGRA GROCERY PRODUCTS CO,1351 WILLIAMS AVE,MEMPHIS,SHELBY,TN,38104,35.121287,-90.016577,2079,,,,,,311999,,,,,,1398120452483,NICKEL,007440020,YES,NON-PBT,YES,1,YES,R,Pounds,0,0,0,0,0,0,0,0,0,0,0,0,0,0,0,0,0,0,0,0,0,0,0,0,0,0,0,0,0,0,0,0,0,0,0,11000,0,0,0,11000,0,0,0,0,0,0,0,0,0,0,0,0,0,0,0,0,0,0,0,11000,0,0,11000,0,1,CONAGRA FOODS INC,007258908
1998,38002DLTND5700C,DELTA INDUSTRIAL COATINGS INC.,5700 COMMANDER DR,ARLINGTON,SHELBY,TN,38002,35.280322,-89.674161,2851,,,,,,325510,,,,,,1398120482171,XYLENE (MIXED ISOMERS),001330207,YES,NON-PBT,NO,0,NO,R,Pounds,4600,130,0,0,0,0,0,0,0,0,0,0,4730,0,0,0,0,0,0,0,0,0,0,0,0,0,0,0,0,0,0,0,0,0,0,0,0,0,0,0,20500,0,20500,0,0,0,0,0,0,0,4730,4600,0,0,0,0,0,20500,71500,0,0,0,96600,0,1.06,NA,NA
1998,38058BLLNGHWY51,BILLINGS TILE & MARBLE INC,13779 HWY 51,MUNFORD,TIPTON,TN,380585238,35.421105,-89.82034,3088,,,,,,326191,,,,,,1398120514601,STYRENE,000100425,YES,NON-PBT,NO,0,YES,R,Pounds,2658,0,0,0,0,0,0,0,0,0,0,0,2658,0,0,0,0,0,0,0,0,0,0,0,0,0,0,0,0,0,0,0,0,0,0,0,0,0,0,0,0,0,0,0,0,0,0,0,0,0,2658,2658,0,0,0,0,0,0,0,0,0,0,2658,0,0,NA,NA
1998,37818CHRKWSPRIN,APPALACHIAN FOREST PRODUCTS LLC,125 SPRING ST S,MOSHEIM,GREENE,TN,37818,36.187104,-82.960325,2491,,,,,,321114,,,,,,1398120526381,CHROMIUM COMPOUNDS(EXCEPT CHROMITE ORE MINED IN THE TRANSVAAL REGION),N090,YES,NON-PBT,YES,1,NO,R,Pounds,0,0,0,0,0,0,0,0,0,0,0,0,0,0,0,0,0,0,0,0,0,0,0,0,0,0,0,0,500,0,0,0,0,500,0,0,0,0,0,0,0,0,0,0,0,0,0,0,0,0,500,79,0,0,0,0,0,0,823,0,0,0,902,0,1.03,NA,NA
1998,37066GFFRN525ST,GF OFFICE FURNITURE LTD LP,525 STEAM PLANT RD,GALLATIN,SUMNER,TN,370661918,36.38091,-86.42535,2522,,,,,,337214,,,,,,1398120702903,ETHYLBENZENE,000100414,YES,NON-PBT,NO,0,NO,R,Pounds,28099,0,0,0,0,0,0,0,0,0,0,4222,32321,0,0,0,0,0,0,0,0,0,0,0,0,0,0,0,0,0,0,0,0,0,26341,0,0,0,0,26341,0,0,0,0,0,0,0,0,0,0,32321,28099,0,0,0,0,0,0,0,26341,0,0,54440,4222,0,NA,NA
1998,38106WLLMS1237R,VALERO RIVERSIDE TERMINAL,1237 RIVERSIDE AVE,MEMPHIS,SHELBY,TN,38106,35.114455,-90.074258,5171,,,,,,424710,,,,,,1398121053300,P-XYLENE,000106423,YES,NON-PBT,NO,0,NO,A,Pounds,0,0,0,0,0,0,0,0,0,0,0,0,0,0,0,0,0,0,0,0,0,0,0,0,0,0,0,0,0,0,0,0,0,0,0,0,0,0,0,0,0,0,0,0,0,0,0,0,0,0,0,0,0,0,0,0,0,0,0,0,0,0,0,0,,VALERO ENERGY CORP,082686916
1998,37202STFFR4600C,INNOPHOS INC,4600 CENTENNIAL BLVD,NASHVILLE,DAVIDSON,TN,37209,36.164722,-86.843333,2819,,,,,,325188,,,,,,1398125196838,PHOSPHORUS (YELLOW OR WHITE),007723140,YES,NON-PBT,NO,0,NO,R,Pounds,0,0,0,0,0,0,0,0,0,0,0,0,0,0,0,0,0,0,0,0,0,0,0,0,0,0,0,0,0,0,0,0,0,0,0,0,0,0,0,0,0,0,0,0,0,0,0,0,0,0,0,1,0,0,0,0,0,0,1,0,0,0,2,0,.94,NA,NA
1998,38501THDRR1978F,FLOWSERVE,1978 FOREMAN DR,COOKEVILLE,PUTNAM,TN,38501,36.1404,-85.531499,3494,,,,,,332911,,,,,,1398125279467,CHROMIUM,007440473,YES,NON-PBT,YES,1,YES,R,Pounds,31,0,0,0,0,0,0,0,0,0,0,0,31,0,0,0,0,0,0,0,0,0,2184,0,0,0,0,0,0,0,0,0,0,2184,0,79174,0,0,0,79174,0,0,0,0,0,0,0,0,0,0,2215,2238,0,0,0,0,0,0,0,79174,0,0,81412,0,.86,FLOWSERVE CORP,004241550
1998,38113WMBRR2105C,WM BARR & CO,2105 CHANNEL AVE,MEMPHIS,SHELBY,TN,38113,35.089149,-90.11273,2851,,,,,,325510,,,,,,1398125295271,ETHYLBENZENE,000100414,YES,NON-PBT,NO,0,NO,R,Pounds,575,0,0,0,0,0,0,0,0,0,0,0,575,0,5,5,0,0,0,0,0,0,0,0,0,0,0,0,0,0,0,0,0,0,0,0,0,0,0,0,263,0,263,0,0,0,0,0,0,0,575,575,0,0,0,0,0,263,0,0,93,5,936,0,1.11,WM BARR & CO INC,007017288
1998,37662TNNSSEASTM,EASTMAN CHEMICAL CO TENNESSEE OPERATIONS,100 EASTMAN RD,KINGSPORT,SULLIVAN,TN,37662,36.533333,-82.560833,2821,2823,2865,2869,2893,,325211,,,,,,1398125336952,TETRACHLOROETHYLENE,000127184,YES,NON-PBT,NO,0,YES,R,Pounds,31000,0,41,0,0,0,0,0,0,0,0,0,31041,0,0,0,0,0,0,0,0,0,0,0,0,0,0,0,0,0,0,0,0,0,130000,0,0,0,0,130000,0,0,0,0,0,0,0,0,0,0,31041,31000,0,0,0,0,0,0,0,130000,27000,0,188000,0,.3,EASTMAN CHEMICAL CO,NA
1998,38242DNCRP100PL,DANA SEALING PRODUCTS LLC,100 PLUMLEY DR,PARIS,HENRY,TN,38242,36.30746,-88.25991,3052,3069,,,,,326220,,,,,,1398120644810,CADMIUM COMPOUNDS,N078,YES,NON-PBT,YES,1,NO,R,Pounds,0,0,0,0,0,0,0,0,0,0,0,0,0,0,0,0,0,0,0,0,0,0,0,0,0,0,0,0,0,0,0,0,0,0,0,0,0,0,0,0,0,0,0,0,0,0,0,0,0,0,0,0,0,0,0,0,0,0,0,0,0,0,0,0,0,DANA HOLDING CORP,005040555
1998,38242DNCRP100PL,DANA SEALING PRODUCTS LLC,100 PLUMLEY DR,PARIS,HENRY,TN,38242,36.30746,-88.25991,2822,,,,,,326220,,,,,,1398120644897,ZINC COMPOUNDS,N982,NO,NON-PBT,YES,1,NO,R,Pounds,34,0,0,0,0,0,0,0,0,0,0,0,34,0,0,0,0,0,0,0,0,0,0,0,0,0,0,0,0,0,0,0,0,0,0,0,0,0,0,0,0,0,0,0,0,0,0,0,0,0,34,34,0,0,0,0,0,0,0,0,0,0,34,0,.97,DANA HOLDING CORP,005040555
1998,38106SHLND5263N,ASHLAND DISTRIBUTION KNOXVILLE,5263 NATIONAL DR,KNOXVILLE,KNOX,TN,37914,35.952519,-83.831177,5169,,,,,,424690,,,,,,1398121035669,DI(2-ETHYLHEXYL) PHTHALATE,000117817,YES,NON-PBT,NO,0,YES,A,Pounds,0,0,0,0,0,0,0,0,0,0,0,0,0,0,0,0,0,0,0,0,0,0,0,0,0,0,0,0,0,0,0,0,0,0,0,0,0,0,0,0,0,0,0,0,0,0,0,0,0,0,0,0,0,0,0,0,0,0,0,0,0,0,0,0,,ASHLAND INC,005003264
1998,38106SHLND5263N,ASHLAND DISTRIBUTION KNOXVILLE,5263 NATIONAL DR,KNOXVILLE,KNOX,TN,37914,35.952519,-83.831177,5169,,,,,,424690,,,,,,1398121035707,METHANOL,000067561,YES,NON-PBT,NO,0,NO,A,Pounds,0,0,0,0,0,0,0,0,0,0,0,0,0,0,0,0,0,0,0,0,0,0,0,0,0,0,0,0,0,0,0,0,0,0,0,0,0,0,0,0,0,0,0,0,0,0,0,0,0,0,0,0,0,0,0,0,0,0,0,0,0,0,0,0,,ASHLAND INC,005003264
1998,37129VNWTR912DA,UNIVAR USA INC MURFREESBORO FA CILITY,912 DASHIEL ST,MURFREESBORO,RUTHERFORD,TN,37129,35.854443,-86.406011,5169,,,,,,424690,,,,,,1398121074987,ETHYLENE GLYCOL,000107211,YES,NON-PBT,NO,0,NO,A,Pounds,0,0,0,0,0,0,0,0,0,0,0,0,0,0,0,0,0,0,0,0,0,0,0,0,0,0,0,0,0,0,0,0,0,0,0,0,0,0,0,0,0,0,0,0,0,0,0,0,0,0,0,0,0,0,0,0,0,0,0,0,0,0,0,0,,NA,NA
1998,38109BRMNG3601P,NUCOR STEEL MEMPHIS INC,3601 PAUL R LOWRY RD,MEMPHIS,SHELBY,TN,38109,35.054166,-90.175,3312,,,,,,331111,,,,,,1398121042612,COPPER,007440508,NO,NON-PBT,YES,1,NO,A,Pounds,0,0,0,0,0,0,0,0,0,0,0,0,0,0,0,0,0,0,0,0,0,0,0,0,0,0,0,0,0,0,0,0,0,0,0,0,0,0,0,0,0,0,0,0,0,0,0,0,0,0,0,0,0,0,0,0,0,0,0,0,0,0,0,0,,NUCOR CORP,003446796
1998,37210LDDNN703MU,ALADDIN INDUSTRIES LLC,703 MURFREESBORO RD,NASHVILLE,DAVIDSON,TN,37210,36.140302,-86.736885,3471,3469,3499,,,,332813,,,,,,1398121051027,CHROMIUM,007440473,YES,NON-PBT,YES,1,YES,A,Pounds,0,0,0,0,0,0,0,0,0,0,0,0,0,0,0,0,0,0,0,0,0,0,0,0,0,0,0,0,0,0,0,0,0,0,0,0,0,0,0,0,0,0,0,0,0,0,0,0,0,0,0,0,0,0,0,0,0,0,0,0,0,0,0,0,,ALADDIN INDUSTRIES LLC,004045829
1998,38113GRTDN1095H,GREAT DANE LTD PARTNERS,1095 HARBOR AVE,MEMPHIS,SHELBY,TN,38113,35.108012,-90.090729,3715,,,,,,336212,,,,,,1398125224737,TOLUENE,000108883,YES,NON-PBT,NO,0,NO,R,Pounds,0,61473,0,0,0,0,0,0,0,0,0,0,61473,0,0,0,0,0,0,0,0,0,0,0,0,0,0,0,0,0,0,0,0,0,0,0,4853,0,0,4853,0,0,0,0,0,0,0,0,0,0,61473,61473,0,0,0,0,0,61473,9051,0,0,0,131997,0,1.15,GREAT DANE LTD PARTNERS,964881395
1998,38301CNSLDCONAL,JW ALUMINUM,200 CONALCO DR,JACKSON,MADISON,TN,38301,35.6375,-88.799167,3353,,,,,,331315,,,,,,1398125258172,XYLENE (MIXED ISOMERS),001330207,YES,NON-PBT,NO,0,NO,R,Pounds,250,250,0,0,0,0,0,0,0,0,0,0,500,0,0,0,0,0,0,0,0,0,0,0,0,0,0,0,0,0,0,0,0,0,250,0,0,0,0,250,0,0,0,0,0,0,0,0,0,0,500,500,0,0,0,0,0,0,0,300,0,0,800,0,1.22,JW ALUMINUM CO,189170715
1998,38501THDRR1978F,FLOWSERVE,1978 FOREMAN DR,COOKEVILLE,PUTNAM,TN,38501,36.1404,-85.531499,3494,,,,,,332911,,,,,,1398125279529,COPPER,007440508,NO,NON-PBT,YES,1,NO,R,Pounds,5,0,0,0,0,0,0,0,0,0,0,0,5,0,0,0,0,0,0,0,0,0,638,0,0,0,0,0,0,0,0,0,0,638,0,13196,0,0,0,13196,0,0,0,0,0,0,0,0,0,0,643,638,0,0,0,0,0,0,0,13196,0,0,13834,0,.86,FLOWSERVE CORP,004241550
1998,37209DXWRC5901C,AFL WIRE PRODUCTS DIXIE WIRE,5901 CALIFORNIA AVE,NASHVILLE,DAVIDSON,TN,37209,36.164524,-86.858341,3357,,,,,,331000,,,,,,1398120749294,LEAD,007439921,YES,PBT,YES,1,YES,R,Pounds,0,0,0,0,0,0,0,0,0,0,0,0,0,0,0,0,0,0,0,0,0,0,0,0,0,0,0,0,0,0,0,23037,0,23037,0,0,0,0,0,0,0,0,0,0,0,0,0,0,0,0,23037,23037,0,0,0,0,0,0,0,0,0,0,23037,0,.91,AEES INC,001339472
1998,37919BRGGS5040N,BRIGGS INDUSTRIES INC,5040 NATIONAL DR,KNOXVILLE,KNOX,TN,37914,35.948344,-83.836562,3431,,,,,,332998,,,,,,1398121099891,NICKEL,007440020,YES,NON-PBT,YES,1,YES,A,Pounds,0,0,0,0,0,0,0,0,0,0,0,0,0,0,0,0,0,0,0,0,0,0,0,0,0,0,0,0,0,0,0,0,0,0,0,0,0,0,0,0,0,0,0,0,0,0,0,0,0,0,0,0,0,0,0,0,0,0,0,0,0,0,0,0,,NA,NA
1998,37716MLLRN1330C,MUELLER INDUSTRIES LINESETS DIV,1330 CARDEN FARM RD,CLINTON,ANDERSON,TN,37716,36.10504,-84.12239,5075,3061,,,,,326291,,,,,,1398121109856,2-MERCAPTOBENZOTHIAZOLE,000149304,NO,NON-PBT,NO,0,NO,A,Pounds,0,0,0,0,0,0,0,0,0,0,0,0,0,0,0,0,0,0,0,0,0,0,0,0,0,0,0,0,0,0,0,0,0,0,0,0,0,0,0,0,0,0,0,0,0,0,0,0,0,0,0,0,0,0,0,0,0,0,0,0,0,0,0,0,,MUELLER INDUSTRIES INC,622031748
1998,38113CRGLL2330B,CARGILL INC,2330 BUOY ST,MEMPHIS,SHELBY,TN,38113,35.098056,-90.136389,2046,,,,,,311221,,,,,,1398120711256,"SULFURIC ACID (1994 AND AFTER ""ACID AEROSOLS"" ONLY)",007664939,NO,NON-PBT,NO,0,NO,R,Pounds,0,49300,0,0,0,0,0,0,0,0,0,0,49300,0,0,0,0,0,0,0,0,0,0,0,0,0,0,0,0,0,0,0,0,0,0,0,0,0,0,0,0,0,0,0,0,0,0,0,0,0,49300,49300,0,0,0,0,0,0,0,0,3900,0,53200,0,.96,CARGILL INC,006249189
1998,38242TCMSH2700W,TECUMSEH PRODUCTS CO PARIS DIV,2700 W WOOD STREET-HWY 54,PARIS,HENRY,TN,38242,36.300358,-88.364258,3621,,,,,,335312,,,,,,1398120742491,COPPER,007440508,NO,NON-PBT,YES,1,NO,R,Pounds,0,0,0,0,0,0,0,0,0,0,0,0,0,0,0,0,0,0,0,0,0,0,0,0,0,0,0,0,0,0,0,802,0,802,0,298474,0,0,0,298474,0,0,0,0,0,0,0,0,0,0,802,802,0,0,0,0,0,0,0,298474,0,0,299276,0,.96,TECUMSEH POWER CO,005049440
1998,37050STVCM815CU,US TVA CUMBERLAND FOSSIL PLANT,815 CUMBERLAND CITY RD,CUMBERLAND CITY,STEWART,TN,370502000,36.391944,-87.655556,4911,,,,,,221112,,,,,,1398120750878,NITRATE COMPOUNDS,N511,NO,NON-PBT,NO,0,NO,R,Pounds,0,0,1100000,0,0,0,0,0,0,0,0,0,1100000,0,0,0,0,0,0,0,0,0,0,0,0,0,0,0,0,0,0,0,0,0,0,0,0,0,0,0,0,0,0,0,0,0,0,0,0,0,1100000,750000,0,0,0,0,0,0,0,0,420000,0,1170000,0,0,US TENNESSEE VALLEY AUTHORITY,NA
1998,37854HRSHDENDOF,HORSEHEAD CORP,END OF W BALDWIN ST,ROCKWOOD,ROANE,TN,37854,35.865555,-84.697502,2816,,,,,,331000,,,,,,1398121077806,CADMIUM COMPOUNDS,N078,YES,NON-PBT,YES,1,NO,A,Pounds,0,0,0,0,0,0,0,0,0,0,0,0,0,0,0,0,0,0,0,0,0,0,0,0,0,0,0,0,0,0,0,0,0,0,0,0,0,0,0,0,0,0,0,0,0,0,0,0,0,0,0,0,0,0,0,0,0,0,0,0,0,0,0,0,,HORSEHEAD HOLDING CORP,NA
1998,38478JHNSN1890M,JOHNSON CONTROLS INC,1890 MINES RD,PULASKI,GILES,TN,38478,35.228072,-87.06786,2531,,,,,,326150,,,,,,1398121070965,DIETHANOLAMINE,000111422,YES,NON-PBT,NO,0,NO,A,Pounds,0,0,0,0,0,0,0,0,0,0,0,0,0,0,0,0,0,0,0,0,0,0,0,0,0,0,0,0,0,0,0,0,0,0,0,0,0,0,0,0,0,0,0,0,0,0,0,0,0,0,0,0,0,0,0,0,0,0,0,0,0,0,0,0,,JOHNSON CONTROLS INC,006092860
1998,38001WSTNGRT1,ABB INC ALAMO,1128 S CAVALIER DR,ALAMO,CROCKETT,TN,38001,35.777778,-89.120833,3612,,,,,,335311,,,,,,1398125275507,COPPER,007440508,NO,NON-PBT,YES,1,NO,R,Pounds,0,0,0,0,0,0,0,0,0,0,0,0,0,0,0,0,0,0,0,0,0,0,0,0,0,0,0,0,0,0,0,0,0,0,0,0,0,0,105000,105000,0,0,0,0,0,0,0,0,0,0,0,0,0,0,0,0,0,0,0,105000,0,0,105000,0,96,ABB INC,NA
1998,38301TCHST321BE,TOUCHSTONE CO,315 AIRWAYS BLVD,JACKSON,MADISON,TN,38301,35.6167,-88.833819,3743,,,,,,333911,,,,,,1398125291803,COPPER COMPOUNDS,N100,NO,NON-PBT,YES,1,NO,R,Pounds,42,165,0,0,0,0,0,0,0,0,0,0,207,1,0,1,0,100,0,0,0,0,0,0,0,0,0,0,0,0,0,0,0,100,0,0,0,0,386,386,0,0,0,0,0,0,0,0,0,0,308,168,0,0,0,0,0,10,0,115980,0,537,116695,0,,MOTIVEPOWER INDUSTRIES INC,859875437
1998,37343WHLND2800S,NORTH AMERICAN ROYALTIES INC. WHELAND AUTOMOTIVE INDUSTRIES,2800 S. BROAD ST.,CHATTANOOGA,HAMILTON,TN,37408,35.02481,-85.31827,3321,,,,,,331511,,,,,,1398125299608,NAPHTHALENE,000091203,YES,NON-PBT,NO,0,NO,R,Pounds,1800,3300,0,0,0,0,0,0,0,0,0,0,5100,0,5,5,0,0,0,0,0,0,245,0,0,0,0,0,0,0,0,0,0,245,0,0,819,0,0,819,0,0,0,0,0,0,0,0,0,0,5345,5300,0,0,0,0,0,0,0,820,0,5,6125,0,.89,NORTH AMERICAN ROYALTIES INC,003332012
1998,37134DPNTJ1DUPO,DUPONT JOHNSONVILLE PLANT,1 DU PONT RD,NEW JOHNSONVILLE,HUMPHREYS,TN,371340219,36.043056,-87.981667,2816,,,,,,325131,,,,,,1398125365623,ARSENIC COMPOUNDS,N020,YES,NON-PBT,YES,1,NO,R,Pounds,0,0,0,4100,0,0,9800,0,0,0,0,0,13900,0,0,0,0,0,0,0,0,0,0,0,0,0,0,0,0,0,0,0,0,0,0,0,0,0,0,0,0,0,0,0,0,0,0,0,0,0,13900,13900,0,0,0,0,0,0,0,0,0,0,13900,0,.99,E I DU PONT DE NEMOURS & CO INC,001315704
1998,37914NTNLS5427N,NATIONAL STANDARD CO.,5427 NATIONAL DR.,KNOXVILLE,KNOX,TN,37914,35.957582,-83.825537,3471,,,,,,332813,,,,,,1398121100251,NICKEL COMPOUNDS,N495,YES,NON-PBT,YES,1,NO,A,Pounds,0,0,0,0,0,0,0,0,0,0,0,0,0,0,0,0,0,0,0,0,0,0,0,0,0,0,0,0,0,0,0,0,0,0,0,0,0,0,0,0,0,0,0,0,0,0,0,0,0,0,0,0,0,0,0,0,0,0,0,0,0,0,0,0,,NATIONAL STANDARD CO,006371991
1998,38066MRSSM80MOR,EGGO CO,585 MORRISON RD,ROSSVILLE,FAYETTE,TN,38066,35.045833,-89.547778,2053,,,,,,311412,,,,,,1398125283972,AMMONIA,007664417,NO,NON-PBT,NO,0,NO,R,Pounds,10200,0,0,0,0,0,0,0,0,0,0,0,10200,0,0,0,0,0,0,0,0,0,0,0,0,0,0,0,0,0,0,0,0,0,0,0,0,0,0,0,0,0,0,0,0,0,0,0,0,0,10200,10200,0,0,0,0,0,0,0,0,0,0,10200,0,38.34,KELLOGG USA INC,005356209
1998,37327TCMSH325IN,TECUMSEH POWER CO,510 TRAIM TRAIL,DUNLAP,SEQUATCHIE,TN,37327,35.390387,-85.378901,3519,,,,,,333132,,,,,,1398125355406,XYLENE (MIXED ISOMERS),001330207,YES,NON-PBT,NO,0,NO,R,Pounds,250,7495,0,0,0,0,0,0,0,0,0,0,7745,0,0,0,0,0,0,0,0,0,0,0,0,0,0,0,0,0,0,0,0,0,0,0,0,0,0,0,4193,0,4193,0,0,0,0,0,0,0,7745,134,0,0,0,0,0,4193,11534,0,0,0,15861,0,,NA,NA
1998,38127WRGRC5790O,PCS NITROGEN FERTILIZER LP,5790 OLD MILLINGTON RD,MILLINGTON,SHELBY,TN,38053,35.284353,-89.967173,2873,,,,,,325311,,,,,,1398121068478,CHROMIUM COMPOUNDS(EXCEPT CHROMITE ORE MINED IN THE TRANSVAAL REGION),N090,YES,NON-PBT,YES,1,NO,A,Pounds,0,0,0,0,0,0,0,0,0,0,0,0,0,0,0,0,0,0,0,0,0,0,0,0,0,0,0,0,0,0,0,0,0,0,0,0,0,0,0,0,0,0,0,0,0,0,0,0,0,0,0,0,0,0,0,0,0,0,0,0,0,0,0,0,,PCS NITROGEN INC,605002864
1998,37086PLMCM1289B,PALM COMMODITIES INTERNATIONAL,1289 BRIDGESTONE PKWY,LA VERGNE,RUTHERFORD,TN,37086,36.005007,-86.60227,2819,5169,,,,,325188,,,,,,1398121110466,NITRIC ACID,007697372,NO,NON-PBT,NO,0,NO,A,Pounds,0,0,0,0,0,0,0,0,0,0,0,0,0,0,0,0,0,0,0,0,0,0,0,0,0,0,0,0,0,0,0,0,0,0,0,0,0,0,0,0,0,0,0,0,0,0,0,0,0,0,0,0,0,0,0,0,0,0,0,0,0,0,0,0,,PALM COMMODITIES INTERNATIONAL,NA
1998,37086BRDGSPOBOX,BRIDGESTONE AMERICAS TIRE OPERATIONS LLC,1201 BRIDGESTONE PKWY,LA VERGNE,RUTHERFORD,TN,37086,36.00424,-86.59555,3011,,,,,,326211,,,,,,1398120666235,COBALT COMPOUNDS,N096,YES,NON-PBT,YES,1,YES,R,Pounds,0,0,0,0,0,0,0,0,0,0,0,0,0,0,0,0,0,1514,0,0,0,0,154,0,0,0,0,0,0,0,0,0,0,1668,0,0,874,0,0,874,0,0,0,0,0,0,0,0,0,0,1668,154,0,0,0,0,0,0,0,874,0,1514,2542,0,1.01,BRIDGESTONE AMERICAS HOLDING INC,001288109
1998,37409PBSCN317WA,BRENNTAG MID-SOUTH INC,317 WAUHATCHIE PIKE,CHATTANOOGA,HAMILTON,TN,37409,35.007389,-85.37812,5169,,,,,,424690,,,,,,1398121016430,DICHLOROMETHANE,000075092,YES,NON-PBT,NO,0,YES,A,Pounds,0,0,0,0,0,0,0,0,0,0,0,0,0,0,0,0,0,0,0,0,0,0,0,0,0,0,0,0,0,0,0,0,0,0,0,0,0,0,0,0,0,0,0,0,0,0,0,0,0,0,0,0,0,0,0,0,0,0,0,0,0,0,0,0,,BRENNTAG NA INC,NA
1998,37030WLLMLHWY53,BON L MANUFACTURING CO,HWY 53 BONNELL RD,CARTHAGE,SMITH,TN,37030,36.205166,-85.94769,3341,3354,3446,3471,,,331316,,,,,,1398121069619,DIISOCYANATES,N120,YES,NON-PBT,NO,0,NO,A,Pounds,0,0,0,0,0,0,0,0,0,0,0,0,0,0,0,0,0,0,0,0,0,0,0,0,0,0,0,0,0,0,0,0,0,0,0,0,0,0,0,0,0,0,0,0,0,0,0,0,0,0,0,0,0,0,0,0,0,0,0,0,0,0,0,0,,TREDEGAR CORP,555463785
1998,37321FJHNT411MA,FUJIFILM HUNT CHEMICALS USA  INC,411 MANUFACTURER'S RD,DAYTON,RHEA,TN,37321,35.524244,-85.000731,2869,2899,,,,,325998,,,,,,1398121078152,CARBON DISULFIDE,000075150,YES,NON-PBT,NO,0,NO,A,Pounds,0,0,0,0,0,0,0,0,0,0,0,0,0,0,0,0,0,0,0,0,0,0,0,0,0,0,0,0,0,0,0,0,0,0,0,0,0,0,0,0,0,0,0,0,0,0,0,0,0,0,0,0,0,0,0,0,0,0,0,0,0,0,0,0,,FUJIFILM HOLDINGS AMERICA CORP,NA
1998,37406VNWTRTHREE,UNIVAR USA INC CHATTANOOGA FAC ILITY,THREE RIVERSIDE LN,CHATTANOOGA,HAMILTON,TN,374061725,35.083809,-85.27459,5169,,,,,,424690,,,,,,1398121071106,ETHYLENE GLYCOL,000107211,YES,NON-PBT,NO,0,NO,A,Pounds,0,0,0,0,0,0,0,0,0,0,0,0,0,0,0,0,0,0,0,0,0,0,0,0,0,0,0,0,0,0,0,0,0,0,0,0,0,0,0,0,0,0,0,0,0,0,0,0,0,0,0,0,0,0,0,0,0,0,0,0,0,0,0,0,,UNIVAR USA INC,NA
1998,37744DHLRJRUFET,GREENEVILLE CASTING INC,500 N RUFE TAYLOR RD,GREENEVILLE,GREENE,TN,37745,36.18691,-82.77497,3363,,,,,,331521,,,,,,1398125147951,TRIETHYLAMINE,000121448,YES,NON-PBT,NO,0,NO,R,Pounds,250,0,0,0,0,0,0,0,0,0,0,0,250,0,0,0,0,0,0,0,0,0,0,0,0,0,0,0,0,0,0,0,0,0,0,0,0,0,0,0,0,0,0,0,0,0,0,0,0,0,250,250,0,0,0,0,0,0,0,0,73000,0,73250,0,.67,GREENEVILLE CASTING INC,092894752
1998,38052DVRLVHIGHW,THYSSEN DOVER ELEVATOR SYS.,HWY. 125 S.,MIDDLETON,HARDEMAN,TN,38052,35.049442,-88.889442,3534,,,,,,333921,,,,,,1398125260291,METHYL ETHYL KETONE,000078933,NO,NON-PBT,NO,0,NO,R,Pounds,4500,11040,0,0,0,0,0,0,0,0,0,0,15540,0,0,0,0,0,0,0,0,0,0,0,0,0,0,0,0,0,0,0,0,0,0,0,0,0,0,0,0,0,0,0,0,0,0,0,0,0,15540,15540,0,0,0,0,0,0,0,0,0,0,15540,0,2.2,THYSSEN DOVER CORP,008964777
1998,37343WHLND2800S,NORTH AMERICAN ROYALTIES INC. WHELAND AUTOMOTIVE INDUSTRIES,2800 S. BROAD ST.,CHATTANOOGA,HAMILTON,TN,37408,35.02481,-85.31827,3321,,,,,,331511,,,,,,1398125301390,CERTAIN GLYCOL ETHERS,N230,YES,NON-PBT,NO,0,NO,R,Pounds,1500,81,0,0,0,0,0,0,0,0,0,0,1581,0,11000,11000,0,0,0,0,0,0,19620,0,0,0,0,0,0,0,0,0,0,19620,0,0,0,0,0,0,0,0,0,0,0,0,0,0,0,0,21201,21000,0,0,0,0,0,0,0,0,0,11000,32000,0,.89,NORTH AMERICAN ROYALTIES INC,003332012
1998,37130JVLNB880BU,GENMAR TENNESSEE INC (STRATOS BOATS INC),880 BUTLER RD,MURFREESBORO,RUTHERFORD,TN,37127,35.796183,-86.380207,3732,,,,,,336612,,,,,,1398125250910,STYRENE,000100425,YES,NON-PBT,NO,0,YES,R,Pounds,57928,228733,0,0,0,0,0,0,0,0,0,0,286661,0,0,0,0,0,0,0,0,0,0,0,0,0,0,0,0,0,0,0,0,0,0,0,0,0,0,0,0,0,0,0,0,0,0,0,0,0,286661,286661,0,0,0,0,0,0,0,0,0,0,286661,0,1,NA,NA
1998,38115PRTNT4272S,SOLAE LLC MEMPHIS,4272 S MENDENHALL RD,MEMPHIS,SHELBY,TN,38141,35.03058,-89.884119,2869,2297,2821,,,,311222,,,,,,1398120735877,AMMONIA,007664417,NO,NON-PBT,NO,0,NO,R,Pounds,20360,0,0,0,0,0,0,0,0,0,0,0,20360,0,36671,36671,0,0,0,0,0,0,0,0,0,0,0,0,0,0,0,0,0,0,0,0,0,0,0,0,0,0,0,0,0,0,0,0,0,0,20360,20360,0,0,0,0,0,0,0,0,0,36671,57031,0,1.07,E I DU PONT DE NEMOURS & CO INC,001315704
1998,37086PLMCM1289B,PALM COMMODITIES INTERNATIONAL,1289 BRIDGESTONE PKWY,LA VERGNE,RUTHERFORD,TN,37086,36.005007,-86.60227,2819,5169,,,,,325188,,,,,,1398120739673,NICKEL COMPOUNDS,N495,YES,NON-PBT,YES,1,NO,R,Pounds,0,0,250,0,0,0,0,0,0,0,0,0,250,5,0,5,0,0,0,0,0,0,0,0,0,0,0,0,0,0,0,0,0,0,0,17415,0,0,0,17415,0,0,0,0,0,0,0,0,0,0,255,123,0,0,0,0,0,0,0,17415,7039,0,24577,0,1.35,PALM COMMODITIES INTERNATIONAL,NA
1998,37204PRNML3601T,LAND O'LAKES PURINA FEED LLC - NASHVILLE TN,3601 TROUSDALE DR,NASHVILLE,DAVIDSON,TN,37204,36.09858,-86.74949,2048,,,,,,311119,,,,,,1398121014955,COPPER COMPOUNDS,N100,NO,NON-PBT,YES,1,NO,A,Pounds,0,0,0,0,0,0,0,0,0,0,0,0,0,0,0,0,0,0,0,0,0,0,0,0,0,0,0,0,0,0,0,0,0,0,0,0,0,0,0,0,0,0,0,0,0,0,0,0,0,0,0,0,0,0,0,0,0,0,0,0,0,0,0,0,,LAND O LAKES INC,006253835
1998,38063MGNTKSOUTH,A. O. SMITH ELECTRICAL PRODUCTS CO.,421 COMMERCE,RIPLEY,LAUDERDALE,TN,38063,35.723847,-89.554693,,3621,,,,,335312,,,,,,1398125036119,XYLENE (MIXED ISOMERS),001330207,YES,NON-PBT,NO,0,NO,R,Pounds,42144,83406,0,0,0,0,0,0,0,0,0,0,125550,0,0,0,0,0,0,0,0,0,0,0,0,0,0,0,0,0,0,0,0,0,0,0,0,0,0,0,6860,0,6860,0,0,0,0,0,0,0,125550,125550,0,0,0,0,0,6860,0,0,0,0,132410,0,.84,A O SMITH CORP,006085815
1998,37303THNSF10MAT,ATHENS FURNITURE INDUSTRIES INC BED PLANT,10 MATLOCK ST,ATHENS,MCMINN,TN,37303,35.440896,-84.611621,2511,,,,,,337122,,,,,,1398125015178,TOLUENE,000108883,YES,NON-PBT,NO,0,NO,R,Pounds,0,17838,0,0,0,0,0,0,0,0,0,0,17838,0,0,0,0,0,0,0,0,0,0,0,0,0,0,0,0,0,0,0,0,0,0,0,0,0,0,0,0,0,0,0,0,0,0,0,0,0,17838,17838,0,0,0,0,0,0,0,0,0,0,17838,0,.96,NA,003328937
1998,37421BNTNL4211C,BENTON OIL SERVICES INC,4211 CROMWELL RD,CHATTANOOGA,HAMILTON,TN,37421,35.066583,-85.200212,5171,,,,,,424710,,,,,,1398125069904,"1,2,4-TRIMETHYLBENZENE",000095636,NO,NON-PBT,NO,0,NO,R,Pounds,305,3,0,0,0,0,0,0,0,0,0,0,308,0,0,0,0,0,0,0,0,0,0,0,0,0,0,0,0,0,0,0,0,0,0,0,0,0,0,0,0,0,0,0,0,0,0,0,0,0,308,308,0,0,0,0,0,0,0,0,0,0,308,0,,BENTON OIL SERVICES INC,NA
1998,37841THRMDNO1IN,HBD IND INC,240 INDUSTRIAL LN,ONEIDA,SCOTT,TN,378414310,36.507778,-84.523056,3052,,,,,,326220,,,,,,1398125167724,DIBUTYL PHTHALATE,000084742,YES,NON-PBT,NO,0,NO,R,Pounds,0,0,0,0,0,0,0,0,0,0,0,0,0,0,0,0,0,0,0,0,0,0,2260,0,0,0,0,0,0,0,0,0,0,2260,0,0,0,0,0,0,0,0,0,0,0,0,0,0,0,0,2260,2260,0,0,0,0,0,0,0,0,0,0,2260,0,.75,HBD INDUSTRIES INC,NA
1998,37874GMTRNNEWHW,SCHOTT GEMTRON,615 HWY 68,SWEETWATER,MONROE,TN,37874,35.586111,-84.488889,3231,,,,,,327215,,,,,,1398125175669,ZINC COMPOUNDS,N982,NO,NON-PBT,YES,1,NO,R,Pounds,0,0,0,0,0,0,0,0,0,0,0,0,0,250,0,250,0,0,0,0,0,0,0,0,0,0,0,0,0,0,0,0,0,0,0,1279,0,0,0,1279,0,0,0,0,0,0,0,0,0,0,250,14,0,0,0,0,0,0,0,1279,0,0,1293,0,1.13,GEMTRON CORP,066720434
1998,37066CLFRN850ST,ITW CIP TENNESSEE,850 STEAM PLANT RD,GALLATIN,SUMNER,TN,37066,36.370008,-86.416091,3452,,,,,,332722,,,,,,1398125237457,PHOSPHORIC ACID,007664382,NO,NON-PBT,NO,0,NO,R,Pounds,0,0,0,0,0,0,0,0,0,0,0,0,0,0,0,0,0,0,0,0,0,0,0,0,0,0,0,0,0,0,0,0,0,0,0,0,0,0,0,0,0,0,0,0,0,0,0,0,0,0,0,0,0,0,0,0,0,0,0,0,23062,0,23062,0,.97,ILLINOIS TOOL WORKS INC,005146428
1998,38113THCPH2500C,HALLSTAR CO  MEMPHIS SOLUTIONS FACILITY,2500 CHANNEL AVE,MEMPHIS,SHELBY,TN,381130303,35.083183,-90.122889,2869,,,,,,325199,,,,,,1398121019208,ZINC COMPOUNDS,N982,NO,NON-PBT,YES,1,NO,A,Pounds,0,0,0,0,0,0,0,0,0,0,0,0,0,0,0,0,0,0,0,0,0,0,0,0,0,0,0,0,0,0,0,0,0,0,0,0,0,0,0,0,0,0,0,0,0,0,0,0,0,0,0,0,0,0,0,0,0,0,0,0,0,0,0,0,,HALLSTAR CO,NA
1998,38068RHLCN17155,RHEA OIL INC.,17155 HWY. 64,SOMERVILLE,FAYETTE,TN,38068,35.243324,-89.353447,5171,,,,,,424710,,,,,,1398121052738,ARSENIC,007440382,YES,NON-PBT,YES,1,YES,A,Pounds,0,0,0,0,0,0,0,0,0,0,0,0,0,0,0,0,0,0,0,0,0,0,0,0,0,0,0,0,0,0,0,0,0,0,0,0,0,0,0,0,0,0,0,0,0,0,0,0,0,0,0,0,0,0,0,0,0,0,0,0,0,0,0,0,,"WILLOUGHBY, INC",890439599
1998,37406NFMPR1101W,NU FOAM PRODUCTS INC,1101 WISDOM ST,CHATTANOOGA,HAMILTON,TN,37406,35.082878,-85.26123,3086,,,,,,326150,,,,,,1398125016408,TOLUENE DIISOCYANATE (MIXED ISOMERS),026471625,NO,NON-PBT,NO,0,YES,R,Pounds,250,250,0,0,0,0,0,0,0,0,0,0,500,0,0,0,0,0,0,0,0,0,0,0,0,0,0,0,0,0,0,0,0,0,0,0,0,0,0,0,0,0,0,0,0,0,0,0,0,0,500,196,0,0,0,0,0,0,0,0,0,0,196,0,.61,OHIO DECORATIVE PRODUCTS INC,005036264
1998,37401SPPFN25012,US PIPE & FOUNDRY CO LLC,2501 CHESTNUT ST,CHATTANOOGA,HAMILTON,TN,37408,35.02841,-85.31879,3321,,,,,,331511,,,,,,1398125248450,PHENOL,000108952,YES,NON-PBT,NO,0,NO,R,Pounds,16038,0,0,0,0,0,844,0,0,0,0,0,16882,0,0,0,0,0,0,0,0,0,0,0,0,0,0,0,0,0,0,0,0,0,0,0,0,0,0,0,0,0,0,0,0,0,0,0,0,0,16882,16982,0,0,0,0,0,0,0,0,0,0,16982,0,1.01,MUELLER WATER PRODUCTS INC,003501079
1998,38261KNKDDNORTH,KOHLER CO,2000 N 5TH ST,UNION CITY,OBION,TN,38261,36.443623,-89.05739,3354,3471,3499,3089,3479,3231,331316,,,,,,1398200820355,DI(2-ETHYLHEXYL) PHTHALATE,000117817,YES,NON-PBT,NO,0,YES,R,Pounds,0,0,0,0,0,0,0,0,0,0,0,0,0,0,0,0,0,0,0,0,0,0,3700,0,0,0,0,0,0,0,0,0,0,3700,0,0,0,0,0,0,0,0,0,0,0,0,0,0,0,0,3700,3700,0,0,0,0,0,0,0,0,0,0,3700,0,1.13,KOHLER CO,NA
1998,37330TYSNF234TY,TYSON FEEDMILL ESTILL SPRINGS,234 TYSON DR,ESTILL SPRINGS,FRANKLIN,TN,37330,35.275872,-86.127057,2048,,,,,,311119,,,,,,1398126021548,ZINC COMPOUNDS,N982,NO,NON-PBT,YES,1,NO,A,Pounds,0,0,0,0,0,0,0,0,0,0,0,0,0,0,0,0,0,0,0,0,0,0,0,0,0,0,0,0,0,0,0,0,0,0,0,0,0,0,0,0,0,0,0,0,0,0,0,0,0,0,0,0,0,0,0,0,0,0,0,0,0,0,0,0,,TYSON FOODS INC,006903702
1998,37312TNCRP3990O,EATON CORP,3990 OLD TASSO RD,CLEVELAND,BRADLEY,TN,373125827,35.17968,-84.831188,3613,,,,,,335313,,,,,,1398121111948,CHROMIUM,007440473,YES,NON-PBT,YES,1,YES,A,Pounds,0,0,0,0,0,0,0,0,0,0,0,0,0,0,0,0,0,0,0,0,0,0,0,0,0,0,0,0,0,0,0,0,0,0,0,0,0,0,0,0,0,0,0,0,0,0,0,0,0,0,0,0,0,0,0,0,0,0,0,0,0,0,0,0,,EATON CORP,004155818
1998,37172HNKLC4669M,HINKLE CHAIR CO,4669 MOUNT SHARON RD,SPRINGFIELD,ROBERTSON,TN,37172,36.42363,-86.89539,2511,,,,,,337122,,,,,,1398125094096,XYLENE (MIXED ISOMERS),001330207,YES,NON-PBT,NO,0,NO,R,Pounds,0,80037,0,0,0,0,0,0,0,0,0,0,80037,0,0,0,0,0,0,0,0,0,0,0,0,0,0,0,0,0,0,0,0,0,0,0,0,0,0,0,0,0,0,0,0,0,0,0,0,0,80037,80037,0,0,0,0,0,0,0,0,0,0,80037,0,,NA,NA
1998,38464MRRYHHANNO,MURRAY INC,100 HANNON DR,LAWRENCEBURG,LAWRENCE,TN,38464,35.259949,-87.372925,3751,3524,,,,,333000,,,,,,1398125105991,MANGANESE,007439965,YES,NON-PBT,YES,1,NO,R,Pounds,0,5,30,0,0,0,0,0,0,0,0,0,35,0,0,0,0,0,0,0,0,0,0,0,0,0,0,0,0,0,0,0,0,0,0,850000,0,0,0,850000,0,0,0,0,0,0,0,0,0,0,35,40,0,0,0,0,0,0,0,850000,0,0,850040,0,.88,NA,NA
1998,37204MRCSP638BE,MARCUS PAINT CO,638 BENTON AVE,NASHVILLE,DAVIDSON,TN,37204,36.132777,-86.7725,2851,,,,,,325510,,,,,,1398125152355,METHYL ETHYL KETONE,000078933,NO,NON-PBT,NO,0,NO,R,Pounds,750,0,0,0,0,0,0,0,0,0,0,0,750,0,0,0,0,0,0,0,0,0,0,0,0,0,0,0,0,0,0,0,0,0,45900,0,0,0,0,45900,8100,0,8100,0,0,0,0,0,0,0,750,950,0,0,0,0,0,8100,0,45900,0,0,54950,0,1.05,MARCUS PAINT CO,006383202
1998,37040SVGZN1800Z,NYRSTAR CLARKSVILLE INC,1800 ZINC PLANT RD,CLARKSVILLE,MONTGOMERY,TN,37040,36.518889,-87.409444,1031,,,,,,212231,,,,,,1398125125118,CADMIUM COMPOUNDS,N078,YES,NON-PBT,YES,1,NO,R,Pounds,5,1126,376,0,0,0,0,0,78991,0,0,0,80498,0,0,0,0,0,0,0,0,0,0,0,0,0,0,0,0,0,0,0,0,0,0,0,0,0,0,0,0,0,0,0,0,0,0,0,0,0,80498,80000,0,0,0,0,0,0,0,0,0,0,80000,0,1.01,NYRSTAR INC,NA
1998,37040RCTGR451AR,WORLDCOLOR,451 INTERNATIONAL BLVD,CLARKSVILLE,MONTGOMERY,TN,37040,36.603844,-87.258672,2721,,,,,,511120,,,,,,1398125211173,CERTAIN GLYCOL ETHERS,N230,YES,NON-PBT,NO,0,NO,R,Pounds,0,11520,0,0,0,0,0,0,0,0,0,0,11520,0,0,0,0,0,0,0,0,0,0,0,0,0,0,0,0,0,0,0,0,0,0,0,0,0,0,0,0,0,0,0,0,0,0,0,0,0,11520,0,0,0,0,0,0,0,0,0,0,0,0,0,,WORLD COLOR (USA) CORP,006265649
1998,37311MNFCT4325O,MANUFACTURER'S CHEMICAL LP,4325 OLD TASSO RD,CLEVELAND,BRADLEY,TN,37312,35.186166,-84.827632,2841,2843,,,,,325611,,,,,,1398126058914,PHOSPHORIC ACID,007664382,NO,NON-PBT,NO,0,NO,A,Pounds,0,0,0,0,0,0,0,0,0,0,0,0,0,0,0,0,0,0,0,0,0,0,0,0,0,0,0,0,0,0,0,0,0,0,0,0,0,0,0,0,0,0,0,0,0,0,0,0,0,0,0,0,0,0,0,0,0,0,0,0,0,0,0,0,,SYNALLOY CORP,003349065
1998,37660GNRLSHILLS,GENERAL SHALE BRICK INC. PLANT 29,100 HILL ST,KINGSPORT,SULLIVAN,TN,37662,36.54394,-82.55994,3251,,,,,,327121,,,,,,1398121000436,BARIUM COMPOUNDS,N040,NO,NON-PBT,YES,3,NO,A,Pounds,0,0,0,0,0,0,0,0,0,0,0,0,0,0,0,0,0,0,0,0,0,0,0,0,0,0,0,0,0,0,0,0,0,0,0,0,0,0,0,0,0,0,0,0,0,0,0,0,0,0,0,0,0,0,0,0,0,0,0,0,0,0,0,0,,NA,NA
1998,38301TCHST321BE,TOUCHSTONE CO,315 AIRWAYS BLVD,JACKSON,MADISON,TN,38301,35.6167,-88.833819,3743,,,,,,333911,,,,,,1398121023788,LEAD COMPOUNDS,N420,YES,PBT,YES,1,NO,A,Pounds,0,0,0,0,0,0,0,0,0,0,0,0,0,0,0,0,0,0,0,0,0,0,0,0,0,0,0,0,0,0,0,0,0,0,0,0,0,0,0,0,0,0,0,0,0,0,0,0,0,0,0,0,0,0,0,0,0,0,0,0,0,0,0,0,,MOTIVEPOWER INDUSTRIES INC,859875437
1998,38068RHLCN17155,RHEA OIL INC.,17155 HWY. 64,SOMERVILLE,FAYETTE,TN,38068,35.243324,-89.353447,5171,,,,,,424710,,,,,,1398121052777,COPPER,007440508,NO,NON-PBT,YES,1,NO,A,Pounds,0,0,0,0,0,0,0,0,0,0,0,0,0,0,0,0,0,0,0,0,0,0,0,0,0,0,0,0,0,0,0,0,0,0,0,0,0,0,0,0,0,0,0,0,0,0,0,0,0,0,0,0,0,0,0,0,0,0,0,0,0,0,0,0,,"WILLOUGHBY, INC",890439599
1998,37774MRMNTLOUDO,ARVINMERITOR,MAREMONT PKY.,LOUDON,LOUDON,TN,37774,35.7249,-84.3577,3714,,,,,,336399,,,,,,1398121103737,MANGANESE,007439965,YES,NON-PBT,YES,1,NO,A,Pounds,0,0,0,0,0,0,0,0,0,0,0,0,0,0,0,0,0,0,0,0,0,0,0,0,0,0,0,0,0,0,0,0,0,0,0,0,0,0,0,0,0,0,0,0,0,0,0,0,0,0,0,0,0,0,0,0,0,0,0,0,0,0,0,0,,ARVIN INDS INC,006414361
1998,38019WRLDC4000H,QW MEMPHIS CORP,4000 HWY 51 N,COVINGTON,TIPTON,TN,38019,35.59613,-89.632042,2752,2789,,,,,323110,,,,,,1398125051589,METHANOL,000067561,YES,NON-PBT,NO,0,NO,R,Pounds,44164,0,0,0,0,0,0,0,0,0,0,0,44164,0,0,0,0,0,0,0,0,0,0,0,0,0,0,0,0,0,0,0,0,0,0,0,0,0,0,0,1647,0,1647,0,0,0,0,0,0,0,44164,44164,0,0,0,0,0,1647,0,0,0,0,45811,0,.75,QUEBECOR WORLD USA INC,006265649
1998,37160LCNRC1605R,ALCHEM ALUMINUM SHELBYVILLE I NC,1605 RAILROAD AVE,SHELBYVILLE,BEDFORD,TN,37160,35.492802,-86.419476,3341,,,,,,331314,,,,,,1398125070413,MANGANESE COMPOUNDS,N450,YES,NON-PBT,YES,1,NO,R,Pounds,375,44,0,0,0,0,0,0,0,0,0,0,419,0,0,0,0,0,0,0,0,0,122,0,0,0,0,0,0,0,0,0,0,122,0,0,0,0,0,0,0,0,0,0,0,0,0,0,0,0,541,541,0,0,0,0,0,0,0,0,0,0,541,0,.94,ALERIS INTERNATIONAL INC,007372527
1998,38118DWPLT3855O,D & W PLATING CO INC,3855 OLD GETWELL RD,MEMPHIS,SHELBY,TN,38118,35.043222,-89.937094,3471,,,,,,332813,,,,,,1398125078547,NITRIC ACID,007697372,NO,NON-PBT,NO,0,NO,R,Pounds,0,0,0,0,0,0,0,0,0,0,0,0,0,0,0,0,0,0,0,0,0,0,0,0,0,0,0,0,0,0,0,0,0,0,0,0,0,0,0,0,0,0,0,0,0,0,0,0,0,0,0,0,0,0,0,0,0,0,0,0,25000,0,25000,0,1,NA,NA
1998,37055MXWLLOLDCO,WORLD COLOR (USA) LLC,1665 OLD COLUMBIA RD,DICKSON,DICKSON,TN,370552787,36.04585,-87.343176,2754,,,,,,323111,,,,,,1398125133088,ZINC COMPOUNDS,N982,NO,NON-PBT,YES,1,NO,R,Pounds,0,0,0,0,0,0,0,0,0,0,0,0,0,0,0,0,0,0,0,0,0,0,0,0,0,0,0,0,0,0,0,0,0,0,0,0,0,0,0,0,0,0,0,0,0,446,0,0,0,446,0,0,0,0,0,0,0,0,0,0,0,446,446,0,.09,WORLD COLOR (USA) CORP,006265649
1998,37719PGPSLHWY62,HERAEUS METAL PROCESSING INC.,HWY 62 & CORBIN RD,COALFIELD,MORGAN,TN,377190280,36.041667,-84.438333,3341,3398,,,,,331492,,,,,,1398126000571,SILVER,007440224,NO,NON-PBT,YES,1,NO,A,Pounds,0,0,0,0,0,0,0,0,0,0,0,0,0,0,0,0,0,0,0,0,0,0,0,0,0,0,0,0,0,0,0,0,0,0,0,0,0,0,0,0,0,0,0,0,0,0,0,0,0,0,0,0,0,0,0,0,0,0,0,0,0,0,0,0,,NA,NA
1998,38363KLPKNHWY64,MANITOWOC FOODSERVICE GROUP (PARSONS),2915 TENNESSEE AVE N,PARSONS,DECATUR,TN,38363,35.689444,-88.112778,3585,,,,,,333298,,,,,,1398126005343,DIISOCYANATES,N120,YES,NON-PBT,NO,0,NO,A,Pounds,0,0,0,0,0,0,0,0,0,0,0,0,0,0,0,0,0,0,0,0,0,0,0,0,0,0,0,0,0,0,0,0,0,0,0,0,0,0,0,0,0,0,0,0,0,0,0,0,0,0,0,0,0,0,0,0,0,0,0,0,0,0,0,0,,THE MANITOWOC CO INC,NA
1998,37872TRNTY200DY,TRINITY HIGHWAY PRODUCTS LLC PLT 1078,200 DYNATEX RD,SUNBRIGHT,MORGAN,TN,37872,36.24802,-84.65814,2491,,,,,,321114,,,,,,1398121076020,CHROMIUM COMPOUNDS(EXCEPT CHROMITE ORE MINED IN THE TRANSVAAL REGION),N090,YES,NON-PBT,YES,1,NO,A,Pounds,0,0,0,0,0,0,0,0,0,0,0,0,0,0,0,0,0,0,0,0,0,0,0,0,0,0,0,0,0,0,0,0,0,0,0,0,0,0,0,0,0,0,0,0,0,0,0,0,0,0,0,0,0,0,0,0,0,0,0,0,0,0,0,0,,TRINITY INDUSTRIES INC,007324254
1998,37643MPSPN408NO,MAPES PIANO STRING CO,1 WIRE MILL RD,ELIZABETHTON,CARTER,TN,37643,36.35302,-82.22377,3315,3471,,,,,331222,,,,,,1398121080156,AMMONIA,007664417,NO,NON-PBT,NO,0,NO,A,Pounds,0,0,0,0,0,0,0,0,0,0,0,0,0,0,0,0,0,0,0,0,0,0,0,0,0,0,0,0,0,0,0,0,0,0,0,0,0,0,0,0,0,0,0,0,0,0,0,0,0,0,0,0,0,0,0,0,0,0,0,0,0,0,0,0,,NA,NA
1998,37174STRNC100SA,GM SPRING HILL MANUFACTURING,100 SATURN PKWY  MAIL DROP 371-998-M10,SPRING HILL,MAURY,TN,371741500,35.73913,-86.88178,3711,,,,,,336111,,,,,,1398121084406,CYCLOHEXANE,000110827,NO,NON-PBT,NO,0,NO,A,Pounds,0,0,0,0,0,0,0,0,0,0,0,0,0,0,0,0,0,0,0,0,0,0,0,0,0,0,0,0,0,0,0,0,0,0,0,0,0,0,0,0,0,0,0,0,0,0,0,0,0,0,0,0,0,0,0,0,0,0,0,0,0,0,0,0,,GENERAL MOTORS LLC,831247536
1998,37086RSRCH133BA,RESEARCH SOLVENTS & CHEMICALS INC,133 BAIN DR,LA VERGNE,RUTHERFORD,TN,37086,36.004241,-86.592847,5169,,,,,,424690,,,,,,1398125129369,METHYL ETHYL KETONE,000078933,NO,NON-PBT,NO,0,NO,R,Pounds,39,260,0,0,0,0,0,0,0,0,0,0,299,0,0,0,0,0,0,0,0,0,0,0,0,0,0,0,0,0,0,0,0,0,0,0,0,0,0,0,0,0,0,0,0,0,0,0,0,0,299,299,0,0,0,0,0,0,805,0,0,0,1104,0,,RESEARCH SOLVENTS & CHEMICALS INC,072095169
1998,37055MXWLLOLDCO,WORLD COLOR (USA) LLC,1665 OLD COLUMBIA RD,DICKSON,DICKSON,TN,370552787,36.04585,-87.343176,2754,,,,,,323111,,,,,,1398125133114,COPPER COMPOUNDS,N100,NO,NON-PBT,YES,1,NO,R,Pounds,0,0,0,0,0,0,0,0,0,0,0,0,0,0,0,0,0,0,0,0,0,0,0,0,0,0,0,0,0,0,0,0,0,0,0,94893,0,0,4176,99069,0,0,0,0,0,0,0,0,0,0,0,0,0,0,0,0,0,0,0,99069,0,0,99069,0,.09,WORLD COLOR (USA) CORP,006265649
1998,38017LPHRSHIGHW,AOC LLC TENNESSEE PLANT,860 HWY 57 E,COLLIERVILLE,FAYETTE,TN,38017,35.041667,-89.625,2821,,,,,,325211,,,,,,1398126047721,COBALT COMPOUNDS,N096,YES,NON-PBT,YES,1,YES,A,Pounds,0,0,0,0,0,0,0,0,0,0,0,0,0,0,0,0,0,0,0,0,0,0,0,0,0,0,0,0,0,0,0,0,0,0,0,0,0,0,0,0,0,0,0,0,0,0,0,0,0,0,0,0,0,0,0,0,0,0,0,0,0,0,0,0,,THE ALPHA CORP,007037765
1998,38113HCCHM2701C,BRENNTAG MID-SOUTH INC,2701 CHANNEL AVE,MEMPHIS,SHELBY,TN,38113,35.082972,-90.137389,5169,,,,,,424690,,,,,,1398121095931,NAPHTHALENE,000091203,YES,NON-PBT,NO,0,NO,A,Pounds,0,0,0,0,0,0,0,0,0,0,0,0,0,0,0,0,0,0,0,0,0,0,0,0,0,0,0,0,0,0,0,0,0,0,0,0,0,0,0,0,0,0,0,0,0,0,0,0,0,0,0,0,0,0,0,0,0,0,0,0,0,0,0,0,,BRENNTAG NA INC,NA
1998,38113HCCHM2701C,BRENNTAG MID-SOUTH INC,2701 CHANNEL AVE,MEMPHIS,SHELBY,TN,38113,35.082972,-90.137389,5169,,,,,,424690,,,,,,1398121095994,AMMONIA,007664417,NO,NON-PBT,NO,0,NO,A,Pounds,0,0,0,0,0,0,0,0,0,0,0,0,0,0,0,0,0,0,0,0,0,0,0,0,0,0,0,0,0,0,0,0,0,0,0,0,0,0,0,0,0,0,0,0,0,0,0,0,0,0,0,0,0,0,0,0,0,0,0,0,0,0,0,0,,BRENNTAG NA INC,NA
1998,37774MRMNTLOUDO,ARVINMERITOR,MAREMONT PKY.,LOUDON,LOUDON,TN,37774,35.7249,-84.3577,3714,,,,,,336399,,,,,,1398121103749,NICKEL,007440020,YES,NON-PBT,YES,1,YES,A,Pounds,0,0,0,0,0,0,0,0,0,0,0,0,0,0,0,0,0,0,0,0,0,0,0,0,0,0,0,0,0,0,0,0,0,0,0,0,0,0,0,0,0,0,0,0,0,0,0,0,0,0,0,0,0,0,0,0,0,0,0,0,0,0,0,0,,ARVIN INDS INC,006414361
1998,38570RQPNC132IN,EATON INOAC CO,132 INDUSTRIAL PARK CIR,LIVINGSTON,OVERTON,TN,38570,36.35105,-85.328843,3089,,,,,,326199,,,,,,1398125086847,METHYL ETHYL KETONE,000078933,NO,NON-PBT,NO,0,NO,R,Pounds,0,6300,0,0,0,0,0,0,0,0,0,0,6300,0,0,0,0,0,0,0,0,0,0,0,0,0,0,0,0,0,0,0,0,0,5500,0,0,0,0,5500,0,0,0,0,0,0,0,0,0,0,6300,6300,0,0,0,0,0,0,0,5500,0,0,11800,0,,EATON INOAC CO,364630103
1998,37857TRWNC2101W,TRW AUTOMOTIVE,7500 HWY 11W,ROGERSVILLE,HAWKINS,TN,37857,36.38495,-83.05035,3714,,,,,,336330,,,,,,1398125071009,COPPER,007440508,NO,NON-PBT,YES,1,NO,R,Pounds,0,0,0,0,0,0,0,0,0,0,0,0,0,5,0,5,0,0,0,0,0,0,250,0,0,0,0,0,0,0,0,0,0,250,0,0,0,0,23253,23253,0,0,0,0,0,0,0,0,0,0,255,159,0,0,0,0,0,0,0,23253,0,0,23412,0,1.09,TRW INC,NA
1998,37659BRTNRHIGHW,EXCEL-POLYMERS LLC,HWY 353 S PO BOX 377,JONESBOROUGH,WASHINGTON,TN,37659,36.275537,-82.490968,3069,,,,,,326299,,,,,,1398125298366,ZINC COMPOUNDS,N982,NO,NON-PBT,YES,1,NO,R,Pounds,1,1,0,0,0,0,0,0,0,0,0,0,2,0,0,0,0,0,0,0,0,0,8266,0,0,0,0,0,0,0,0,0,0,8266,0,0,0,0,0,0,0,0,0,0,0,0,0,0,0,0,8268,8268,0,0,0,0,0,0,0,0,0,0,8268,0,.81,EXCEL POLYMERS LLC,153221663
1998,37076SRVCP3048B,SERVICE PAINT & COATINGS CO. INC.,3048 BRANDAU RD.,HERMITAGE,DAVIDSON,TN,370763501,36.174162,-86.635487,2851,,,,,,325510,,,,,,1398126003019,METHYL ISOBUTYL KETONE,000108101,YES,NON-PBT,NO,0,NO,A,Pounds,0,0,0,0,0,0,0,0,0,0,0,0,0,0,0,0,0,0,0,0,0,0,0,0,0,0,0,0,0,0,0,0,0,0,0,0,0,0,0,0,0,0,0,0,0,0,0,0,0,0,0,0,0,0,0,0,0,0,0,0,0,0,0,0,,NA,NA
1998,37160MDRNMSHELB,NATIONAL PEN TENNESSEE LLC,342 SHELBYVILLE MILLS RD,SHELBYVILLE,BEDFORD,TN,37160,35.472946,-86.488298,3951,,,,,,339941,,,,,,1398121028423,NITRIC ACID,007697372,NO,NON-PBT,NO,0,NO,A,Pounds,0,0,0,0,0,0,0,0,0,0,0,0,0,0,0,0,0,0,0,0,0,0,0,0,0,0,0,0,0,0,0,0,0,0,0,0,0,0,0,0,0,0,0,0,0,0,0,0,0,0,0,0,0,0,0,0,0,0,0,0,0,0,0,0,,NATIONAL PEN CO,059883975
1998,37355MTKNCINTER,M-TEK INC,1020 VOLUNTEER PKWY,MANCHESTER,COFFEE,TN,37355,35.435091,-86.028171,3714,,,,,,336000,,,,,,1398125083826,METHYL ETHYL KETONE,000078933,NO,NON-PBT,NO,0,NO,R,Pounds,2700,10900,0,0,0,0,0,0,0,0,0,0,13600,0,0,0,0,0,0,0,0,0,0,0,0,0,0,0,0,0,0,0,0,0,0,0,0,0,0,0,9500,0,9500,0,0,0,0,0,0,0,13600,10900,0,0,0,0,0,9500,0,0,0,0,20400,0,.01,KASAI KOGYO CO,690558622
1998,37013CMBRL4350H,LEVEL VALLEY CREAMERY,4350 HURRICANE CREEK BLVD.,ANTIOCH,DAVIDSON,TN,37013,36.026213,-86.595935,2021,2023,,,,,311512,,,,,,1398125204281,PHOSPHORIC ACID,007664382,NO,NON-PBT,NO,0,NO,R,Pounds,0,0,0,0,0,0,0,0,0,0,0,0,0,0,0,0,0,0,0,0,0,0,0,0,0,0,0,0,0,0,0,0,0,0,0,0,0,0,0,0,0,0,0,0,0,0,0,0,0,0,0,0,0,0,0,0,0,0,0,0,82619,0,82619,0,.81,NA,NA
1998,37186FLTWDFLEET,FLEETWOOD HOMES OF TENNESSEE INC. 26-2,4011 FLEETWOOD DR.,WESTMORELAND,SUMNER,TN,37186,36.569774,-86.24683,2451,,,,,,321991,,,,,,1398126007893,DIISOCYANATES,N120,YES,NON-PBT,NO,0,NO,A,Pounds,0,0,0,0,0,0,0,0,0,0,0,0,0,0,0,0,0,0,0,0,0,0,0,0,0,0,0,0,0,0,0,0,0,0,0,0,0,0,0,0,0,0,0,0,0,0,0,0,0,0,0,0,0,0,0,0,0,0,0,0,0,0,0,0,,FLEETWOOD ENTS INC,001946979
1998,38305DLTFC3441R,DELTA FACUET CO OF TENNESSEE,3441 RIDGECREST RD EXT,JACKSON,MADISON,TN,38305,35.671583,-88.775151,3432,,,,,,332913,,,,,,1398125352601,LEAD,007439921,YES,PBT,YES,1,YES,R,Pounds,0,0,5,0,0,0,0,0,0,0,0,0,5,250,0,250,0,1288,250,0,0,0,0,0,0,0,0,0,0,0,0,0,0,1538,0,41,0,0,0,41,0,0,0,0,0,0,0,0,0,0,1793,1300,0,0,0,0,0,0,0,41,0,0,1341,0,1.28,MASCO CORP,005320924
1998,37662TNNSSEASTM,EASTMAN CHEMICAL CO TENNESSEE OPERATIONS,100 EASTMAN RD,KINGSPORT,SULLIVAN,TN,37662,36.533333,-82.560833,2823,2821,2869,2899,2865,2893,325211,,,,,,1398125360596,ARSENIC COMPOUNDS,N020,YES,NON-PBT,YES,1,NO,R,Pounds,370,2600,830,0,0,0,21000,0,0,0,0,0,24800,0,0,0,0,0,0,0,0,0,2400,0,0,0,0,0,0,0,0,9,0,2409,0,0,0,0,0,0,0,0,0,0,0,0,0,0,0,0,27209,28000,0,0,0,0,0,0,0,0,0,0,28000,0,.99,EASTMAN CHEMICAL CO,NA
1998,37406LCCHM909MU,AKZONOBEL SURFACE CHEMISTRY LLC,909 MUELLER AVE,CHATTANOOGA,HAMILTON,TN,37406,35.087711,-85.25779,2821,2879,,,,,325211,,,,,,1398126052885,POTASSIUM DIMETHYLDITHIOCARBAMATE,000128030,NO,NON-PBT,NO,0,NO,A,Pounds,0,0,0,0,0,0,0,0,0,0,0,0,0,0,0,0,0,0,0,0,0,0,0,0,0,0,0,0,0,0,0,0,0,0,0,0,0,0,0,0,0,0,0,0,0,0,0,0,0,0,0,0,0,0,0,0,0,0,0,0,0,0,0,0,,AKZO NOBEL NV,062999347
1998,38108BCKMN1256N,BUCKMAN LABORATORIES INC,1256 N MCLEAN BLVD,MEMPHIS,SHELBY,TN,38108,35.168333,-89.995556,2899,2819,2879,,,,325998,,,,,,1398121026785,DISODIUM CYANODITHIOIMIDOCARBONATE,000138932,NO,NON-PBT,NO,0,NO,A,Pounds,0,0,0,0,0,0,0,0,0,0,0,0,0,0,0,0,0,0,0,0,0,0,0,0,0,0,0,0,0,0,0,0,0,0,0,0,0,0,0,0,0,0,0,0,0,0,0,0,0,0,0,0,0,0,0,0,0,0,0,0,0,0,0,0,,BUCKMAN LABORATORIES INC,NA
1998,38108BCKMN1256N,BUCKMAN LABORATORIES INC,1256 N MCLEAN BLVD,MEMPHIS,SHELBY,TN,38108,35.168333,-89.995556,2899,2819,2879,,,,325998,,,,,,1398121026850,DAZOMET,000533744,NO,NON-PBT,NO,0,NO,A,Pounds,0,0,0,0,0,0,0,0,0,0,0,0,0,0,0,0,0,0,0,0,0,0,0,0,0,0,0,0,0,0,0,0,0,0,0,0,0,0,0,0,0,0,0,0,0,0,0,0,0,0,0,0,0,0,0,0,0,0,0,0,0,0,0,0,,BUCKMAN LABORATORIES INC,NA
1998,37885VCRNCNILES,POLYONE CORP,245 AVECOR DR,VONORE,MONROE,TN,37885,35.597335,-84.230402,3087,,,,,,325991,,,,,,1398121077200,ZINC COMPOUNDS,N982,NO,NON-PBT,YES,1,NO,A,Pounds,0,0,0,0,0,0,0,0,0,0,0,0,0,0,0,0,0,0,0,0,0,0,0,0,0,0,0,0,0,0,0,0,0,0,0,0,0,0,0,0,0,0,0,0,0,0,0,0,0,0,0,0,0,0,0,0,0,0,0,0,0,0,0,0,,POLYONE CORP,NA
1998,37660VNWTR302RI,UNIVAR USA INC KINGSPORT FACIL ITY,302 RIVERPORT LN,KINGSPORT,SULLIVAN,TN,37660,36.54464,-82.580125,5169,,,,,,424690,,,,,,1398121074759,METHANOL,000067561,YES,NON-PBT,NO,0,NO,A,Pounds,0,0,0,0,0,0,0,0,0,0,0,0,0,0,0,0,0,0,0,0,0,0,0,0,0,0,0,0,0,0,0,0,0,0,0,0,0,0,0,0,0,0,0,0,0,0,0,0,0,0,0,0,0,0,0,0,0,0,0,0,0,0,0,0,,NA,NA
1998,38464XCLND2200H,DURA AUTOMOTIVE SYSTEMS,2200 HELTON DR,LAWRENCEBURG,LAWRENCE,TN,38464,35.26937,-87.33005,3714,3082,3089,,,,336000,,,,,,1398125279164,TOLUENE,000108883,YES,NON-PBT,NO,0,NO,R,Pounds,2116,7590,0,0,0,0,0,0,0,0,0,0,9706,0,0,0,0,0,0,0,0,0,0,0,0,0,0,0,0,0,0,0,0,0,0,0,0,0,0,0,1540,0,1540,0,0,0,0,0,0,0,9706,9706,0,0,0,0,0,0,0,0,0,1540,11246,0,1.06,DURA AUTOMOTIVE SYSTEMS INC,620697136
1998,37133PRFCT855SC,PERFECT EQUIPMENT INC,855 SCOTT ST,MURFREESBORO,RUTHERFORD,TN,37129,35.853087,-86.404267,3559,,,,,,336399,,,,,,1398125328599,ARSENIC,007440382,YES,NON-PBT,YES,1,YES,R,Pounds,0,0,0,0,0,0,0,0,0,0,0,0,0,0,0,0,0,0,0,0,0,0,0,0,0,0,0,0,0,0,0,0,0,0,0,0,0,0,0,0,0,0,0,0,0,0,0,0,0,0,0,0,0,0,0,0,0,0,0,0,0,0,0,0,1,WEIGMAN & CO,NA
1998,38118DLTFR3915A,DELTA FOREMOST CHEMICAL CORP,3915 AIR PARK ST,MEMPHIS,SHELBY,TN,38118,35.041724,-89.93123,2869,,,,,,325612,,,,,,1398121024424,PHOSPHORIC ACID,007664382,NO,NON-PBT,NO,0,NO,A,Pounds,0,0,0,0,0,0,0,0,0,0,0,0,0,0,0,0,0,0,0,0,0,0,0,0,0,0,0,0,0,0,0,0,0,0,0,0,0,0,0,0,0,0,0,0,0,0,0,0,0,0,0,0,0,0,0,0,0,0,0,0,0,0,0,0,,NA,NA
1998,37660GNRLSHILLS,GENERAL SHALE BRICK INC. PLANT 29,100 HILL ST,KINGSPORT,SULLIVAN,TN,37662,36.54394,-82.55994,3251,,,,,,327121,,,,,,1398121107371,CHROMIUM COMPOUNDS(EXCEPT CHROMITE ORE MINED IN THE TRANSVAAL REGION),N090,YES,NON-PBT,YES,1,NO,A,Pounds,0,0,0,0,0,0,0,0,0,0,0,0,0,0,0,0,0,0,0,0,0,0,0,0,0,0,0,0,0,0,0,0,0,0,0,0,0,0,0,0,0,0,0,0,0,0,0,0,0,0,0,0,0,0,0,0,0,0,0,0,0,0,0,0,,NA,NA
1998,38113WSTRN1471C,STELLA-JONES CORP,1471 CHANNEL AVE,MEMPHIS,SHELBY,TN,381130171,35.10094,-90.101349,2865,,,,,,321114,,,,,,1398125029708,DIBENZOFURAN,000132649,YES,NON-PBT,NO,0,NO,R,Pounds,250,250,0,0,0,0,0,0,0,0,0,0,500,0,0,0,0,0,0,0,0,0,0,0,0,0,0,0,0,0,0,0,0,0,0,0,0,0,0,0,0,0,0,0,0,0,0,0,0,0,500,104,0,0,0,0,0,0,0,0,0,0,104,0,1.04,STELLA-JONES INC,605929814
1998,38002DWCRN5677A,WRIGHT MEDICAL TECHNOLOGY INC,5677 AIRLINE RD,ARLINGTON,SHELBY,TN,38002,35.280915,-89.6688,3842,3841,,,,,339113,,,,,,1398125088233,COBALT COMPOUNDS,N096,YES,NON-PBT,YES,1,YES,R,Pounds,0,250,0,0,0,0,0,0,0,0,0,0,250,0,0,0,0,0,0,0,0,0,1300,0,0,0,0,0,0,0,0,0,0,1300,0,35500,0,0,0,35500,0,0,0,0,0,0,0,0,0,0,1550,1600,0,0,0,0,0,0,0,36000,0,0,37600,0,1,NA,NA
1998,37311SPCLT2018K,SPECIALTY CHEMICAL CO. L.L.C.,2018 KING EDWARD AVE.,CLEVELAND,BRADLEY,TN,37311,35.142958,-84.880095,5169,,,,,,424690,,,,,,1398125184945,METHYL ETHYL KETONE,000078933,NO,NON-PBT,NO,0,NO,R,Pounds,33,0,0,0,0,0,0,0,0,0,0,0,33,0,0,0,0,0,0,0,0,0,0,0,0,0,0,0,0,0,0,0,0,0,0,0,0,0,0,0,0,0,0,0,0,0,0,216,0,216,33,249,0,0,0,0,0,0,0,0,0,0,249,0,,NA,NA
1998,37311SPCLT2018K,SPECIALTY CHEMICAL CO. L.L.C.,2018 KING EDWARD AVE.,CLEVELAND,BRADLEY,TN,37311,35.142958,-84.880095,5169,,,,,,424690,,,,,,1398125185025,FORMIC ACID,000064186,NO,NON-PBT,NO,0,NO,R,Pounds,5,0,0,0,0,0,0,0,0,0,0,0,5,0,122,122,0,0,0,0,0,0,0,0,0,0,0,0,0,0,0,0,0,0,0,0,0,0,0,0,0,0,0,0,0,0,0,0,0,0,5,127,0,0,0,0,0,0,0,0,0,0,127,0,,NA,NA
1998,38053SMSWD3450F,OSMOSE INC,3450 FITE RD,MILLINGTON,SHELBY,TN,38053,35.27364,-89.94938,2879,,,,,,325320,,,,,,1398125224218,ANTIMONY COMPOUNDS,N010,YES,NON-PBT,YES,1,NO,R,Pounds,0,2,0,0,0,0,0,0,0,0,0,0,2,0,0,0,0,0,0,0,0,0,0,0,0,0,0,0,0,0,0,23,0,23,0,0,0,0,0,0,0,0,0,0,0,0,0,0,0,0,25,25,0,0,0,0,0,0,16,16,16,16,89,0,1.05,OSMOSE INC,002112944
