Year,TRI Facility ID,Facility Name,Street Address,City,County,ST,ZIP,Latitude,Longitude,Primary SIC,SIC 2,SIC 3,SIC 4,SIC 5,SIC 6,Primary NAICS,NAICS 2,NAICS 3,NAICS 4,NAICS 5,NAICS 6,Doc_Ctrl_Num,Chemical,CAS #/Compound ID,Clean Air Act Chemical,Classification,Metal,Metal Category,Carcinogen,Form Type,Unit of Measure,5.1 Fugitive Air,5.2 Stack Air,5.3 Water,5.4.1 Underground Class I,5.4.2 Underground Class II-V,5.5.1A RCRA C Landfills,5.5.1B Other Landfills,5.5.2 Land Treatment,5.5.3 Surface Impoundment,5.5.3A RCRA C Surface Impoundment,5.5.3B Other Surface Impoundment,5.5.4 Other Disposal,On-site Release Total,6.1 POTW - Metals and Metal Compounds,6.1 POTW - Non-Metals,6.1 POTW - Total Transfers,6.2 M10,6.2 M41,6.2 M62,6.2 M71,6.2 M81,6.2 M82,6.2 M72,6.2 M63,6.2 M66,6.2 M67,6.2 M64,6.2 M65,6.2 M73,6.2 M79,6.2 M90,6.2 M94,6.2 M99,Off-Site Release Total,6.2 M20,6.2 M24,6.2 M26,6.2 M28,6.2 M93,Off-Site Recycled Total,6.2 M56,6.2 M92,Off-Site Recovery Total,6.2 M40,6.2 M50,6.2 M54,6.2 M61,6.2 M69,6.2 M95,Off-Site Treated Total,Total Releases,8.1 Releases,8.1a On-site Contained Releases,8.1b On-site Other Releases,8.1c Off-site Contained Releases,8.1d Off-site Other Releases,8.2 Energy Recovery On-site,8.3 Energy Recovery Off-site,8.4 Recycling On-Site,8.5 Recycling Off-Site,8.6 Treatment On-site,8.7 Treatement Off-site,Production Waste (8.1 thru 8.7),8.8 One-time Release,8.9 Production Ratio,Parent Company Name,Parent Company DB Number,3/3/2012 v10
2009,49015MGCST31FRI,OMEGA CASTINGS INC,301 FRITZ KEIPER BLVD FORT CUSTER/INDUSTRIAL PARK,BATTLE CREEK,CALHOUN,MI,49037,42.33559,-85.29123,,,,,,,331513,,,,,,1309207139801,NICKEL,007440020,YES,NON-PBT,YES,1,YES,R,Pounds,5,3,0,0,0,0,0,0,0,0,0,0,8,0,0,0,0,0,0,0,0,0,0,0,0,0,0,0,0,0,0,792,0,792,0,0,0,0,0,0,0,0,0,0,0,0,0,0,0,0,800,0,0,8,0,792,0,0,0,0,0,0,800,0,.35,NA,NA
2009,49079KNSFD815SK,KNOUSE FOODS COOP INC PAW PAW,815 S KALAMAZOO ST,PAW PAW,VAN BUREN,MI,490790249,42.212669,-85.891386,,,,,,,311421,,,,,,1309207243700,CHLORINE,007782505,YES,NON-PBT,NO,0,NO,A,Pounds,0,0,0,0,0,0,0,0,0,0,0,0,0,0,0,0,0,0,0,0,0,0,0,0,0,0,0,0,0,0,0,0,0,0,0,0,0,0,0,0,0,0,0,0,0,0,0,0,0,0,0,0,0,0,0,0,0,0,0,0,0,0,0,0,0,KNOUSE FOODS COOP INC,NA
2009,49829CLGRN25251,CAL GRINDING INC,2525 14TH AVE N,ESCANABA,DELTA,MI,49829,45.76344,-87.08137,,,,,,,336311,336312,,,,,1309207155490,LEAD,007439921,YES,PBT,YES,1,YES,R,Pounds,0,0,0,0,0,0,0,0,0,0,0,0,0,0,0,0,0,0,0,0,0,0,0,0,0,0,0,0,0,0,0,0,0,0,0,9240,0,0,0,9240,0,0,0,0,0,0,0,0,0,0,0,0,0,0,0,0,0,0,0,9240,0,0,9240,0,9240,NA,NA
2009,48174CHMCN13395,UNIVAR USA INC ROMULUS BRANCH,13395 HURON RIVER DR,ROMULUS,WAYNE,MI,481740906,42.205647,-83.404459,,,,,,,424690,,,,,,1309207218165,ETHYLBENZENE,000100414,YES,NON-PBT,NO,0,NO,A,Pounds,0,0,0,0,0,0,0,0,0,0,0,0,0,0,0,0,0,0,0,0,0,0,0,0,0,0,0,0,0,0,0,0,0,0,0,0,0,0,0,0,0,0,0,0,0,0,0,0,0,0,0,0,0,0,0,0,0,0,0,0,0,0,0,0,0,UNIVAR USA INC,102971785
2009,48174CHMCN13395,UNIVAR USA INC ROMULUS BRANCH,13395 HURON RIVER DR,ROMULUS,WAYNE,MI,481740906,42.205647,-83.404459,,,,,,,424690,,,,,,1309207218227,METHYL ISOBUTYL KETONE,000108101,YES,NON-PBT,NO,0,NO,A,Pounds,0,0,0,0,0,0,0,0,0,0,0,0,0,0,0,0,0,0,0,0,0,0,0,0,0,0,0,0,0,0,0,0,0,0,0,0,0,0,0,0,0,0,0,0,0,0,0,0,0,0,0,0,0,0,0,0,0,0,0,0,0,0,0,0,0,UNIVAR USA INC,102971785
2009,49548CHMCN2940S,UNIVAR USA INC - WYOMING BRANCH,2940 STAFFORD AVE SW,WYOMING,KENT,MI,495481037,42.91,-85.67416,,,,,,,424690,,,,,,1309207218520,"1,2,4-TRIMETHYLBENZENE",000095636,NO,NON-PBT,NO,0,NO,A,Pounds,0,0,0,0,0,0,0,0,0,0,0,0,0,0,0,0,0,0,0,0,0,0,0,0,0,0,0,0,0,0,0,0,0,0,0,0,0,0,0,0,0,0,0,0,0,0,0,0,0,0,0,0,0,0,0,0,0,0,0,0,0,0,0,0,0,UNIVAR USA INC,102971785
2009,49355MWYCR7575E,ACCESS BUSINESS GROUP LLC,7575 FULTON ST E,ADA,KENT,MI,493550001,42.955454,-85.479018,,,,,,,325611,322212,323119,,,,1309207151857,ZINC COMPOUNDS,N982,NO,NON-PBT,YES,1,NO,R,Pounds,330,3,0,0,0,0,0,0,0,0,0,0,333,333,0,333,0,78,0,0,0,0,0,0,0,0,0,0,0,0,152,0,0,230,0,0,310,0,0,310,0,0,0,0,0,0,0,0,0,0,896,0,0,333,0,563,0,0,0,310,0,0,1206,0,1.05,ALTICOR INC,006026793
2009,48150MCGNR38521,MCGEAN-ROHCO INC 130130,38521 SCHOOLCRAFT AVE,LIVONIA,WAYNE,MI,48150,42.38151,-83.42283,,,,,,,325188,,,,,,1309207182902,FORMIC ACID,000064186,NO,NON-PBT,NO,0,NO,A,Pounds,0,0,0,0,0,0,0,0,0,0,0,0,0,0,0,0,0,0,0,0,0,0,0,0,0,0,0,0,0,0,0,0,0,0,0,0,0,0,0,0,0,0,0,0,0,0,0,0,0,0,0,0,0,0,0,0,0,0,0,0,0,0,0,0,0,MCGEAN-ROHCO INC,071112593
2009,48150MCGNR38521,MCGEAN-ROHCO INC 130130,38521 SCHOOLCRAFT AVE,LIVONIA,WAYNE,MI,48150,42.38151,-83.42283,,,,,,,325188,,,,,,1309207182977,ZINC COMPOUNDS,N982,NO,NON-PBT,YES,1,NO,A,Pounds,0,0,0,0,0,0,0,0,0,0,0,0,0,0,0,0,0,0,0,0,0,0,0,0,0,0,0,0,0,0,0,0,0,0,0,0,0,0,0,0,0,0,0,0,0,0,0,0,0,0,0,0,0,0,0,0,0,0,0,0,0,0,0,0,0,MCGEAN-ROHCO INC,071112593
2009,48371CDLLC2271X,CADILLAC IRON INC,2271 X-CELSIOR DR,OXFORD,OAKLAND,MI,48371,42.859964,-83.291076,,,,,,,238120,,,,,,1309207141538,XYLENE (MIXED ISOMERS),001330207,YES,NON-PBT,NO,0,NO,A,Pounds,0,0,0,0,0,0,0,0,0,0,0,0,0,0,0,0,0,0,0,0,0,0,0,0,0,0,0,0,0,0,0,0,0,0,0,0,0,0,0,0,0,0,0,0,0,0,0,0,0,0,0,0,0,0,0,0,0,0,0,0,0,0,0,0,0,NA,NA
2009,48442GRNDB10151,GRAND BLANC PROCESSING LLC,10151 GAINEY DR,HOLLY,GENESEE,MI,48442,42.974166,-83.651111,,,,,,,332811,331222,,,,,1309207218886,NITRATE COMPOUNDS,N511,NO,NON-PBT,NO,0,NO,A,Pounds,0,0,0,0,0,0,0,0,0,0,0,0,0,0,0,0,0,0,0,0,0,0,0,0,0,0,0,0,0,0,0,0,0,0,0,0,0,0,0,0,0,0,0,0,0,0,0,0,0,0,0,0,0,0,0,0,0,0,0,0,0,0,0,0,0,SHINSHO AMERICAN CORP,005320205
2009,48827XSNNR1611H,AXSON NORTH AMERICA INC,1611 HULTS DR,EATON RAPIDS,EATON,MI,48827,42.494047,-84.651365,,,,,,,325991,,,,,,1309207152974,STYRENE,000100425,YES,NON-PBT,NO,0,YES,A,Pounds,0,0,0,0,0,0,0,0,0,0,0,0,0,0,0,0,0,0,0,0,0,0,0,0,0,0,0,0,0,0,0,0,0,0,0,0,0,0,0,0,0,0,0,0,0,0,0,0,0,0,0,0,0,0,0,0,0,0,0,0,0,0,0,0,0,NA,NA
2009,4808WSSGLB2161M,SAS GLOBAL CORP,21601 MULLIN AVE,WARREN,MACOMB,MI,48089,42.455416,-83.011259,,,,,,,332312,,,,,,1309207169689,MANGANESE,007439965,YES,NON-PBT,YES,1,NO,R,Pounds,0,220,0,0,0,0,0,0,0,0,0,0,220,0,0,0,0,0,0,0,0,0,0,0,0,0,11000,0,0,0,0,0,0,11000,0,0,0,0,0,0,0,0,0,0,0,0,0,0,0,0,11220,0,0,220,11000,0,0,0,0,0,0,0,11220,0,.84,NA,NA
2009,49047MNNLM109SO,MENNEL MILLING CO OF MICHIGAN,301 S MILL ST,DOWAGIAC,CASS,MI,49047,41.933694,-86.102306,,,,,,,311211,,,,,,1309207161629,CHLORINE,007782505,YES,NON-PBT,NO,0,NO,A,Pounds,0,0,0,0,0,0,0,0,0,0,0,0,0,0,0,0,0,0,0,0,0,0,0,0,0,0,0,0,0,0,0,0,0,0,0,0,0,0,0,0,0,0,0,0,0,0,0,0,0,0,0,0,0,0,0,0,0,0,0,0,0,0,0,0,0,THE MENNEL MILLING CO,064701212
2009,48706STRTS4804E,STRAITS WOOD TREATING,4804 E WILDER ST,BAY CITY,BAY,MI,48706,43.623328,-83.866676,,,,,,,321114,,,,,,1309207138367,CHROMIUM COMPOUNDS(EXCEPT CHROMITE ORE MINED IN THE TRANSVAAL REGION),N090,YES,NON-PBT,YES,1,NO,A,Pounds,0,0,0,0,0,0,0,0,0,0,0,0,0,0,0,0,0,0,0,0,0,0,0,0,0,0,0,0,0,0,0,0,0,0,0,0,0,0,0,0,0,0,0,0,0,0,0,0,0,0,0,0,0,0,0,0,0,0,0,0,0,0,0,0,0,NA,NA
2009,49112MDWST210KR,MIDWEST TIMBER INC,69875 KRAUS RD,EDWARDSBURG,CASS,MI,49112,41.782,-86.09347,,,,,,,321114,,,,,,1309207186646,COPPER COMPOUNDS,N100,NO,NON-PBT,YES,1,NO,A,Pounds,0,0,0,0,0,0,0,0,0,0,0,0,0,0,0,0,0,0,0,0,0,0,0,0,0,0,0,0,0,0,0,0,0,0,0,0,0,0,0,0,0,0,0,0,0,0,0,0,0,0,0,0,0,0,0,0,0,0,0,0,0,0,0,0,0,NA,NA
2009,48912NVRNM1520L,AURORA SPECIALTY CHEMISTRIES,1520 LAKE LANSING RD,LANSING,INGHAM,MI,48912,42.76069,-84.528646,,,,,,,325998,,,,,,1309207212604,EPICHLOROHYDRIN,000106898,YES,NON-PBT,NO,0,YES,A,Pounds,0,0,0,0,0,0,0,0,0,0,0,0,0,0,0,0,0,0,0,0,0,0,0,0,0,0,0,0,0,0,0,0,0,0,0,0,0,0,0,0,0,0,0,0,0,0,0,0,0,0,0,0,0,0,0,0,0,0,0,0,0,0,0,0,0,NA,NA
2009,48116CRMTN12500,COR-MET INC,12500  GRAND RIVER RD,BRIGHTON,LIVINGSTON,MI,481168326,42.517346,-83.701752,,,,,,,333992,,,,,,1309207276142,NICKEL COMPOUNDS,N495,YES,NON-PBT,YES,1,NO,R,Pounds,5,5,0,0,0,0,0,0,0,0,0,5,15,0,0,0,0,0,0,0,0,0,0,0,0,0,1165,0,0,0,0,0,0,1165,0,0,0,0,0,0,0,0,0,0,0,0,0,0,0,0,1180,0,0,15,1165,0,0,0,0,0,0,0,1180,0,.57,NA,NA
2009,49444LFTTC414WB,YALE / LIFT-TECH,414 W BROADWAY AVE,MUSKEGON HEIGHTS,MUSKEGON,MI,49444,43.201163,-86.25506,,,,,,,333923,,,,,,1309207246947,COBALT,007440484,YES,NON-PBT,YES,1,YES,R,Pounds,0,0,0,0,0,0,0,0,0,0,0,0,0,0,0,0,0,0,0,0,0,0,0,0,0,0,91,0,0,0,0,0,0,91,0,22209,0,0,0,22209,0,0,0,0,0,0,0,0,0,0,91,0,0,0,91,0,0,0,0,22209,0,0,22300,0,,COLUMBUS MCKINNON CORP,002105534
2009,49460JHCMP17000,J H CAMPBELL GENERATING PLANT,17000 CROSWELL ST,WEST OLIVE,OTTAWA,MI,49460,42.92088,-86.20511,,,,,,,221112,,,,,,1309207255213,NICKEL COMPOUNDS,N495,YES,NON-PBT,YES,1,NO,R,Pounds,7,2100,0,0,0,0,29000,0,0,0,0,12000,43107,0,0,0,0,0,0,0,0,0,0,0,0,0,0,0,0,0,0,0,0,0,0,0,0,0,0,0,0,0,0,0,0,0,0,0,0,0,43107,0,29000,14107,0,0,0,0,0,0,0,0,43107,0,.96,CONSUMERS ENERGY,006959803
2009,48096TDZMC28966,TIODIZE/MICHIGAN INC,28966 WALL ST,WIXOM,OAKLAND,MI,48393,42.504069,-83.530215,,,,,,,332812,,,,,,1309207255314,ZINC COMPOUNDS,N982,NO,NON-PBT,YES,1,NO,R,Pounds,0,0,0,0,0,0,0,0,0,0,0,0,0,95,0,95,0,0,0,0,0,0,0,0,0,0,677,0,0,0,0,0,0,677,0,0,0,0,0,0,0,0,0,0,0,0,0,0,0,0,772,0,0,0,677,95,0,0,0,0,0,0,772,0,,TIODIZE CO INC,NA
2009,49001BWRSM6565S,BOWERS MANUFACTURING,6565 S SPRINKLE RD,PORTAGE,KALAMAZOO,MI,49002,42.221815,-85.540508,,,,,,,332813,331316,332323,,,,1309207277928,NITRATE COMPOUNDS,N511,NO,NON-PBT,NO,0,NO,R,Pounds,0,0,0,0,0,0,0,0,0,0,0,0,0,0,48000,48000,0,0,0,0,0,0,0,0,0,0,0,0,0,0,0,0,0,0,0,0,0,0,0,0,0,0,0,0,0,0,0,0,0,0,0,0,0,0,0,0,0,0,0,0,0,48000,48000,0,1.2,NA,NA
2009,48066PLLPL15765,HOWARD FINISHING LLC,15765 STURGEON,ROSEVILLE,MACOMB,MI,48066,42.513953,-82.960512,,,,,,,332813,,,,,,1309207233216,LEAD COMPOUNDS,N420,YES,PBT,YES,1,NO,R,Pounds,0,0,0,0,0,0,0,0,0,0,0,0,0,.109,0,.109,0,0,0,0,0,0,0,0,0,0,0,0,0,0,0,0,0,0,0,3,1,0,0,4,0,0,0,0,0,0,0,0,0,0,.109,0,0,0,0,.109,0,0,0,4,0,0,4.109,0,.49,HOWARD FINISHING LLC,113233691
2009,49444LFTTC414WB,YALE / LIFT-TECH,414 W BROADWAY AVE,MUSKEGON HEIGHTS,MUSKEGON,MI,49444,43.201163,-86.25506,,,,,,,333923,,,,,,1309207247002,NICKEL,007440020,YES,NON-PBT,YES,1,YES,R,Pounds,.39,0,0,0,0,0,0,0,0,0,0,0,.39,0,0,0,0,0,0,0,0,0,0,0,0,0,141,0,0,0,0,0,0,141,0,37323,0,0,0,37323,0,0,0,0,0,0,0,0,0,0,141.39,0,0,.39,141,0,0,0,0,37323,0,0,37464.39,0,,COLUMBUS MCKINNON CORP,002105534
2009,48446FMSLN195DE,ITW TACC,195 DEMILLE ST,LAPEER,LAPEER,MI,48446,43.03772,-83.306202,,,,,,,325991,,,,,,1309207211855,CERTAIN GLYCOL ETHERS,N230,YES,NON-PBT,NO,0,NO,R,Pounds,0,0,0,0,0,0,0,0,0,0,0,0,0,0,0,0,0,0,0,0,0,0,0,0,0,0,0,0,0,0,0,0,0,0,0,0,0,0,0,0,0,0,0,0,0,0,0,0,0,0,0,0,0,0,0,0,0,0,0,0,0,0,0,0,1.06,ILLINOIS TOOL WORKS INC,005146428
2009,48893RNDLL0520S,RANDELL MANUFACTURING INC,520 S COLDWATER RD,WEIDMAN,ISABELLA,MI,48893,43.632147,-84.98767,,,,,,,333415,,,,,,1309207212352,NICKEL,007440020,YES,NON-PBT,YES,1,YES,R,Pounds,1,1,0,0,0,0,0,0,0,0,0,0,2,0,0,0,0,0,0,0,0,0,0,0,0,0,276,0,0,0,0,0,0,276,0,0,0,0,161142,161142,0,0,0,0,0,0,0,0,0,0,278,0,0,2,276,0,0,0,0,161142,0,0,161420,0,.95,UNIFIED BRANDS,NA
2009,49120TYLRR1329L,TYLER REFRIGERATION,1329 LAKE ST,NILES,BERRIEN,MI,49120,41.84137,-86.243233,,,,,,,333415,,,,,,1309207240019,CHROMIUM,007440473,YES,NON-PBT,YES,1,YES,R,Pounds,0,0,0,0,0,0,0,0,0,0,0,0,0,.4,0,.4,0,0,0,0,0,0,0,0,0,0,0,0,0,19,0,0,0,19,0,16826,0,0,0,16826,0,0,0,0,0,0,0,0,0,0,19.4,0,0,0,0,19.4,0,0,0,16826,0,0,16845.4,0,.5,UNITED TECHNOLOGIES CORP,001344142
2009,48506MDSTT624KE,MID STATE PLATING CO,602 KELSO ST,FLINT,GENESEE,MI,48506,43.020458,-83.651805,,,,,,,332813,,,,,,1309207186964,NITRATE COMPOUNDS,N511,NO,NON-PBT,NO,0,NO,R,Pounds,0,0,0,0,0,0,0,0,0,0,0,0,0,0,4109,4109,0,0,0,0,0,0,0,0,0,0,0,0,0,0,0,0,0,0,0,0,0,0,0,0,0,0,0,0,0,0,0,0,0,0,0,0,0,0,0,0,0,0,0,0,0,4109,4109,0,,NA,NA
2009,48065FRDNW701E3,FORD MOTOR CO ROMEO ENGINE PLANT,701 E 32 MILE RD,ROMEO,MACOMB,MI,48065,42.80277,-83.00624,,,,,,,336312,,,,,,1309207219484,LEAD,007439921,YES,PBT,YES,1,YES,R,Pounds,0,3,0,0,0,0,0,0,0,0,0,0,3,16,0,16,0,0,0,0,0,0,0,0,0,0,266,0,0,0,0,0,0,266,0,248,0,0,0,248,0,0,0,0,0,0,0,0,0,0,285,0,0,3,266,16,0,0,0,248,0,0,533,0,.88,FORD MOTOR CO,001344746
2009,49727STJRD301SP,EAST JORDAN IRON WORKS INC,301 SPRING ST PO BOX 439,EAST JORDAN,CHARLEVOIX,MI,49727,45.15538,-85.12826,,,,,,,331511,,,,,,1309207220880,LEAD COMPOUNDS,N420,YES,PBT,YES,1,NO,R,Pounds,0,15,0,0,0,0,0,0,0,0,0,0,15,0,0,0,0,0,0,0,0,0,0,0,0,0,6529,0,0,0,0,0,0,6529,0,0,0,0,0,0,0,0,0,0,0,0,0,0,0,0,6544,0,0,15,6529,0,0,0,0,0,0,0,6544,0,1,EAST JORDAN IRON WORKS INC,006020309
2009,48838KNTFN1413C,KENT FOUNDRY,1413 CALLAGHAN ST,GREENVILLE,MONTCALM,MI,48838,43.186632,-85.230636,,,,,,,331511,,,,,,1309207233762,"1,2,4-TRIMETHYLBENZENE",000095636,NO,NON-PBT,NO,0,NO,R,Pounds,1063.13,0,0,0,0,0,0,0,0,0,0,0,1063.13,0,0,0,0,0,0,0,0,0,0,0,0,0,0,0,0,0,0,0,0,0,0,0,0,0,0,0,0,0,0,0,0,0,0,0,0,0,1063.13,0,0,1063.13,0,0,0,0,0,0,0,0,1063.13,0,.64,NA,NA
2009,49437HYSLM5353W,DIVERSIFIED MACHINE MONTAGUE INC,5353 WILCOX RD,MONTAGUE,MUSKEGON,MI,49437,43.411665,-86.374821,,,,,,,336330,331521,,,,,1309207276698,LEAD COMPOUNDS,N420,YES,PBT,YES,1,NO,R,Pounds,0,4,0,0,0,0,0,0,0,0,0,0,4,1.7,0,1.7,0,0,.4,0,0,0,0,0,0,0,0,0,0,0,0,0,0,.4,0,991.2,0,0,0,991.2,0,0,0,0,0,0,0,0,0,0,6.1,0,0,4,0,2.1,0,0,0,991.2,0,0,997.3,0,.57,DIVERSIFIED MACHINE INC,611828695
2009,49120NLSCH225FO,NCP COATINGS INC,225 FORT ST,NILES,BERRIEN,MI,491200307,41.812484,-86.255518,,,,,,,325510,,,,,,1309207207857,METHYL ISOBUTYL KETONE,000108101,YES,NON-PBT,NO,0,NO,R,Pounds,2343,0,0,0,0,0,0,0,0,0,0,0,2343,0,0,0,0,0,0,0,0,0,0,0,0,0,0,0,0,0,0,0,0,0,0,0,0,0,0,0,3565,0,3565,0,0,0,0,0,0,0,2343,0,0,2343,0,0,0,3565,5109,0,0,0,11017,0,1.05,NCP COATINGS INC,NA
2009,49254DCPRD4401P,ADCO PRODUCTS INC,4401 PAGE AVE PO BOX 457,MICHIGAN CENTER,JACKSON,MI,49254,42.231459,-84.333744,,,,,,,325520,,,,,,1309207304344,ACRYLIC ACID,000079107,YES,NON-PBT,NO,0,NO,A,Pounds,0,0,0,0,0,0,0,0,0,0,0,0,0,0,0,0,0,0,0,0,0,0,0,0,0,0,0,0,0,0,0,0,0,0,0,0,0,0,0,0,0,0,0,0,0,0,0,0,0,0,0,0,0,0,0,0,0,0,0,0,0,0,0,0,0,ADCO GLOBAL INC,071211887
2009,48091NVCST6781M,INVECAST CORP,6781 MAXWELL,WARREN,MACOMB,MI,48091,42.461271,-83.034267,,,,,,,331512,,,,,,1309207260946,MANGANESE,007439965,YES,NON-PBT,YES,1,NO,R,Pounds,0,0,0,0,0,0,0,0,0,0,0,0,0,0,0,0,0,0,0,0,0,0,0,0,0,0,0,0,0,0,0,0,0,0,0,0,0,0,1868,1868,0,0,0,0,0,0,0,0,0,0,0,0,0,0,0,0,0,0,0,1868,0,0,1868,0,,NA,NA
2009,48164MRCNS36506,BONSAL AMERICAN INC,36506 SIBLEY RD,NEW BOSTON,WAYNE,MI,48164,42.165422,-83.394473,,,,,,,327999,324199,,,,,1309207214723,ANTHRACENE,000120127,NO,NON-PBT,NO,0,NO,R,Pounds,0,.4,0,0,0,0,0,0,0,0,0,0,.4,0,0,0,0,0,0,0,0,0,0,0,0,0,0,1231,0,0,0,0,0,1231,0,0,0,0,0,0,0,0,0,0,0,0,0,0,0,0,1231.4,0,0,.4,1231,0,0,0,0,0,0,0,1231.4,0,.98,OLDCASTLE INC,037176591
2009,49451SLDPW3800A,METAL TECHNOLOGIES INC  RAVENNA DUCTILE IRON,3800 ADAMS RD,RAVENNA,MUSKEGON,MI,49451,43.183764,-85.93789,,,,,,,331511,,,,,,1309207286725,ZINC COMPOUNDS,N982,NO,NON-PBT,YES,1,NO,R,Pounds,0,.65,0,0,0,0,0,0,0,0,0,0,.65,0,0,0,0,0,0,0,0,0,0,0,0,0,14325,0,0,0,0,0,0,14325,0,0,21,0,0,21,0,0,0,0,0,0,0,0,0,0,14325.65,0,0,.65,14325,0,0,0,0,21,0,0,14346.65,0,1.01,METAL TECHNOLOGIES INC,NA
2009,49634TSFLR700ME,TES FILER CITY STATION,700 MEE ST,FILER CITY,MANISTEE,MI,49634,44.21682,-86.29052,,,,,,,221112,,,,,,1309207286814,"HYDROCHLORIC ACID (1995 AND AFTER ""ACID AEROSOLS"" ONLY)",007647010,YES,NON-PBT,NO,0,NO,R,Pounds,0,14400,0,0,0,0,0,0,0,0,0,0,14400,0,0,0,0,0,0,0,0,0,0,0,0,0,0,0,0,0,0,0,0,0,0,0,0,0,0,0,0,0,0,0,0,0,0,0,0,0,14400,0,0,14400,0,0,0,0,0,0,295000,0,309400,0,1.03,NA,NA
2009,48162DVNCD1625R,ADVANCED HEAT TREAT CORP,1625 ROSE ST,MONROE,MONROE,MI,48162,41.92047,-83.368541,,,,,,,332811,,,,,,1309207297971,AMMONIA,007664417,NO,NON-PBT,NO,0,NO,A,Pounds,0,0,0,0,0,0,0,0,0,0,0,0,0,0,0,0,0,0,0,0,0,0,0,0,0,0,0,0,0,0,0,0,0,0,0,0,0,0,0,0,0,0,0,0,0,0,0,0,0,0,0,0,0,0,0,0,0,0,0,0,0,0,0,0,0,ADVANCED HEAT TREAT CORP,056504186
2009,49068MRSHL450LE,TRIBAL MANUFACTURING INC,450 LEGGITT RD,MARSHALL,CALHOUN,MI,49068,42.252815,-84.964204,,,,,,,332721,332919,,,,,1309207212667,COPPER,007440508,NO,NON-PBT,YES,1,NO,R,Pounds,1,0,0,0,0,0,0,0,0,0,0,0,1,1,0,1,0,0,0,0,0,0,0,0,0,0,0,0,0,0,1,2228,0,2229,0,0,0,0,2192195,2192195,0,0,0,0,0,0,0,0,0,0,2231,0,0,1,0,2230,0,0,0,2192195,0,0,2194426,0,.32,JOE & DOMINIC ISMERT,NA
2009,49443STSHR1221B,ESCO CO LLC,1221 E BARNEY AVE,MUSKEGON,MUSKEGON,MI,49444,43.210349,-86.21558,,,,,,,325132,,,,,,1309207222860,PHTHALIC ANHYDRIDE,000085449,YES,NON-PBT,NO,0,NO,R,Pounds,4,0,0,0,0,0,0,0,0,0,0,0,4,0,0,0,0,0,0,0,0,0,0,0,0,0,27,0,0,0,0,0,0,27,0,0,0,0,0,0,0,0,0,0,0,0,0,0,0,0,31,0,0,4,27,0,0,0,0,0,0,0,31,0,.8,NA,NA
2009,49946CLTXC200SO,CERTAINTEED CEILINGS CORP,200 S MAIN ST,LANSE,BARAGA,MI,49946,46.754167,-88.458333,,,,,,,327999,,,,,,1309207191406,CHLOROTHALONIL,001897456,NO,NON-PBT,NO,0,NO,R,Pounds,0,5,0,0,0,0,0,750,0,0,0,0,755,0,0,0,0,0,0,0,0,0,0,0,0,0,0,0,0,0,0,0,0,0,0,0,0,0,0,0,0,0,0,0,0,0,0,0,0,0,755,0,0,711,0,0,0,0,0,0,0,0,711,0,.94,SAINT-GOBAIN CORP,NA
2009,48164MRCNS36506,BONSAL AMERICAN INC,36506 SIBLEY RD,NEW BOSTON,WAYNE,MI,48164,42.165422,-83.394473,,,,,,,327999,324199,,,,,1309207214762,LEAD COMPOUNDS,N420,YES,PBT,YES,1,NO,R,Pounds,0,0,0,0,0,0,0,0,0,0,0,0,0,0,0,0,0,0,0,0,0,0,0,0,0,0,0,0,0,0,0,0,0,0,0,0,0,0,0,0,0,0,0,0,0,0,0,0,0,0,0,0,0,0,0,0,0,0,0,0,0,0,0,0,,OLDCASTLE INC,037176591
2009,49242SSXSP190UR,DOW CHEMICAL CO DOW AUTOMOTIVE HILLSDALE,186 URAN ST,HILLSDALE,HILLSDALE,MI,49242,41.937359,-84.65263,,,,,,,325520,,,,,,1309207219736,METHANOL,000067561,YES,NON-PBT,NO,0,NO,R,Pounds,21,5,0,0,0,0,0,0,0,0,0,0,26,0,0,0,0,0,0,0,0,0,0,0,0,0,0,0,0,0,0,0,0,0,0,0,0,0,0,0,4515,0,4515,0,23,0,0,0,0,23,26,0,0,26,0,0,0,4515,0,0,0,23,4564,0,.42,THE DOW CHEMICAL CO,001381581
2009,48174CHMCN13395,UNIVAR USA INC ROMULUS BRANCH,13395 HURON RIVER DR,ROMULUS,WAYNE,MI,481740906,42.205647,-83.404459,,,,,,,424690,,,,,,1309207218278,TOLUENE,000108883,YES,NON-PBT,NO,0,NO,R,Pounds,22,276,0,0,0,0,0,0,0,0,0,0,298,0,5,5,249,0,0,0,0,0,0,0,0,0,0,0,0,0,0,0,0,249,0,0,0,0,1516,1516,0,63,63,0,0,0,0,0,0,0,547,0,0,298,0,249,0,63,0,1516,0,0,2126,5,1,UNIVAR USA INC,102971785
2009,48001LGNCC9300S,ALGONAC CAST PRODUCTS,9300 STONE RD,ALGONAC,ST CLAIR,MI,48001,42.628836,-82.544752,,,,,,,331525,,,,,,1309207234384,COPPER COMPOUNDS,N100,NO,NON-PBT,YES,1,NO,R,Pounds,0,0,0,0,0,0,0,0,0,0,0,0,0,0,0,0,0,0,0,0,0,0,0,0,0,0,0,0,0,0,0,0,0,0,0,47757.5,0,0,0,47757.5,0,0,0,0,0,0,0,0,0,0,0,0,0,0,0,0,0,0,0,47757.5,0,0,47757.5,0,1.13,NA,NA
2009,48192SHSTV18655,ASH STEVENS INC,18655 KRAUSE ST,RIVERVIEW,WAYNE,MI,48193,42.172459,-83.174169,,,,,,,325412,,,,,,1309207278882,DICHLOROMETHANE,000075092,YES,NON-PBT,NO,0,YES,R,Pounds,250,250,0,0,0,0,0,0,0,0,0,0,500,0,0,0,0,0,0,0,0,0,0,0,0,0,0,0,0,0,0,0,0,0,0,0,0,0,0,0,17417,0,17417,0,0,0,0,0,0,0,500,0,0,500,0,0,0,17417,0,0,0,0,17917,0,.77,NA,NA
2009,49441NNFRR1146N,NON-FERROUS CAST ALLOYS INC,1146 N GATEWAY BLVD,MUSKEGON,MUSKEGON,MI,49441,43.143945,-86.217356,,,,,,,331524,,,,,,1309207291459,COPPER,007440508,NO,NON-PBT,YES,1,NO,R,Pounds,27,0,0,0,0,0,0,0,0,0,0,0,27,0,0,0,0,0,0,0,0,0,0,0,0,0,0,0,0,0,0,0,0,0,0,44725,0,0,0,44725,0,0,0,0,0,0,0,0,0,0,27,0,0,27,0,0,0,0,0,44725,0,0,44752,0,.85,NA,NA
2009,49093RMSTR816MA,ARMSTRONG INTERNATIONAL INC,816 MAPLE ST,THREE RIVERS,ST JOSEPH,MI,49093,41.954874,-85.637462,,,,,,,332919,,,,,,1309207248028,LEAD COMPOUNDS,N420,YES,PBT,YES,1,NO,R,Pounds,0,0,0,0,0,0,0,0,0,0,0,0,0,0,0,0,0,0,0,0,0,0,0,0,0,0,0,0,0,0,0,0,0,0,0,996,0,0,0,996,0,0,0,0,0,0,0,0,0,0,0,0,0,0,0,0,0,0,0,996,0,0,996,0,.82,ARMSTRONG WORLD INDUSTRIES INC,NA
2009,48139PRGRS10850,PROGRESSIVE METAL FORMING INC,10850 HALL RD,HAMBURG,LIVINGSTON,MI,48139,42.444811,-83.792988,,,,,,,332116,,,,,,1309207193691,COBALT,007440484,YES,NON-PBT,YES,1,YES,R,Pounds,5,5,0,0,0,0,0,0,0,0,0,0,10,0,0,0,0,0,0,0,0,0,0,0,0,0,0,0,0,0,0,0,0,0,0,1380,0,0,0,1380,0,0,0,0,0,0,0,0,0,0,10,0,0,10,0,0,0,0,0,1380,0,0,1390,0,,NA,NA
2009,49445BCCBB151NC,BC COBB GENERATING PLANT,151 N CAUSEWAY,MUSKEGON,MUSKEGON,MI,49445,43.26341,-86.24811,,,,,,,221112,,,,,,1309207267636,"HYDROCHLORIC ACID (1995 AND AFTER ""ACID AEROSOLS"" ONLY)",007647010,YES,NON-PBT,NO,0,NO,R,Pounds,0,560000,0,0,0,0,0,0,0,0,0,0,560000,0,0,0,0,0,0,0,0,0,0,0,0,0,0,0,0,0,0,0,0,0,0,0,0,0,0,0,0,0,0,0,0,0,0,0,0,0,560000,0,0,560000,0,0,0,0,0,0,13500,0,573500,0,.87,CONSUMERS ENERGY,006959803
2009,49093DCKFN4284T,METAL TECHNOLOGIES INC THREE RIVERS GRAY IRON,429 FOURTH ST,THREE RIVERS,ST JOSEPH,MI,49093,41.939367,-85.629755,,,,,,,331511,,,,,,1309207287119,MANGANESE COMPOUNDS,N450,YES,NON-PBT,YES,1,NO,R,Pounds,0,85,0,0,0,0,0,0,0,0,0,0,85,0,0,0,0,0,0,0,0,0,0,0,0,0,37831,0,0,0,0,0,0,37831,0,0,0,0,8075,8075,0,0,0,0,0,0,0,0,0,0,37916,0,0,85,37831,0,0,0,0,8075,0,0,45991,0,.94,METAL TECHNOLOGIES INC,NA
2009,48626DWCRN1635N,DOW CORNING CORP HEALTHCARE INDUSTRIES MATERIALS SITE,1635 N GLEANER RD,HEMLOCK,SAGINAW,MI,48626,43.431389,-84.151389,,,,,,,325199,325412,325998,,,,1309207213075,N-HEXANE,000110543,YES,NON-PBT,NO,0,NO,R,Pounds,0,176,0,0,0,0,0,0,0,0,0,0,176,0,0,0,0,0,0,0,0,0,0,0,0,0,0,0,0,0,0,0,0,0,0,0,0,0,0,0,0,0,0,0,0,0,0,0,0,0,176,0,0,176,0,0,0,0,0,0,0,0,176,0,2.86,DOW CORNING CORP,005353487
2009,48198MRSHP103NG,MARSH PLATING CORP,103 N GROVE,YPSILANTI,WASHTENAW,MI,48198,42.241903,-83.603955,,,,,,,332813,,,,,,1309207210865,COPPER COMPOUNDS,N100,NO,NON-PBT,YES,1,NO,R,Pounds,1,8,0,0,0,0,0,0,0,0,0,0,9,43,0,43,0,884,0,0,0,0,0,0,0,0,0,0,0,0,0,0,0,884,0,0,0,0,0,0,0,0,0,0,0,0,0,0,0,0,936,0,0,9,0,927,0,0,0,0,0,0,936,0,.79,NA,NA
2009,49657HYDRL411GE,HYDROLAKE INC,6151 W GERWOUDE DR,MC BAIN,MISSAUKEE,MI,49657,44.193889,-85.2125,,,,,,,321114,,,,,,1309207308242,ARSENIC,007440382,YES,NON-PBT,YES,1,YES,A,Pounds,0,0,0,0,0,0,0,0,0,0,0,0,0,0,0,0,0,0,0,0,0,0,0,0,0,0,0,0,0,0,0,0,0,0,0,0,0,0,0,0,0,0,0,0,0,0,0,0,0,0,0,0,0,0,0,0,0,0,0,0,0,0,0,0,0,NA,NA
2009,48218NTDST2DIVI,US GYPSUM CO DETROIT PLANT,10090 W JEFFERSON AVE,RIVER ROUGE,WAYNE,MI,482180089,42.27905,-83.13015,,,,,,,327420,,,,,,1309207213277,MERCURY,007439976,YES,PBT,YES,1,NO,R,Pounds,0,.87,0,0,0,0,0,0,0,0,0,0,.87,0,0,0,0,0,0,0,0,0,0,0,0,0,0,0,0,.02,0,0,0,.02,0,0,0,0,0,0,0,0,0,0,0,0,0,0,0,0,.89,0,0,.87,0,.02,0,0,0,0,0,0,.89,0,1,US GYPSUM CO,121286777
2009,49913CLMTL25830,CALUMET ELECTRONICS CORP,25830 DEPOT ST,CALUMET,HOUGHTON,MI,49913,47.238244,-88.445125,,,,,,,334412,,,,,,1309207220094,COPPER,007440508,NO,NON-PBT,YES,1,NO,R,Pounds,0,0,0,0,0,0,0,0,0,0,0,0,0,158.34,0,158.34,0,0,0,0,0,0,0,0,0,0,0,0,0,0,0,0,0,0,0,9902.62,40957.93,0,0,50860.55,0,0,0,0,0,0,0,0,0,0,158.34,0,0,0,0,158.34,0,0,0,50860.55,0,0,51018.89,0,.7,NA,NA
2009,48134MZDMT1MAZD,AUTOALLIANCE INTERNATIONAL INC,1 INTERNATIONAL DR,FLAT ROCK,WAYNE,MI,48134,42.10956,-83.24499,,,,,,,336111,336211,336370,,,,1309207229749,ETHYLBENZENE,000100414,YES,NON-PBT,NO,0,NO,R,Pounds,250,23794,0,0,0,0,0,0,0,0,0,0,24044,0,0,0,0,0,0,0,0,0,0,0,0,0,0,0,0,0,0,0,0,0,24060,0,0,0,0,24060,190,0,190,0,0,0,0,0,0,0,24044,0,0,24044,0,0,0,190,0,24060,3542,0,51836,0,.61,FORD MOTOR(50%) & MAZDA JAPAN(50%),001344746
2009,49801GRDFN801SC,GREDE LLC - IRON MOUNTAIN,801 S CARPENTER AVE,KINGSFORD,DICKINSON,MI,49802,45.799405,-88.070937,,,,,,,331511,,,,,,1309207250578,CHROMIUM,007440473,YES,NON-PBT,YES,1,YES,R,Pounds,0,5.3,0,0,0,0,0,0,0,0,0,0,5.3,0,0,0,0,0,0,0,0,0,0,0,0,0,510,0,0,0,0,0,0,510,0,0,0,0,0,0,0,0,0,0,0,0,0,0,0,0,515.3,0,0,5.3,510,0,0,0,0,0,0,0,515.3,0,.67,GREDE HOLDINGS LLC,961705873
2009,49801GRDFN801SC,GREDE LLC - IRON MOUNTAIN,801 S CARPENTER AVE,KINGSFORD,DICKINSON,MI,49802,45.799405,-88.070937,,,,,,,331511,,,,,,1309207250630,PHENOL,000108952,YES,NON-PBT,NO,0,NO,R,Pounds,0,870,0,0,0,0,0,0,0,0,0,0,870,0,0,0,0,0,0,0,0,0,0,0,0,0,12,0,0,0,0,0,0,12,0,0,0,0,0,0,0,0,0,0,0,0,0,0,0,0,882,0,0,870,12,0,0,0,0,0,0,0,882,0,.67,GREDE HOLDINGS LLC,961705873
2009,4883WMRCNC2VETE,AMERICAN COMPOUNDING SPECIALTIES LLC,200 VETERANS DR,FOWLERVILLE,LIVINGSTON,MI,48836,42.659382,-84.077255,,,,,,,325991,,,,,,1309207266444,ANTIMONY COMPOUNDS,N010,YES,NON-PBT,YES,1,NO,R,Pounds,0,0,0,0,0,0,0,0,0,0,0,0,0,0,0,0,0,0,0,0,0,0,0,0,0,0,0,0,0,0,0,0,0,0,0,0,0,0,0,0,0,0,0,0,0,0,0,0,0,0,0,0,0,0,0,0,0,0,0,0,0,0,0,0,62.5,NA,NA
2009,49460JHCMP17000,J H CAMPBELL GENERATING PLANT,17000 CROSWELL ST,WEST OLIVE,OTTAWA,MI,49460,42.92088,-86.20511,,,,,,,221112,,,,,,1309207255151,"HYDROCHLORIC ACID (1995 AND AFTER ""ACID AEROSOLS"" ONLY)",007647010,YES,NON-PBT,NO,0,NO,R,Pounds,0,830000,0,0,0,0,0,0,0,0,0,0,830000,0,0,0,0,0,0,0,0,0,0,0,0,0,0,0,0,0,0,0,0,0,0,0,0,0,0,0,0,0,0,0,0,0,0,0,0,0,830000,0,0,830000,0,0,0,0,0,0,44000,0,874000,0,.96,CONSUMERS ENERGY,006959803
2009,48854MRCHM340NS,AMERICHEM SALES CORP,340 N ST,MASON,INGHAM,MI,48854,42.58418,-84.44879,,,,,,,325998,325110,,,,,1309207448313,CERTAIN GLYCOL ETHERS,N230,YES,NON-PBT,NO,0,NO,A,Pounds,0,0,0,0,0,0,0,0,0,0,0,0,0,0,0,0,0,0,0,0,0,0,0,0,0,0,0,0,0,0,0,0,0,0,0,0,0,0,0,0,0,0,0,0,0,0,0,0,0,0,0,0,0,0,0,0,0,0,0,0,0,0,0,0,0,NA,NA
2009,48854MRCHM340NS,AMERICHEM SALES CORP,340 N ST,MASON,INGHAM,MI,48854,42.58418,-84.44879,,,,,,,325998,325110,,,,,1309207448388,METHYL ISOBUTYL KETONE,000108101,YES,NON-PBT,NO,0,NO,A,Pounds,0,0,0,0,0,0,0,0,0,0,0,0,0,0,0,0,0,0,0,0,0,0,0,0,0,0,0,0,0,0,0,0,0,0,0,0,0,0,0,0,0,0,0,0,0,0,0,0,0,0,0,0,0,0,0,0,0,0,0,0,0,0,0,0,0,NA,NA
2009,49036CLDWT600JA,DARLING INTERNATIONAL INC,600 JAY ST,COLDWATER,BRANCH,MI,49036,41.924146,-85.014912,,,,,,,311613,,,,,,1309207355330,NITRATE COMPOUNDS,N511,NO,NON-PBT,NO,0,NO,R,Pounds,0,0,0,0,0,0,0,0,0,0,0,0,0,0,919460,919460,0,0,0,0,0,0,0,0,0,0,0,0,0,0,0,0,0,0,0,0,0,0,0,0,0,0,0,0,0,0,0,0,0,0,0,0,0,0,0,0,0,0,0,0,0,919460,919460,0,.89,DARLING INTERNATIONAL INC,071000837
2009,49022SNDVK2235D,SANDVIK MATERIALS TECHNOLOGY,2235 DEWEY AVE,BENTON HARBOR,BERRIEN,MI,49022,42.079233,-86.397667,,,,,,,423510,,,,,,1309207325313,AMMONIA,007664417,NO,NON-PBT,NO,0,NO,R,Pounds,200,0,0,0,0,0,0,0,0,0,0,0,200,0,0,0,0,0,0,0,0,0,0,0,0,0,0,0,0,0,0,0,0,0,0,0,0,0,0,0,0,0,0,0,0,0,0,0,0,0,200,0,0,200,0,0,0,0,0,0,18723,0,18923,0,.71,SANDVIK INC,041023700
2009,48088RMLYS1900E,ARMALY SPONGE CO DBA ARMALY BRANDS,1900 EASY ST,COMMERCE TOWNSHIP,OAKLAND,MI,48390,42.542486,-83.463794,,,,,,,326150,,,,,,1309207387390,"TOLUENE-2,6-DIISOCYANATE",000091087,NO,NON-PBT,NO,0,YES,R,Pounds,0,3,0,0,0,0,0,0,0,0,0,0,3,0,0,0,0,0,0,0,0,0,0,0,0,0,0,0,0,0,0,0,0,0,0,0,0,0,0,0,0,0,0,0,0,0,0,0,0,0,3,0,0,3,0,0,0,0,0,0,0,0,3,0,,NA,NA
2009,48060MLLRB1925L,MUELLER BRASS CO,2199 LAPEER AVE,PORT HURON,ST CLAIR,MI,48060,42.97767,-82.45062,,,,,,,331421,332112,,,,,1309207337751,LEAD COMPOUNDS,N420,YES,PBT,YES,1,NO,R,Pounds,6,323,0,0,0,0,0,0,0,0,0,0,329,42,0,42,0,635,0,0,0,0,0,0,0,0,0,0,0,0,0,0,0,635,0,54665,175,0,0,54840,0,0,0,0,0,0,0,0,0,0,1006,0,0,329,0,677,0,0,3068,54840,0,0,58914,0,.8,MUELLER INDUSTRIES INC,622031748
2009,48207JXMTL4651B,AJAX METAL PROCESSING INC,4651 BELLEVUE AVE,DETROIT,WAYNE,MI,48207,42.369005,-83.021862,,,,,,,332813,332812,,,,,1309207389166,NICKEL COMPOUNDS,N495,YES,NON-PBT,YES,1,NO,R,Pounds,0,0,0,0,0,0,0,0,0,0,0,0,0,167,0,167,0,298,0,0,0,0,0,0,0,0,309,0,0,0,0,0,0,607,0,0,0,0,0,0,0,0,0,0,0,0,0,0,0,0,774,0,0,0,309,465,0,0,0,0,0,0,774,0,,AJAX METAL PROCESSING INC,NA
2009,49876CHMPNUSHIG,VERSO QUINNESEC LLC,US HWY 2,QUINNESEC,DICKINSON,MI,49876,45.80624,-87.981812,,,,,,,322121,,,,,,1309207344502,FORMIC ACID,000064186,NO,NON-PBT,NO,0,NO,R,Pounds,0,0,135.8,0,0,0,0,0,0,0,0,0,135.8,0,0,0,0,0,0,0,0,0,0,0,0,0,0,0,0,0,0,0,0,0,0,0,0,0,0,0,0,0,0,0,0,0,0,0,0,0,135.8,0,0,135.8,0,0,0,0,0,0,1925328,0,1925463.8,0,.96,VERSO PAPER CORP,826480902
2009,48723MCHGN1551E,MICHIGAN ETHANOL LLC,1551 EMPIRE DR,CARO,TUSCOLA,MI,48723,43.472444,-83.411056,,,,,,,325193,,,,,,1309207443983,CYCLOHEXANE,000110827,NO,NON-PBT,NO,0,NO,A,Pounds,0,0,0,0,0,0,0,0,0,0,0,0,0,0,0,0,0,0,0,0,0,0,0,0,0,0,0,0,0,0,0,0,0,0,0,0,0,0,0,0,0,0,0,0,0,0,0,0,0,0,0,0,0,0,0,0,0,0,0,0,0,0,0,0,0,NA,NA
2009,48103THTFR7101J,THETFORD CORP,7101 JACKSON RD,ANN ARBOR,WASHTENAW,MI,48103,42.291667,-83.87,,,,,,,325612,,,,,,1309207390840,METHANOL,000067561,YES,NON-PBT,NO,0,NO,R,Pounds,5,100,0,0,0,0,0,0,0,0,0,0,105,0,0,0,0,0,0,0,0,0,0,0,0,0,0,0,0,0,0,0,0,0,0,0,0,0,0,0,0,0,0,0,0,0,2300,0,0,2300,105,0,0,105,0,0,0,0,0,0,100,2300,2505,0,1.01,THETFORD CORP,NA
2009,49464HXCLC215CE,VERTELLUS SPECIALTIES INC,215 N CENTENNIAL ST,ZEELAND,OTTAWA,MI,49464,42.815556,-86.011667,,,,,,,325199,325411,325192,325998,,,1309207355773,CHLOROBENZENE,000108907,YES,NON-PBT,NO,0,NO,R,Pounds,6815,954,0,0,0,0,0,0,0,0,0,0,7769,0,0,0,0,0,0,0,0,0,0,0,0,0,0,0,0,0,0,0,0,0,0,0,0,0,0,0,7722,0,7722,0,1377,0,0,0,0,1377,7769,0,0,7769,0,0,0,7722,51821,0,0,1377,68689,0,,VERTELLUS SPECIALTIES INC,029260833
2009,49504BTZFN2029B,BETZ INDUSTRIES,2029 BRISTOL AVE NW,GRAND RAPIDS,KENT,MI,49504,43.002819,-85.708094,,,,,,,331511,,,,,,1309207365925,COPPER,007440508,NO,NON-PBT,YES,1,NO,R,Pounds,19,5,0,0,0,0,0,0,0,0,0,0,24,0,0,0,0,0,0,0,0,0,0,0,0,0,88,0,0,0,0,0,0,88,0,0,0,0,0,0,0,0,0,0,0,0,0,0,0,0,112,0,0,24,88,0,0,0,8699,0,0,0,8811,0,.99,NA,NA
2009,48088PRCSN8120G,PRECISION COATINGS INC,8120 GOLDIE ST,WALLED LAKE,OAKLAND,MI,48390,42.572222,-83.441388,,,,,,,326113,326130,,,,,1309207392580,TOLUENE,000108883,YES,NON-PBT,NO,0,NO,R,Pounds,330,2900,0,0,0,0,0,0,0,0,0,0,3230,0,0,0,0,0,0,0,0,0,0,0,0,0,0,0,0,0,0,0,0,0,0,0,0,0,0,0,10874,0,10874,0,0,0,0,0,0,0,3230,0,0,3200,0,0,0,11000,0,0,51000,0,65200,0,.87,NA,NA
2009,49001THPJH7171P,PHARMACIA & UPJOHN CO LLC A SUBSIDIARY OF PFIZER INC,7171 PORTAGE RD,KALAMAZOO,KALAMAZOO,MI,49001,42.212996,-85.559993,,,,,,,325412,,,,,,1309207362866,DIOXIN AND DIOXIN-LIKE COMPOUNDS,N150,YES,DIOXIN,NO,0,NO,R,Grams,.042,.094,0,0,0,0,0,0,0,0,0,0,.136,0,0,0,0,0,0,0,0,0,0,0,0,0,0,0,0,0,0,0,0,0,0,0,0,0,0,0,0,0,0,0,0,0,0,0,0,0,.136,0,0,.136,0,0,0,0,0,0,0,0,.136,0,1,PFIZER INC,001326495
2009,49464HXCLC215CE,VERTELLUS SPECIALTIES INC,215 N CENTENNIAL ST,ZEELAND,OTTAWA,MI,49464,42.815556,-86.011667,,,,,,,325199,325411,325192,325998,,,1309207355761,ALUMINUM (FUME OR DUST),007429905,NO,NON-PBT,YES,4,NO,A,Pounds,0,0,0,0,0,0,0,0,0,0,0,0,0,0,0,0,0,0,0,0,0,0,0,0,0,0,0,0,0,0,0,0,0,0,0,0,0,0,0,0,0,0,0,0,0,0,0,0,0,0,0,0,0,0,0,0,0,0,0,0,0,0,0,0,0,VERTELLUS SPECIALTIES INC,029260833
2009,48640CBTFM3603S,CABOT FUMED SILICA - MIDLAND PLANT,3603 S SAGINAW RD,MIDLAND,MIDLAND,MI,486407612,43.596804,-84.207743,,,,,,,325188,,,,,,1309207386032,CHLORINE,007782505,YES,NON-PBT,NO,0,NO,R,Pounds,5,86,0,0,0,0,0,0,0,0,0,0,91,0,0,0,0,0,0,0,0,0,0,0,0,0,0,0,0,0,0,0,0,0,0,0,0,0,0,0,0,0,0,0,0,0,91,0,0,91,91,0,0,91,0,0,0,0,0,0,3017052,91,3017234,0,1.03,CABOT CORP,098582703
2009,49503NTRNT13MCC,SPECTRUM CUBIC INC,13 MCCONNELL ST SW,GRAND RAPIDS,KENT,MI,49503,42.955071,-85.667982,,,,,,,336399,,,,,,1309207364480,METHANOL,000067561,YES,NON-PBT,NO,0,NO,R,Pounds,20,19,0,0,0,0,0,0,0,0,0,0,39,0,0,0,0,0,0,0,0,0,0,0,0,0,0,0,0,0,0,0,0,0,0,0,0,0,0,0,0,0,0,0,0,0,0,0,0,0,39,0,0,39,0,0,0,0,0,0,370,0,409,0,1.13,NA,NA
2009,48218MCLRV205MA,BP PRODUCTS NA INC RIVER ROUGE TERMINAL,205 MARION ST,RIVER ROUGE,WAYNE,MI,48218,42.275702,-83.122641,,,,,,,424710,,,,,,1309207371220,"BENZO(G,H,I)PERYLENE",000191242,YES,PBT,NO,0,YES,R,Pounds,0,0,0,0,0,0,0,0,0,0,0,0,0,0,0,0,0,0,0,0,0,0,0,0,0,0,0,0,0,0,0,0,0,0,0,0,0,0,0,0,0,0,0,0,0,0,0,0,0,0,0,0,0,0,0,0,0,0,0,0,0,0,0,0,1,BP PRODUCTS NA INC,039596507
2009,49548BNTLR3721H,BENTELER AUTOMOTIVE HAGEN FACILITY,3721 HAGEN DR,WYOMING,KENT,MI,49548,42.896975,-85.657111,,,,,,,336399,,,,,,1309207357916,MANGANESE,007439965,YES,NON-PBT,YES,1,NO,R,Pounds,1.78,.12,0,0,0,0,0,0,0,0,0,0,1.9,.491,0,.491,0,0,0,0,0,0,0,0,0,0,0,0,0,0,0,90.83,0,90.83,0,0,0,0,12162,12162,0,0,0,0,0,0,0,0,0,0,93.221,0,0,1.9,0,49.321,0,0,0,12162,0,0,12213.221,42,.63,BENTELER AUTOMOTIVE CORP,NA
2009,49464HXCLC215CE,VERTELLUS SPECIALTIES INC,215 N CENTENNIAL ST,ZEELAND,OTTAWA,MI,49464,42.815556,-86.011667,,,,,,,325199,325411,325192,325998,,,1309207355785,CHLOROMETHANE,000074873,YES,NON-PBT,NO,0,NO,A,Pounds,0,0,0,0,0,0,0,0,0,0,0,0,0,0,0,0,0,0,0,0,0,0,0,0,0,0,0,0,0,0,0,0,0,0,0,0,0,0,0,0,0,0,0,0,0,0,0,0,0,0,0,0,0,0,0,0,0,0,0,0,0,0,0,0,0,VERTELLUS SPECIALTIES INC,029260833
2009,48801TRRYM1950W,TERRY ASPHALT MATERIALS INC,1950 WILLIAMS ST,ALMA,GRATIOT,MI,48801,43.386097,-84.630394,,,,,,,324121,,,,,,1309207354729,"BENZO(G,H,I)PERYLENE",000191242,YES,PBT,NO,0,YES,R,Pounds,3.24,8.86,0,0,0,0,0,0,0,0,0,0,12.1,0,0,0,0,0,0,0,0,0,0,0,0,0,.173,0,0,0,0,0,0,.173,0,0,0,0,0,0,0,0,0,0,0,0,0,0,0,0,12.273,0,0,12.1,.173,0,0,0,0,0,0,0,12.273,0,1.15,BARRETT INDUSTRIES CORP,NA
2009,49971WHTPN3377P,WHITE PINE ELECTRIC POWER LLC,33707 POWER PLANT RD,WHITE PINE,ONTONAGON,MI,49971,46.7555,-89.57422,,,,,,,221112,,,,,,1309207368186,LEAD COMPOUNDS,N420,YES,PBT,YES,1,NO,R,Pounds,0,2.75,0,0,0,0,0,0,0,0,0,0,2.75,6.94,0,6.94,0,0,0,0,0,0,0,0,0,0,0,0,0,0,129,0,0,129,0,0,0,0,0,0,0,0,0,0,0,0,0,0,0,0,138.69,0,0,2.75,0,135.94,0,0,0,0,0,0,138.69,0,.29,TRAXYS,NA
2009,4901WFRTCS25126,US ARMY NATIONAL GUARD FORT CUSTER TRAINING CENTER RANGES,2501 26TH ST,AUGUSTA,KALAMAZOO,MI,490129205,0,0,,,,,,,928110,,,,,,1309207368236,LEAD,007439921,YES,PBT,YES,1,YES,R,Pounds,0,0,0,0,0,0,0,0,0,0,0,6455.8,6455.8,0,0,0,0,0,0,0,0,0,0,0,0,0,0,0,0,0,0,0,0,0,0,0,0,0,0,0,0,0,0,0,0,0,0,0,0,0,6455.8,0,0,6455.8,0,0,0,0,0,0,0,0,6455.8,0,1.53,US DEPARTMENT OF DEFENSE,NA
2009,49001THPJH7171P,PHARMACIA & UPJOHN CO LLC A SUBSIDIARY OF PFIZER INC,7171 PORTAGE RD,KALAMAZOO,KALAMAZOO,MI,49001,42.212996,-85.559993,,,,,,,325412,,,,,,1309207363084,TRIETHYLAMINE,000121448,YES,NON-PBT,NO,0,NO,R,Pounds,20,6,0,0,0,0,0,0,0,0,0,0,26,0,86000,86000,0,0,0,0,0,0,0,0,0,0,0,0,0,0,0,0,0,0,0,0,0,0,0,0,52000,0,52000,0,100,0,0,0,0,100,26,0,0,26,0,0,0,52000,0,0,420,86100,138546,0,.98,PFIZER INC,001326495
2009,48551GMCTRG3100,GM LLC POWERTRAIN FLINT ENGINE OPERATIONS,2100 BRISTOL RD,FLINT,GENESEE,MI,48551,42.98526,-83.7192,,,,,,,336350,,,,,,1309207394533,CHROMIUM,007440473,YES,NON-PBT,YES,1,YES,R,Pounds,0,0,0,0,0,0,0,0,0,0,0,0,0,0,0,0,0,0,0,0,0,0,0,0,0,0,0,0,0,0,2,0,0,2,0,0,12,0,0,12,0,0,0,0,0,0,0,0,0,0,2,0,0,0,0,2,0,0,0,12,0,0,14,0,.43,GENERAL MOTORS LLC,831247536
2009,49203KLLYF74ESS,KELLY FUELS INC,740 E S ST,JACKSON,JACKSON,MI,49203,42.225842,-84.386777,,,,,,,424710,,,,,,1309207472147,XYLENE (MIXED ISOMERS),001330207,YES,NON-PBT,NO,0,NO,A,Pounds,0,0,0,0,0,0,0,0,0,0,0,0,0,0,0,0,0,0,0,0,0,0,0,0,0,0,0,0,0,0,0,0,0,0,0,0,0,0,0,0,0,0,0,0,0,0,0,0,0,0,0,0,0,0,0,0,0,0,0,0,0,0,0,0,0,NA,809478274
2009,48422MCHGN159SO,MICHIGAN SUGAR CO - CROSW ELL FACTORY,159 S HOWARD,CROSWELL,SANILAC,MI,48422,43.266053,-82.619552,,,,,,,311313,,,,,,1309207391463,"HYDROCHLORIC ACID (1995 AND AFTER ""ACID AEROSOLS"" ONLY)",007647010,YES,NON-PBT,NO,0,NO,R,Pounds,0,392,0,0,0,0,0,0,0,0,0,0,392,0,0,0,0,0,0,0,0,0,0,0,0,0,0,0,0,0,0,0,0,0,0,0,0,0,0,0,0,0,0,0,0,0,0,0,0,0,392,0,0,392,0,0,0,0,0,0,29000,0,29392,0,1.03,MICHIGAN SUGAR CO,NA
2009,48551GMCTRG3100,GM LLC POWERTRAIN FLINT ENGINE OPERATIONS,2100 BRISTOL RD,FLINT,GENESEE,MI,48551,42.98526,-83.7192,,,,,,,336350,,,,,,1309207394610,N-BUTYL ALCOHOL,000071363,NO,NON-PBT,NO,0,NO,R,Pounds,0,0,0,0,0,0,0,0,0,0,0,0,0,0,0,0,0,0,0,0,0,0,0,0,0,0,0,0,0,0,0,0,0,0,0,0,0,0,0,0,0,0,0,0,0,0,0,0,0,0,0,0,0,0,0,0,0,0,0,0,0,0,0,0,.43,GENERAL MOTORS LLC,831247536
2009,48446DCPLT395DE,LAPEER PLATING & PLASTICS INC,395 DEMILLE RD,LAPEER,LAPEER,MI,48446,43.039356,-83.30946,,,,,,,332813,,,,,,1309207307416,NITRIC ACID,007697372,NO,NON-PBT,NO,0,NO,R,Pounds,0,11,0,0,0,0,0,0,0,0,0,0,11,0,0,0,0,0,0,0,0,0,0,0,0,0,0,0,0,0,0,0,0,0,0,0,0,0,0,0,0,0,0,0,0,0,0,0,0,0,11,0,0,11,0,0,0,0,0,0,0,0,11,0,.79,LAPEER PLATING & PLASTICS INC,963369785
2009,49423GRDSM636E4,SHERWIN-WILLIAMS CO,636 E 40TH ST,HOLLAND,ALLEGAN,MI,49423,42.761389,-86.08,,,,,,,325998,,,,,,1309207494497,BARIUM COMPOUNDS,N040,NO,NON-PBT,YES,3,NO,A,Pounds,0,0,0,0,0,0,0,0,0,0,0,0,0,0,0,0,0,0,0,0,0,0,0,0,0,0,0,0,0,0,0,0,0,0,0,0,0,0,0,0,0,0,0,0,0,0,0,0,0,0,0,0,0,0,0,0,0,0,0,0,0,0,0,0,0,THE SHERWIN WILLIAMS CO,004206397
2009,49423GRDSM636E4,SHERWIN-WILLIAMS CO,636 E 40TH ST,HOLLAND,ALLEGAN,MI,49423,42.761389,-86.08,,,,,,,325998,,,,,,1309207494612,ZINC COMPOUNDS,N982,NO,NON-PBT,YES,1,NO,A,Pounds,0,0,0,0,0,0,0,0,0,0,0,0,0,0,0,0,0,0,0,0,0,0,0,0,0,0,0,0,0,0,0,0,0,0,0,0,0,0,0,0,0,0,0,0,0,0,0,0,0,0,0,0,0,0,0,0,0,0,0,0,0,0,0,0,0,THE SHERWIN WILLIAMS CO,004206397
2009,48212CDLLC13650,CADILLAC OIL CO,13650 HELEN,DETROIT,WAYNE,MI,48212,42.417468,-83.030909,,,,,,,324191,325998,,,,,1309207449822,DIETHANOLAMINE,000111422,YES,NON-PBT,NO,0,NO,A,Pounds,0,0,0,0,0,0,0,0,0,0,0,0,0,0,0,0,0,0,0,0,0,0,0,0,0,0,0,0,0,0,0,0,0,0,0,0,0,0,0,0,0,0,0,0,0,0,0,0,0,0,0,0,0,0,0,0,0,0,0,0,0,0,0,0,0,NA,NA
2009,4908WPRKRH8676E,PARKER HANNIFIN PNEUMATIC DIV,8676 E M-89,RICHLAND,KALAMAZOO,MI,49083,42.390732,-85.461643,,,,,,,332999,,,,,,1309207365216,NICKEL,007440020,YES,NON-PBT,YES,1,YES,R,Pounds,0,0,0,0,0,0,0,0,0,0,0,1297,1297,0,0,0,0,0,0,0,0,0,0,0,0,0,0,0,0,0,0,0,0,0,0,1297,0,0,0,1297,0,0,0,0,0,0,0,0,0,0,1297,0,0,1297,0,0,0,0,0,0,0,0,1297,1297,.68,PARKER HANNIFIN CORP,043919133
2009,49254DCPRD4401P,ADCO PRODUCTS INC,4401 PAGE AVE PO BOX 457,MICHIGAN CENTER,JACKSON,MI,49254,42.231459,-84.333744,,,,,,,325520,,,,,,1309207304371,ZINC COMPOUNDS,N982,NO,NON-PBT,YES,1,NO,R,Pounds,5,5,0,0,0,0,0,0,0,0,0,0,10,0,0,0,0,0,0,0,0,0,0,0,0,0,0,0,0,0,0,675,0,675,0,0,0,0,0,0,0,0,0,0,0,0,0,0,0,0,685,0,0,10,0,675,0,0,0,0,0,0,685,0,.78,ADCO GLOBAL INC,071211887
2009,48906SHLND2011T,ASHLAND DISTRIBUTION,2011 TURNER ST,LANSING,INGHAM,MI,48906,42.75587,-84.55174,,,,,,,424690,,,,,,1309207494749,N-HEXANE,000110543,YES,NON-PBT,NO,0,NO,A,Pounds,0,0,0,0,0,0,0,0,0,0,0,0,0,0,0,0,0,0,0,0,0,0,0,0,0,0,0,0,0,0,0,0,0,0,0,0,0,0,0,0,0,0,0,0,0,0,0,0,0,0,0,0,0,0,0,0,0,0,0,0,0,0,0,0,0,ASHLAND INC,005003264
2009,49858MNMNP144FI,MENOMINEE ACQUISITION CORP (DBA CLEARWATER PAPER MENOMINEE),144 1ST ST,MENOMINEE,MENOMINEE,MI,49858,45.099363,-87.59808,,,,,,,322121,322299,,,,,1309207340302,LEAD COMPOUNDS,N420,YES,PBT,YES,1,NO,R,Pounds,0,2.21,2.81,0,0,0,0,0,0,0,0,0,5.02,0,0,0,0,0,0,0,0,0,0,0,0,0,305,0,0,0,0,0,0,305,0,0,0,0,0,0,0,0,0,0,0,0,0,0,0,0,310.02,0,0,5.02,305,0,0,0,0,0,0,0,310.02,0,1.03,CELLU TISSUE HOLDINGSCORP,782437318
2009,49423HLLND491E4,HOLLAND BPW 48TH STREET GENERATION STATION,491 E 48TH ST,HOLLAND,ALLEGAN,MI,49423,42.754719,-86.084763,,,,,,,221112,,,,,,1309207425909,N-HEXANE,000110543,YES,NON-PBT,NO,0,NO,A,Pounds,0,0,0,0,0,0,0,0,0,0,0,0,0,0,0,0,0,0,0,0,0,0,0,0,0,0,0,0,0,0,0,0,0,0,0,0,0,0,0,0,0,0,0,0,0,0,0,0,0,0,0,0,0,0,0,0,0,0,0,0,0,0,0,0,0,HOLLAND BOARD OF PUBLIC WORKS,197965643
2009,49423HLLND64PIN,HOLLAND BPW JAMES DE YOUNG GENERATION STATION,64 PINE AVE,HOLLAND,OTTAWA,MI,49423,42.794982,-86.112069,,,,,,,221112,,,,,,1309207425885,LEAD COMPOUNDS,N420,YES,PBT,YES,1,NO,R,Pounds,0,50,0,0,0,0,0,0,0,0,0,0,50,0,0,0,0,0,0,0,0,0,0,0,0,0,327.62,0,27.5,0,0,0,0,355.12,0,0,0,0,0,0,0,0,0,0,0,0,0,0,0,0,405.12,0,0,50,327.62,27.5,0,0,0,0,0,0,405.12,0,.73,HOLLAND BOARD OF PUBLIC WORKS,197965643
2009,48211CDLLC2500E,GENERAL MOTORS GM VA DETROIT-HAMTRAMCK ASSEMBLY CENTER,2500 E GENERAL MOTORS BLVD,DETROIT,WAYNE,MI,48211,42.37576,-83.04492,,,,,,,336111,,,,,,1309207481540,ETHYLENE GLYCOL,000107211,YES,NON-PBT,NO,0,NO,R,Pounds,0,0,0,0,0,0,0,0,0,0,0,0,0,0,280,280,0,0,0,0,0,0,0,0,0,0,0,0,0,0,0,0,0,0,0,0,0,0,0,0,0,0,0,0,0,0,0,0,0,0,0,0,0,0,0,0,0,0,0,0,0,280,280,0,.42,GENERAL MOTORS LLC,831247536
2009,48211CDLLC2500E,GENERAL MOTORS GM VA DETROIT-HAMTRAMCK ASSEMBLY CENTER,2500 E GENERAL MOTORS BLVD,DETROIT,WAYNE,MI,48211,42.37576,-83.04492,,,,,,,336111,,,,,,1309207481591,TOLUENE,000108883,YES,NON-PBT,NO,0,NO,R,Pounds,1200,13,0,0,0,0,0,0,0,0,0,0,1213,0,0,0,0,0,0,0,0,0,0,0,0,0,93,0,0,0,0,0,0,93,94,0,0,0,0,94,340,0,340,0,0,0,0,0,0,0,1306,0,0,1213,93,0,0,340,0,94,0,0,1740,0,.42,GENERAL MOTORS LLC,831247536
2009,49423GRDSM636E4,SHERWIN-WILLIAMS CO,636 E 40TH ST,HOLLAND,ALLEGAN,MI,49423,42.761389,-86.08,,,,,,,325998,,,,,,1309207494574,N-HEXANE,000110543,YES,NON-PBT,NO,0,NO,R,Pounds,1061,916,0,0,0,0,0,0,0,0,0,0,1977,0,0,0,0,0,0,0,0,0,0,0,0,0,0,0,0,0,0,0,0,0,0,0,0,0,0,0,21980,0,21980,0,1,0,0,0,0,1,1977,0,0,1977,0,0,0,21980,0,0,0,1,23958,0,1.52,THE SHERWIN WILLIAMS CO,004206397
2009,48906SHLND2011T,ASHLAND DISTRIBUTION,2011 TURNER ST,LANSING,INGHAM,MI,48906,42.75587,-84.55174,,,,,,,424690,,,,,,1309207494699,CERTAIN GLYCOL ETHERS,N230,YES,NON-PBT,NO,0,NO,R,Pounds,50,5,0,0,0,0,0,0,0,0,0,0,55,0,0,0,0,0,0,0,0,0,0,0,0,0,0,0,0,0,0,0,0,0,0,0,0,0,0,0,1495,0,1495,0,0,0,0,0,0,0,55,0,0,55,0,0,0,1495,0,0,0,0,1550,0,.25,ASHLAND INC,005003264
2009,48911JTNG 5212A,SYMMETRY MEDICAL INC LANSING,5212 AURELIUS RD,LANSING,INGHAM,MI,48911,42.681188,-84.523502,,,,,,,332112,,,,,,1309207483443,COBALT,007440484,YES,NON-PBT,YES,1,YES,R,Pounds,4.6,1.4,0,0,0,0,0,0,0,0,0,0,6,.9,0,.9,0,0,250,0,0,0,0,0,0,0,0,0,0,0,0,0,0,250,0,78451,0,0,0,78451,0,0,0,0,0,0,0,0,0,0,256.9,0,0,6,0,250.9,0,0,0,78451,0,0,78707.9,0,.95,SYMMETRY MEDICAL INC,070987714
2009,48809XTRDD302AS,MUELLER INDUSTRIES EXTRUDED METALS INC,302 ASHFIELD ST,BELDING,IONIA,MI,48809,43.099034,-85.222401,,,,,,,331421,,,,,,1309207454772,ZINC COMPOUNDS,N982,NO,NON-PBT,YES,1,NO,R,Pounds,2068,154,9.4,0,0,0,0,0,0,0,0,0,2231.4,0,0,0,0,0,0,0,0,0,0,0,0,0,0,0,0,0,0,0,0,0,0,516778,0,0,0,516778,0,0,0,0,0,0,0,0,0,0,2231.4,0,0,2231.4,0,0,0,0,0,516778,0,0,519009.4,0,1.7,MUELLER INDUSTRIES INC,632031748
2009,49412GRDSM411NO,ENGINEERED POLYMER SOLUTIONS INC D/B/A VALSPAR COATINGS,411 N DARLING,FREMONT,NEWAYGO,MI,49412,43.470833,-85.9425,,,,,,,325510,,,,,,1309207516434,N-BUTYL ALCOHOL,000071363,NO,NON-PBT,NO,0,NO,R,Pounds,0,2,0,0,0,0,0,0,0,0,0,0,2,0,0,0,0,0,0,0,0,0,0,0,0,0,0,0,0,0,0,0,0,0,0,0,0,0,0,0,0,0,0,0,0,0,0,416,0,416,2,0,0,2,0,0,0,0,0,0,0,416,418,0,1.17,THE VALSPAR CORP,050736453
2009,49461HWMTCONEMI,HOWMET CORP PLANTS 1& 3,ONE MISCO DR,WHITEHALL,MUSKEGON,MI,49461,43.39835,-86.34786,,,,,,,331528,,,,,,1309207528795,COBALT,007440484,YES,NON-PBT,YES,1,YES,R,Pounds,20,40,0,0,0,0,0,0,0,0,0,0,60,3,0,3,0,1061,0,0,0,0,0,0,0,0,1066,0,0,0,0,0,0,2127,0,0,196,0,481,677,0,0,0,0,0,0,0,0,0,0,2190,0,0,60,1069,1061,0,0,0,677,0,0,2867,0,.75,ALCOA INC,001339472
2009,48063WRNRL870PA,JHP PHARMACEUTICALS LLC,870 PARKDALE RD,ROCHESTER,OAKLAND,MI,48307,42.687045,-83.120875,,,,,,,325412,,,,,,1309207532072,"2-CHLORO-1,1,1,2-TETRAFLUOROETHANE",002837890,NO,NON-PBT,NO,0,NO,R,Pounds,0,7320,0,0,0,0,0,0,0,0,0,0,7320,0,0,0,0,0,0,0,0,0,0,0,0,0,0,0,0,0,0,0,0,0,0,0,0,0,0,0,0,0,0,0,0,0,0,0,0,0,7320,0,0,7320,0,0,0,0,0,0,0,0,7320,0,.67,NA,NA
2009,49221GNRLM1450E,INTEVA PRODUCTS - ADRIAN OPERATIONS,1450 E BEECHER ST,ADRIAN,LENAWEE,MI,49221,41.889842,-84.013499,,,,,,,336360,,,,,,1309207459328,TOLUENE,000108883,YES,NON-PBT,NO,0,NO,R,Pounds,5,6995.98,0,0,0,0,0,0,0,0,0,0,7000.98,0,0,0,0,0,0,0,0,0,0,0,0,0,.3,0,0,0,1.45,0,142.15,143.9,0,0,0,0,0,0,0,3589.98,3589.98,0,0,0,0,0,0,0,7144.88,0,0,7000.98,.3,143.6,0,3589.98,0,0,49247.6,0,59982.46,0,,NA,000173278
2009,48911JTNG 5212A,SYMMETRY MEDICAL INC LANSING,5212 AURELIUS RD,LANSING,INGHAM,MI,48911,42.681188,-84.523502,,,,,,,332112,,,,,,1309207483468,NITRIC ACID,007697372,NO,NON-PBT,NO,0,NO,R,Pounds,174,89,0,0,0,0,0,0,0,0,0,0,263,0,0,0,0,0,0,0,0,0,0,0,0,0,0,0,0,0,0,0,0,0,0,0,0,0,0,0,0,0,0,0,0,0,16582,0,0,16582,263,0,0,263,0,0,0,0,0,0,1769,16582,18614,0,8.6,SYMMETRY MEDICAL INC,070987714
2009,49504SFTYK2700M,SAFETY-KLEEN SYSTEMS (506101),2700 MULLINS,GRAND RAPIDS,KENT,MI,49504,43.016119,-85.757083,,,,,,,562112,484220,484230,,,,1309207544646,LEAD,007439921,YES,PBT,YES,1,YES,R,Pounds,0,0,0,0,0,0,0,0,0,0,0,0,0,0,0,0,0,0,0,0,0,0,0,0,0,0,0,0,0,0,0,0,0,0,0,0,217.8,0,0,217.8,0,0,0,0,0,0,0,0,0,0,0,0,0,0,0,0,0,0,0,222,0,0,222,0,.82,SAFETY-KLEEN HOLDCO INC,053976551
2009,48174SFTYK148HA,SAFETY-KLEEN SYSTEMS (405503),10480 HARRISON RD,ROMULUS,WAYNE,MI,48174,42.228361,-83.317749,,,,,,,562112,484220,484230,,,,1309207544685,LEAD,007439921,YES,PBT,YES,1,YES,R,Pounds,0,0,0,0,0,0,0,0,0,0,0,0,0,0,0,0,0,0,0,0,0,0,0,0,0,0,0,0,0,0,0,0,0,0,0,0,585.6,0,0,585.6,0,0,0,0,0,0,0,0,0,0,0,0,0,0,0,0,0,0,0,598.5,0,0,598.5,0,1.09,SAFETY-KLEEN HOLDCO INC,053976551
2009,48901LNSNG601IS,LANSING BOARD OF WATER & LIGHT -ECKERT,601 ISLAND AVE,LANSING,INGHAM,MI,48901,42.718755,-84.55496,,,,,,,221112,,,,,,1309207501127,VANADIUM COMPOUNDS,N770,NO,NON-PBT,YES,1,NO,R,Pounds,0,0,0,0,0,0,0,0,0,0,0,0,0,0,0,0,0,0,0,0,0,0,0,0,0,0,14521,0,0,0,0,0,0,14521,0,0,0,0,0,0,0,0,0,0,0,0,0,0,0,0,14521,0,0,0,14521,0,0,0,0,0,0,0,14521,0,.58,LANSING BOARD OF WATER & LIGHT,NA
2009,49634PCKGN2245U,PACKAGING CORP OF AMERICA,2246 UDELL ST,FILER CITY,MANISTEE,MI,49634,44.215,-86.283333,,,,,,,322121,,,,,,1309207461260,DIOXIN AND DIOXIN-LIKE COMPOUNDS,N150,YES,DIOXIN,NO,0,NO,R,Grams,0,.1333,0,0,0,0,0,0,0,0,0,0,.1333,0,0,0,0,0,0,0,0,0,0,0,0,0,.0181,0,0,0,0,0,0,.0181,0,0,0,0,0,0,0,0,0,0,0,0,0,0,0,0,.1514,0,0,.1333,.0181,0,0,0,0,0,0,0,.1514,0,.7,PACKAGING CORP OF AMERICA,NA
2009,48849SBWDB7795S,CARBON GREEN BIOENERGY,7795 SADDLEBAG LAKE RD,LAKE ODESSA,BARRY,MI,48849,42.7658,-85.078,,,,,,,325193,,,,,,1309207464645,N-HEXANE,000110543,YES,NON-PBT,NO,0,NO,R,Pounds,456.16,1251.36,0,0,0,0,0,0,0,0,0,0,1707.52,0,0,0,0,0,0,0,0,0,0,0,0,0,0,0,0,0,0,0,0,0,0,0,0,0,0,0,0,0,0,0,0,0,0,0,0,0,1707.52,0,0,1707.52,0,0,0,0,0,0,0,0,1707.52,0,.68,NA,NA
2009,49855PRSQS2701L,PRESQUE ISLE POWER PLANT,2701 LAKESHORE BLVD,MARQUETTE,MARQUETTE,MI,49855,46.57763,-87.39273,,,,,,,221112,,,,,,1309207427790,BARIUM COMPOUNDS,N040,NO,NON-PBT,YES,3,NO,R,Pounds,0,3900,350,0,0,0,330000,0,0,0,0,0,334250,0,0,0,0,0,0,0,0,0,0,0,0,0,0,0,0,0,0,0,0,0,0,0,0,0,0,0,0,0,0,0,0,0,0,0,0,0,334250,0,160000,4250,0,0,0,0,0,0,0,0,164250,170000,.78,WISCONSIN ENERGY CORP,157305780
2009,49855PRSQS2701L,PRESQUE ISLE POWER PLANT,2701 LAKESHORE BLVD,MARQUETTE,MARQUETTE,MI,49855,46.57763,-87.39273,,,,,,,221112,,,,,,1309207427889,POLYCYCLIC AROMATIC COMPOUNDS,N590,YES,PBT,NO,0,YES,R,Pounds,0,1.2,0,0,0,0,5.3,0,0,0,0,0,6.5,0,0,0,0,0,0,0,0,0,0,0,0,0,0,0,0,0,0,0,0,0,0,0,0,0,0,0,0,0,0,0,0,0,0,0,0,0,6.5,0,5.3,1.2,0,0,0,0,0,0,0,0,6.5,0,.78,WISCONSIN ENERGY CORP,157305780
2009,49868LSNPC461MI,LOUISIANA-PACIFIC CORP NEWBERRY SIDING,461 MILLER RD 7299 N CR 403,NEWBERRY,LUCE,MI,49868,46.335278,-85.493056,,,,,,,321219,,,,,,1309207430885,ACETALDEHYDE,000075070,YES,NON-PBT,NO,0,YES,R,Pounds,206,4314,0,0,0,0,0,0,0,0,0,0,4520,0,0,0,0,0,0,0,0,0,0,0,0,0,0,0,0,0,0,0,0,0,0,0,0,0,0,0,0,0,0,0,0,0,0,0,0,0,4520,0,0,4520,0,0,0,0,0,0,23951,0,28471,0,.91,LOUISIANA PACIFIC CORP,061500534
2009,48150FRDMT36200,FORD MOTOR CO - LIVONIA TRANSMISSION PLANT,36200 PLYMOUTH RD,LIVONIA,WAYNE,MI,48150,42.36767,-83.40154,,,,,,,336350,541380,,,,,1309207439338,NITRATE COMPOUNDS,N511,NO,NON-PBT,NO,0,NO,R,Pounds,0,0,0,0,0,0,0,0,0,0,0,0,0,0,21000,21000,0,0,0,0,0,0,0,0,0,0,0,0,0,0,0,0,0,0,0,0,0,0,0,0,0,0,0,0,0,0,0,0,0,0,0,0,0,0,0,0,0,0,0,0,0,21000,21000,0,.97,FORD MOTOR CO,001344746
2009,48192CDNPL3715E,CADON PLATING CO,3715 11TH ST,WYANDOTTE,WAYNE,MI,48192,42.194944,-83.166308,,,,,,,332812,332813,,,,,1309207486958,ZINC COMPOUNDS,N982,NO,NON-PBT,YES,1,NO,R,Pounds,0,0,0,0,0,0,0,0,0,0,0,0,0,34.93,0,34.93,0,176,0,0,0,0,0,0,0,0,0,0,0,0,0,0,0,176,0,0,0,0,0,0,0,0,0,0,0,0,0,0,0,0,210.93,0,0,0,0,210.93,0,0,0,0,0,0,210.93,0,.72,NA,NA
2009,48187GRNFL7295H,CANTON MANUFACTURING CORP,7295 HAGGERTY RD,CANTON,WAYNE,MI,48187,42.33849,-83.444624,,,,,,,336370,,,,,,1309207456738,MANGANESE,007439965,YES,NON-PBT,YES,1,NO,R,Pounds,1.5,0,1,0,0,0,0,0,0,0,0,0,2.5,0,0,0,0,0,0,0,0,0,0,0,0,0,0,0,0,0,0,0,0,0,0,94140.5,0,0,0,94140.5,0,0,0,0,0,0,0,0,0,0,2.5,0,0,2.5,0,0,0,0,0,94140.5,0,0,94143,0,.75,SHILOH INDUSTRIES INC,809953136
2009,48161TWBCR1600N,TAILOR WELDED BLANKS,1600 NADEAU RD,MONROE,MONROE,MI,48162,41.96425,-83.345453,,,,,,,332999,339999,331221,332322,336399,,1309207470307,CHROMIUM,007440473,YES,NON-PBT,YES,1,YES,A,Pounds,0,0,0,0,0,0,0,0,0,0,0,0,0,0,0,0,0,0,0,0,0,0,0,0,0,0,0,0,0,0,0,0,0,0,0,0,0,0,0,0,0,0,0,0,0,0,0,0,0,0,0,0,0,0,0,0,0,0,0,0,0,0,0,0,0,WORTHINGTON INDUSTRIES INC,004312401
2009,49236LBBYW11700,PILKINGTON - CLINTON,11700 TECUMSEH-CLINTON RD,CLINTON,LENAWEE,MI,49236,42.058028,-83.965331,,,,,,,541990,,,,,,1309207439668,ETHYLENE GLYCOL,000107211,YES,NON-PBT,NO,0,NO,R,Pounds,0,0,0,0,0,0,0,0,0,0,0,0,0,0,0,0,0,0,0,0,0,0,0,0,0,0,0,0,0,0,0,1270,0,1270,0,0,0,0,0,0,0,0,0,0,0,0,0,0,0,0,1270,0,0,0,0,1270,0,0,0,0,0,0,1270,0,,PILKINGTON PLC,212371884
2009,49507VCHMC55CTT,VI-CHEM CORP,55 COTTAGE GROVE ST SW,GRAND RAPIDS,KENT,MI,49507,42.935427,-85.668419,,,,,,,325991,,,,,,1309207484039,ANTIMONY,007440360,YES,NON-PBT,YES,1,NO,R,Pounds,0,0,0,0,0,0,0,0,0,0,0,0,0,0,0,0,0,0,0,0,0,0,0,0,0,0,250,0,0,0,0,0,0,250,0,0,0,0,0,0,0,0,0,0,0,0,0,0,0,0,250,0,0,0,332,0,0,0,0,0,0,0,332,0,.77,NA,NA
2009,49203KLLYF74ESS,KELLY FUELS INC,740 E S ST,JACKSON,JACKSON,MI,49203,42.225842,-84.386777,,,,,,,424710,,,,,,1309207472135,TOLUENE,000108883,YES,NON-PBT,NO,0,NO,A,Pounds,0,0,0,0,0,0,0,0,0,0,0,0,0,0,0,0,0,0,0,0,0,0,0,0,0,0,0,0,0,0,0,0,0,0,0,0,0,0,0,0,0,0,0,0,0,0,0,0,0,0,0,0,0,0,0,0,0,0,0,0,0,0,0,0,0,NA,809478274
2009,49795HGGNS108GA,H & H & TUBE A DIV OF SUNSPRING AMERICA INC,579 GARFIELD ST,VANDERBILT,OTSEGO,MI,49795,45.145368,-84.66209,,,,,,,331421,,,,,,1309207443122,COPPER,007440508,NO,NON-PBT,YES,1,NO,R,Pounds,0,0,0,0,0,0,0,0,0,0,0,0,0,0,0,0,0,0,0,0,0,0,0,0,0,0,0,0,0,0,12,0,0,12,0,292713,0,0,0,292713,0,0,0,0,0,0,0,0,0,0,12,0,0,0,0,12,0,0,0,292713,0,0,292725,0,.6,SUNSPRING AMERICA INC,006201228
2009,49036LCHML368WG,ALERIS SPECIFICATION ALLOYS INC,368 W GARFIELD AVE,COLDWATER,BRANCH,MI,49036,41.927778,-85.021944,,,,,,,331314,,,,,,1309207485513,DIOXIN AND DIOXIN-LIKE COMPOUNDS,N150,YES,DIOXIN,NO,0,NO,R,Grams,0,.26,0,0,0,0,0,0,0,0,0,0,.26,0,0,0,0,0,0,0,0,0,0,0,0,0,5.085,0,0,0,0,0,0,5.085,0,0,0,0,0,0,0,0,0,0,0,0,0,0,0,0,5.345,0,0,.26,5.085,0,0,0,0,0,0,0,5.345,0,.64,ALERIS SPECIFICATION ALLOYS INC,NA
2009,49971BHPCPPOBOX,WHITE PINE COPPER REFINERY INC,29784 WILLOW RD,WHITE PINE,ONTONAGON,MI,499710038,46.7636,-89.5688,,,,,,,331411,,,,,,1309207458439,LEAD COMPOUNDS,N420,YES,PBT,YES,1,NO,R,Pounds,0,0,0,0,0,0,0,0,0,0,0,0,0,0,0,0,0,0,0,0,9.93,0,0,0,0,0,0,0,0,0,.16,0,0,10.09,0,0,0,0,0,0,0,0,0,0,0,0,0,0,0,0,10.09,0,0,0,9.93,.16,0,0,0,0,0,0,10.09,0,.7,HUDSON BAY MINING & SMELTING CO,NA
2009,48220CTTNC2300G,COAT-IT INC,2300 GAINSBORO AVE,FERNDALE,OAKLAND,MI,48220,42.46533,-83.12887,,,,,,,325520,,,,,,1309207486580,ZINC COMPOUNDS,N982,NO,NON-PBT,YES,1,NO,A,Pounds,0,0,0,0,0,0,0,0,0,0,0,0,0,0,0,0,0,0,0,0,0,0,0,0,0,0,0,0,0,0,0,0,0,0,0,0,0,0,0,0,0,0,0,0,0,0,0,0,0,0,0,0,0,0,0,0,0,0,0,0,0,0,0,0,0,DIVERSIFIED CHEMICAL TECHNOLOGIES INC,048244157
2009,49442GLLLY5142E,EAGLE ALLOY INC,5142 EVANSTON AVE,MUSKEGON,MUSKEGON,MI,49442,43.21319,-86.118033,,,,,,,331513,331512,331524,,,,1309207434960,CHROMIUM,007440473,YES,NON-PBT,YES,1,YES,R,Pounds,4.29,.48,0,0,0,0,0,0,0,0,0,0,4.77,0,0,0,0,0,0,0,0,0,0,0,0,0,0,0,0,0,0,42.25,0,42.25,0,0,109.93,0,0,109.93,0,0,0,0,0,0,0,0,0,0,47.02,0,0,4.77,0,42.25,0,0,0,109.93,0,0,156.95,0,.75,NA,NA
2009,48192DTRTT1213G,DETROIT TUBULAR RIVET,1213 GROVE,WYANDOTTE,WAYNE,MI,48192,42.192299,-83.167607,,,,,,,332722,332813,,,,,1309207465360,DICHLOROMETHANE,000075092,YES,NON-PBT,NO,0,YES,R,Pounds,1277,11493,0,0,0,0,0,0,0,0,0,0,12770,0,0,0,0,0,0,0,0,0,0,0,0,0,0,0,0,0,0,0,0,0,0,0,0,0,0,0,0,0,0,0,0,0,0,0,0,0,12770,0,0,12770,0,0,0,0,0,0,0,0,12770,0,1,NA,NA
2009,48605SGNWG1629N,SAGINAW METAL CASTING OPERATIO NS,1629 N WASHINGTON ST,SAGINAW,SAGINAW,MI,48605,43.447217,-83.921551,,,,,,,331524,,,,,,1309207427168,PHENOL,000108952,YES,NON-PBT,NO,0,NO,R,Pounds,1200,310,0,0,0,0,290,0,0,0,0,0,1800,0,5,5,0,0,0,0,0,0,0,0,0,0,0,0,0,0,0,0,0,0,0,0,480,0,0,480,0,0,0,0,640,0,0,0,0,640,1800,0,290,1500,0,0,0,0,0,480,0,650,2920,0,.95,GENERAL MOTORS LLC,831247536
2009,49423TRNSM300EA,TRANS-MATIC MANUFACTURING CO,300 E 48TH ST,HOLLAND,ALLEGAN,MI,49423,42.754167,-86.093889,,,,,,,332116,,,,,,1309207495829,MANGANESE,007439965,YES,NON-PBT,YES,1,NO,R,Pounds,1,0,0,0,0,0,0,0,0,0,0,0,1,0,0,0,0,0,9,0,0,0,0,0,0,0,1,0,0,0,0,0,0,10,0,19261,0,0,0,19261,0,0,0,0,0,0,0,0,0,0,11,0,0,1,1,9,0,0,0,19261,0,0,19272,0,.7,TRANS-MATIC MANUFACTURING CO,NA
2009,49099LLNDN501SM,DEXTER CHASSIS GROUP PLANT 55,501 S MILLER DR,WHITE PIGEON,ST JOSEPH,MI,490998436,41.79354,-85.65282,,,,,,,336399,,,,,,1309207442068,CERTAIN GLYCOL ETHERS,N230,YES,NON-PBT,NO,0,NO,R,Pounds,0,36530,0,0,0,0,0,0,0,0,0,0,36530,0,0,0,0,0,0,0,0,0,0,0,0,0,0,0,0,0,197,0,0,197,0,0,0,0,0,0,0,0,0,0,0,0,0,0,0,0,36727,0,0,36530,0,197,0,0,0,0,0,0,36727,0,.79,TOMKINS PLC,184101194
2009,48055GNRLM4555G,GM ORION ASSEMBLY CENTER,4555 GIDDINGS RD,ORION,OAKLAND,MI,48359,42.714564,-83.266651,,,,,,,336111,,,,,,1309207402506,LEAD COMPOUNDS,N420,YES,PBT,YES,1,NO,R,Pounds,0,130,0,0,0,0,0,0,0,0,0,0,130,1,0,1,0,0,0,0,0,0,0,0,0,0,0,0,0,0,0,0,0,0,0,0,0,0,0,0,0,0,0,0,0,0,0,0,0,0,131,0,0,130,0,1,0,0,0,0,0,0,131,0,.43,GENERAL MOTORS LLC,831247536
2009,49424CRLTT25001,CORLETT-TURNER CO,2500 104TH AVE,ZEELAND,OTTAWA,MI,49464,42.814047,-86.039695,,,,,,,332721,,,,,,1309207491022,COPPER,007440508,NO,NON-PBT,YES,1,NO,R,Pounds,0,0,0,0,0,0,0,0,0,0,0,0,0,0,0,0,0,0,0,0,0,0,0,0,0,0,0,0,0,0,0,0,0,0,0,7837,0,0,0,7837,0,0,0,0,0,0,0,0,0,0,0,0,0,0,0,0,0,0,0,7837,0,0,7837,0,.18,GA RICHARDS,NA
2009,48849SBWDB7795S,CARBON GREEN BIOENERGY,7795 SADDLEBAG LAKE RD,LAKE ODESSA,BARRY,MI,48849,42.7658,-85.078,,,,,,,325193,,,,,,1309207464621,BENZENE,000071432,YES,NON-PBT,NO,0,YES,A,Pounds,0,0,0,0,0,0,0,0,0,0,0,0,0,0,0,0,0,0,0,0,0,0,0,0,0,0,0,0,0,0,0,0,0,0,0,0,0,0,0,0,0,0,0,0,0,0,0,0,0,0,0,0,0,0,0,0,0,0,0,0,0,0,0,0,0,NA,NA
2009,48185RDSPT550SE,RED SPOT WESTLAND INC,550 S EDWIN ST,WESTLAND,WAYNE,MI,48186,42.303692,-83.411473,,,,,,,325510,,,,,,1309207491263,TOLUENE,000108883,YES,NON-PBT,NO,0,NO,R,Pounds,383,335,0,0,0,0,0,0,0,0,0,0,718,0,0,0,0,0,0,0,0,0,0,0,0,0,0,0,0,0,0,0,0,0,0,0,0,0,2150,2150,3136,0,3136,0,0,0,0,0,0,0,718,0,0,718,0,0,0,3136,0,2150,0,0,6004,0,.47,RED SPOT PAINT & VARNISH CO INC,006369987
2009,49423GRDSM636E4,SHERWIN-WILLIAMS CO,636 E 40TH ST,HOLLAND,ALLEGAN,MI,49423,42.761389,-86.08,,,,,,,325998,,,,,,1309207494535,ETHYLBENZENE,000100414,YES,NON-PBT,NO,0,NO,R,Pounds,64,21,0,0,0,0,0,0,0,0,0,0,85,0,0,0,0,0,0,0,0,0,0,0,0,0,0,0,0,0,0,0,0,0,0,0,0,0,0,0,872,0,872,0,26,0,0,0,0,26,85,0,0,85,0,0,0,872,0,0,0,26,983,0,.66,THE SHERWIN WILLIAMS CO,004206397
2009,49093DYNTR111DA,DAY INTERNATIONAL INC A FLINT GROUP CO,111 DAY DR,THREE RIVERS,ST JOSEPH,MI,49093,41.942254,-85.648962,,,,,,,326299,,,,,,1309207620713,TOLUENE,000108883,YES,NON-PBT,NO,0,NO,R,Pounds,28566,6348,0,0,0,0,0,0,0,0,0,0,34914,0,3.13,3.13,0,0,0,0,0,0,0,0,0,0,0,0,0,0,0,0,0,0,0,0,0,0,0,0,1154.7,0,1154.7,0,0,0,0,0,0,0,34914,0,0,34914,0,0,0,1154.7,2004842,0,0,3.13,2040913.83,0,.7,FLINT GROUP NA CORP,005355854
2009,49464BLMRF83009,SARA LEE FOODS ZEELAND,8300 96TH AVE,ZEELAND,OTTAWA,MI,49464,42.918611,-86.028611,,,,,,,311612,,,,,,1309207502511,NITRATE COMPOUNDS,N511,NO,NON-PBT,NO,0,NO,R,Pounds,0,0,8072,0,0,0,0,0,0,0,0,0,8072,0,0,0,0,0,0,0,0,0,0,0,0,0,0,0,27,0,0,0,0,27,0,0,0,0,0,0,0,0,0,0,0,0,0,0,0,0,8099,0,0,8072,0,32,0,0,0,0,152708,0,160812,0,.97,SARA LEE CORP,005213962
2009,48458FLNTMG6065,MARATHON PETROLEUM CO FLINT MI TERMINAL,G-6065 N DORT HWY,MOUNT MORRIS,GENESEE,MI,48458,43.091785,-83.674583,,,,,,,424710,,,,,,1309207550649,"BENZO(G,H,I)PERYLENE",000191242,YES,PBT,NO,0,YES,R,Pounds,0,0,0,0,0,0,0,0,0,0,0,0,0,0,0,0,0,0,0,0,0,0,0,0,0,0,0,0,0,0,0,0,0,0,0,0,0,0,0,0,0,0,0,0,0,0,0,0,0,0,0,0,0,0,0,0,0,0,0,0,0,0,0,0,1.1,MARATHON OIL CORP,002028801
2009,48091WRRNT21500,CHRYSLER WARREN TRUCK ASSEMBLY PLANT (PART),21500 MOUND RD,WARREN,MACOMB,MI,48091,42.45813,-83.04448,,,,,,,336112,,,,,,1309207589286,ZINC COMPOUNDS,N982,NO,NON-PBT,YES,1,NO,R,Pounds,4,42,0,0,0,0,0,0,0,0,0,0,46,100,0,100,0,880,0,0,0,0,0,0,0,0,12000,0,0,0,422,0,0,13302,0,0,190,0,0,190,0,0,0,0,0,0,0,0,0,0,13448,0,0,46,12000,1402,0,0,0,190,0,0,13638,0,.85,CHRYSLER GROUP LLC,830966904
2009,48218DTRTD1BELA,DETROIT EDISON -RIVER ROUGE POWER PLANT,1 BELANGER PARK DR,RIVER ROUGE,WAYNE,MI,48218,42.27051,-83.12469,,,,,,,221112,,,,,,1309207555297,VANADIUM COMPOUNDS,N770,NO,NON-PBT,YES,1,NO,R,Pounds,0,140,0,0,0,0,0,0,0,0,0,0,140,0,0,0,0,0,0,0,0,0,0,0,0,0,43000,0,0,0,0,0,0,43000,0,0,0,0,0,0,0,0,0,0,0,0,0,0,0,0,43140,0,0,140,43000,0,0,0,0,0,0,0,43140,0,1.09,DTE ENERGY CO,839329158
2009,48446SPRRM261LA,SUPERIOR MATERIALS PLANT 23,261 LAKE NEPPESSING RD,LAPEER,LAPEER,MI,48446,43.039701,-83.36182,,,,,,,327320,,,,,,1309207569120,CHROMIUM COMPOUNDS(EXCEPT CHROMITE ORE MINED IN THE TRANSVAAL REGION),N090,YES,NON-PBT,YES,1,NO,R,Pounds,0,0,0,0,0,0,0,0,0,0,0,0,0,0,0,0,0,0,0,0,0,0,0,0,0,0,0,0,0,0,0,0,0,0,0,0,0,0,0,0,0,0,0,0,0,0,0,0,0,0,0,0,0,0,0,0,0,0,0,0,0,0,0,0,,SUPERIOR MATERIALS,NA
2009,49858NRTHR7056T,NORTHERN COATINGS & CHEMICAL CO INC,705 6TH AVE,MENOMINEE,MENOMINEE,MI,498583162,45.10416,-87.610892,,,,,,,325510,,,,,,1309207570843,XYLENE (MIXED ISOMERS),001330207,YES,NON-PBT,NO,0,NO,R,Pounds,170,560,0,0,0,0,0,0,0,0,0,0,730,0,0,0,0,0,0,0,0,0,0,0,0,0,0,0,0,0,0,0,0,0,0,0,0,0,0,0,5200,0,5200,0,0,0,0,0,0,0,730,0,0,730,0,0,0,5200,0,0,0,0,5930,0,.71,NA,NA
2009,48077STRLN38111,CHRYSLER STERLING HEIGHTS ASSEMBLY PLANT (PART),38111 VAN DYKE,STERLING HEIGHTS,MACOMB,MI,48312,42.573617,-83.030198,,,,,,,336111,,,,,,1309207555412,"1,2,4-TRIMETHYLBENZENE",000095636,NO,NON-PBT,NO,0,NO,R,Pounds,630,5500,0,0,0,0,0,0,0,0,0,0,6130,0,0,0,0,0,0,0,0,0,0,0,0,0,0,0,0,0,0,0,0,0,1900,0,0,0,0,1900,650,0,650,0,0,0,0,0,0,0,6130,0,0,6100,0,0,0,650,0,1900,0,0,8650,0,.36,CHRYSLER GROUP LLC,830966904
2009,49068TCMCR1511G,AUTOCAM CORP MARSHALL,1511 GEORGE BROWN DR,MARSHALL,CALHOUN,MI,49068,42.246816,-84.95663,,,,,,,332721,,,,,,1309207532159,CHROMIUM COMPOUNDS(EXCEPT CHROMITE ORE MINED IN THE TRANSVAAL REGION),N090,YES,NON-PBT,YES,1,NO,R,Pounds,0,0,0,0,0,0,0,0,0,0,0,0,0,0,0,0,0,0,0,0,0,0,0,0,0,0,0,0,0,0,0,0,0,0,0,136540,0,0,0,136540,0,0,0,0,0,0,0,0,0,0,0,0,0,0,0,0,0,0,0,136540,0,0,136540,0,.92,MICRON HOLDINGS INC,NA
2009,4864WNNTCC391SS,INENTEC CHEMICAL MIDLAND LLC,3901 S SAGINAW RD BLD 2515,MIDLAND,MIDLAND,MI,48640,43.590691,-84.207819,,,,,,,562998,,,,,,1309207576063,XYLENE (MIXED ISOMERS),001330207,YES,NON-PBT,NO,0,NO,A,Pounds,0,0,0,0,0,0,0,0,0,0,0,0,0,0,0,0,0,0,0,0,0,0,0,0,0,0,0,0,0,0,0,0,0,0,0,0,0,0,0,0,0,0,0,0,0,0,0,0,0,0,0,0,0,0,0,0,0,0,0,0,0,0,0,0,0,INENTEC CHEMICAL LLC,830975301
2009,48288TRDRV3675E,MT ELLIOTT TOOL & DIE MANUFACTURING,3675 E OUTER DR,DETROIT,WAYNE,MI,48234,42.440983,-83.04028,,,,,,,333513,,,,,,1309207559966,NITRATE COMPOUNDS,N511,NO,NON-PBT,NO,0,NO,R,Pounds,0,0,0,0,0,0,0,0,0,0,0,0,0,0,0,0,0,0,0,0,0,0,0,0,0,0,0,0,0,0,0,0,0,0,0,0,0,0,0,0,0,0,0,0,0,0,0,0,0,0,0,0,0,0,0,0,0,0,0,0,0,0,0,0,.57,CHRYSLER GROUP LLC,001344928
2009,48060SPRRM13NRA,SUPERIOR MATERIALS PLANT 25,1300 N RANGE RD,PORT HURON,ST CLAIR,MI,48060,42.944323,-82.501606,,,,,,,327320,,,,,,1309207558596,NITRATE COMPOUNDS,N511,NO,NON-PBT,NO,0,NO,R,Pounds,0,0,0,0,0,0,0,0,0,0,0,0,0,0,0,0,0,0,0,0,0,0,0,0,0,0,0,0,0,0,0,0,0,0,0,0,0,0,0,0,0,0,0,0,0,0,0,0,0,0,0,0,0,0,0,0,0,0,0,0,0,0,0,0,,SUPERIOR MATERIALS,NA
2009,48211SLCTY1923F,EQ DETROIT INC,1923 FREDERICK,DETROIT,WAYNE,MI,48211,42.36581,-83.04803,,,,,,,562211,562998,562219,,,,1309207567569,BENZENE,000071432,YES,NON-PBT,NO,0,YES,R,Pounds,0,11,0,0,0,0,0,0,0,0,0,0,11,0,0,0,0,0,0,0,0,0,0,0,0,0,64,5,0,0,0,0,488,557,0,0,0,0,0,0,15143,0,15143,0,0,0,0,0,0,0,568,0,0,11,69,488,0,15143,0,0,0,0,15711,0,.75,EQ HOLDING CO,022528553
2009,4902WFMCRP1716V,FEMA CORP OF MICHIGAN INC,1716 VANDERBILT AVE,PORTAGE,KALAMAZOO,MI,49024,42.182878,-85.609245,,,,,,,332912,334419,,,,,1309207574082,LEAD,007439921,YES,PBT,YES,1,YES,R,Pounds,0,0,0,0,0,0,0,0,0,0,0,0,0,0,0,0,0,0,0,0,0,0,0,0,0,0,0,0,0,0,0,0,313,313,0,0,0,0,0,0,0,0,0,0,0,0,0,0,0,0,313,0,0,0,0,313,0,0,0,0,0,0,313,0,,NA,NA
2009,48847PLSTR1300S,BARRY CONTROLS,1300 S COUNTY FARM DR,ITHACA,GRATIOT,MI,48847,43.275169,-84.608208,,,,,,,336399,,,,,,1309207541626,ZINC COMPOUNDS,N982,NO,NON-PBT,YES,1,NO,R,Pounds,0,11,0,0,0,0,0,0,0,0,0,0,11,1,0,1,0,10,0,0,0,0,0,0,0,0,1044,0,0,0,0,0,0,1054,0,0,0,0,4539,4539,0,0,0,0,0,0,0,0,0,0,1066,0,0,11,1045,10,0,0,0,4539,0,0,5605,0,.6,BARRY CONTROLS,001023704
2009,48121FRDM23001M,FORD MOTOR CO DEARBORN TRUCK PLANT,3001 MILLER RD,DEARBORN,WAYNE,MI,48121,42.30982,-83.15734,,,,,,,336112,,,,,,1309207504515,ETHYLENE GLYCOL,000107211,YES,NON-PBT,NO,0,NO,R,Pounds,0,0,0,0,0,0,0,0,0,0,0,0,0,0,4300,4300,0,0,0,0,0,0,0,0,0,0,0,0,0,0,0,0,0,0,5300,0,0,0,0,5300,0,0,0,0,0,0,0,0,0,0,0,0,0,0,0,0,0,0,0,5300,0,4300,9600,0,1.3,FORD MOTOR CO,001344746
2009,48121FRDM23001M,FORD MOTOR CO DEARBORN TRUCK PLANT,3001 MILLER RD,DEARBORN,WAYNE,MI,48121,42.30982,-83.15734,,,,,,,336112,,,,,,1309207504592,NITRATE COMPOUNDS,N511,NO,NON-PBT,NO,0,NO,R,Pounds,0,0,0,0,0,0,0,0,0,0,0,0,0,0,120000,120000,0,0,0,0,0,0,0,0,0,0,1,0,0,0,0,0,0,1,0,0,0,0,0,0,0,0,0,0,0,0,0,0,0,0,1,0,0,0,1,0,0,0,0,0,0,120000,120001,0,1.3,FORD MOTOR CO,001344746
2009,48215CHRYL2101C,CHRYSLER JEFFERSON NORTH ASSEMBLY PLANT,2101 CONNOR AVE,DETROIT,WAYNE,MI,48215,42.37369,-82.9613,,,,,,,336111,,,,,,1309207572520,METHYL ISOBUTYL KETONE,000108101,YES,NON-PBT,NO,0,NO,R,Pounds,100,780,0,0,0,0,0,0,0,0,0,0,880,0,0,0,0,0,0,0,0,0,0,0,0,0,0,0,0,0,0,0,0,0,16100,0,0,0,0,16100,0,0,0,0,0,0,0,0,0,0,880,0,0,880,0,0,0,54,0,16000,1900,0,18834,0,.68,CHRYSLER GROUP LLC,830966904
2009,48215CHRYL2101C,CHRYSLER JEFFERSON NORTH ASSEMBLY PLANT,2101 CONNOR AVE,DETROIT,WAYNE,MI,48215,42.37369,-82.9613,,,,,,,336111,,,,,,1309207572571,NITRATE COMPOUNDS,N511,NO,NON-PBT,NO,0,NO,R,Pounds,0,0,0,0,0,0,0,0,0,0,0,0,0,0,8600,8600,0,0,0,0,0,0,0,0,0,0,8,0,0,0,0,0,0,8,0,0,0,0,0,0,0,0,0,0,0,0,0,0,0,0,8,0,0,0,8,0,0,0,0,0,0,8600,8608,0,.68,CHRYSLER GROUP LLC,830966904
2009,48601GMCSG3900H,NEXTEER AUTOMOTIVE CORP,3900 HOLLAND RD,SAGINAW,SAGINAW,MI,486019494,43.414645,-83.879528,,,,,,,336330,336350,,,,,1309207588308,CHROMIUM,007440473,YES,NON-PBT,YES,1,YES,R,Pounds,0,151,0,0,0,0,0,0,0,0,0,0,151,15,0,15,0,0,1606,0,0,0,0,0,0,0,1289,0,0,0,0,0,0,2895,0,0,0,0,0,0,0,0,0,0,0,0,0,0,0,0,3061,0,0,151,1289,1621,0,0,0,0,0,0,3061,0,.67,BEIJING E-TOWN INTERNATIONAL INVESTMENT & DEVELOPMENT CORP,421265581
2009,48211DYNCL6520G,DYNECOL INC,6520 GEORGIA ST,DETROIT,WAYNE,MI,48211,42.393498,-83.033716,,,,,,,562211,,,,,,1309207591417,NICKEL COMPOUNDS,N495,YES,NON-PBT,YES,1,NO,R,Pounds,0,0,0,0,0,0,0,0,0,0,0,0,0,5,0,5,0,0,0,0,0,0,0,0,0,0,7224,65014,0,0,0,0,0,72238,0,0,0,0,0,0,0,0,0,0,0,0,0,0,0,0,72243,0,0,0,72238,5,0,0,0,0,0,0,72243,0,,PVS CHEMICALS INC,006530273
2009,48906LNSNG6300G,MARATHON PETROLEUM CO LANSING MI TERMINAL,6300 W GRAND RIVER AVE,LANSING,CLINTON,MI,48906,42.78078,-84.64839,,,,,,,424710,,,,,,1309207594490,BENZENE,000071432,YES,NON-PBT,NO,0,YES,R,Pounds,160,290,0,0,0,0,0,0,0,0,0,0,450,0,0,0,0,0,0,0,0,0,0,0,0,0,0,0,0,0,0,0,0,0,0,0,0,0,0,0,5,0,5,0,0,0,0,0,0,0,450,0,0,450,0,0,0,5,0,0,0,0,455,0,1.01,MARATHON OIL CORP,002028801
2009,48906LNSNG6300G,MARATHON PETROLEUM CO LANSING MI TERMINAL,6300 W GRAND RIVER AVE,LANSING,CLINTON,MI,48906,42.78078,-84.64839,,,,,,,424710,,,,,,1309207594577,XYLENE (MIXED ISOMERS),001330207,YES,NON-PBT,NO,0,NO,R,Pounds,87,170,0,0,0,0,0,0,0,0,0,0,257,0,0,0,0,0,0,0,0,0,0,0,0,0,1,0,0,0,0,0,0,1,0,0,0,0,0,0,4,0,4,0,0,0,0,0,0,0,258,0,0,257,1,0,0,4,0,0,0,0,262,0,1.01,MARATHON OIL CORP,002028801
2009,48854SFTYK700ZI,SAFETY-KLEEN SYSTEMS (401001),700 ZIMMERMAN RD,MASON,INGHAM,MI,48854,42.58947,-84.45325,,,,,,,562112,484220,484230,,,,1309207554181,ETHYLENE GLYCOL,000107211,YES,NON-PBT,NO,0,NO,R,Pounds,12,6,0,0,0,0,0,0,0,0,0,0,18,0,0,0,0,0,0,0,0,0,0,0,0,0,0,0,0,0,0,0,0,0,0,0,223976,0,0,223976,0,0,0,0,0,0,0,0,0,0,18,0,0,18,0,0,0,0,0,223975.8,0,0,223993.8,0,1,SAFETY-KLEEN HOLDCO INC,053976551
2009,48215CHRYL2101C,CHRYSLER JEFFERSON NORTH ASSEMBLY PLANT,2101 CONNOR AVE,DETROIT,WAYNE,MI,48215,42.37369,-82.9613,,,,,,,336111,,,,,,1309207572583,SODIUM NITRITE,007632000,NO,NON-PBT,YES,2,NO,R,Pounds,0,4,0,0,0,0,0,0,0,0,0,0,4,0,0,0,0,0,0,0,0,0,0,0,0,0,1,0,0,0,0,0,0,1,0,0,0,0,0,0,0,0,0,0,0,0,0,0,0,0,5,0,0,4,1,0,0,0,0,0,4600,0,4605,0,.68,CHRYSLER GROUP LLC,830966904
2009,48078FRDMT41111,FORD VAN DYKE PLANT,41111 VAN DYKE AVE,STERLING HEIGHTS,MACOMB,MI,48314,42.595492,-83.030909,,,,,,,336350,,,,,,1309207564737,LEAD,007439921,YES,PBT,YES,1,YES,R,Pounds,0,0,0,0,0,0,0,0,0,0,0,0,0,18,0,18,0,0,0,0,0,0,0,0,0,0,68,0,0,0,0,0,0,68,0,2615,0,0,0,2615,0,0,0,0,0,0,0,0,0,0,86,0,0,0,68,18,0,0,0,2600,0,0,2686,0,1.26,FORD MOTOR CO,001344746
2009,48211SLCTY1923F,EQ DETROIT INC,1923 FREDERICK,DETROIT,WAYNE,MI,48211,42.36581,-83.04803,,,,,,,562211,562998,562219,,,,1309207567710,N-METHYL-2-PYRROLIDONE,000872504,NO,NON-PBT,NO,0,NO,R,Pounds,0,1889,0,0,0,0,0,0,0,0,0,0,1889,0,0,0,0,0,0,0,0,0,0,0,0,0,35900,0,0,0,0,0,509,36409,0,0,0,0,0,0,16465,0,16465,0,0,0,0,0,0,0,38298,0,0,1889,35900,509,0,16465,0,0,0,0,54763,0,.42,EQ HOLDING CO,022528553
2009,48211SLCTY1923F,EQ DETROIT INC,1923 FREDERICK,DETROIT,WAYNE,MI,48211,42.36581,-83.04803,,,,,,,562211,562998,562219,,,,1309207567773,POLYCHLORINATED BIPHENYLS,001336363,YES,PBT,NO,0,YES,R,Pounds,0,.89,0,0,0,0,0,0,0,0,0,0,.89,0,0,0,0,0,0,0,0,0,0,0,0,0,83.04,0,0,0,0,0,0,83.04,0,0,0,0,0,0,0,0,0,0,0,0,0,0,0,0,83.93,0,0,.89,83.04,0,0,0,0,0,0,0,83.93,0,1.72,EQ HOLDING CO,022528553
2009,48121FRDM23001M,FORD MOTOR CO DEARBORN TRUCK PLANT,3001 MILLER RD,DEARBORN,WAYNE,MI,48121,42.30982,-83.15734,,,,,,,336112,,,,,,1309207504655,ZINC COMPOUNDS,N982,NO,NON-PBT,YES,1,NO,R,Pounds,8,21,0,0,0,0,0,0,0,0,0,0,29,270,0,270,0,0,0,0,0,0,0,0,0,0,17055,0,0,0,0,0,0,17055,0,0,0,0,0,0,0,0,0,0,0,0,0,0,0,0,17354,0,0,29,17000,270,0,0,0,0,0,0,17299,0,1.3,FORD MOTOR CO,001344746
2009,48601GMCSG3900H,NEXTEER AUTOMOTIVE CORP,3900 HOLLAND RD,SAGINAW,SAGINAW,MI,486019494,43.414645,-83.879528,,,,,,,336330,336350,,,,,1309207588361,NITRATE COMPOUNDS,N511,NO,NON-PBT,NO,0,NO,R,Pounds,0,0,0,0,0,0,0,0,0,0,0,0,0,0,23491,23491,0,0,0,0,0,0,0,0,0,0,0,0,0,0,0,0,0,0,0,0,0,0,0,0,0,0,0,0,0,0,2468,0,0,2468,0,0,0,0,0,0,0,0,0,0,0,25959,25959,0,.67,BEIJING E-TOWN INTERNATIONAL INVESTMENT & DEVELOPMENT CORP,421265581
2009,48174KRRMN28200,KERR CORP,28200 WICK RD,ROMULUS,WAYNE,MI,48174,42.239176,-83.316137,,,,,,,339114,,,,,,1309207591708,ZINC COMPOUNDS,N982,NO,NON-PBT,YES,1,NO,R,Pounds,0,0,0,0,0,0,0,0,0,0,0,0,0,0,0,0,0,3360,0,0,0,0,0,0,0,0,0,0,0,0,0,0,0,3360,0,0,0,0,0,0,0,0,0,0,0,0,0,0,0,0,3360,0,0,0,0,3360,0,0,0,0,0,0,3360,0,.73,SYBRON DENTAL SPECIALTIES INC,809722689
2009,49120MRTHN2216S,MARATHON PETROLEUM CO NILES MI TERMINAL,2216 S THIRD ST,NILES,BERRIEN,MI,491204010,41.798347,-86.254565,,,,,,,424710,,,,,,1309207551413,POLYCYCLIC AROMATIC COMPOUNDS,N590,YES,PBT,NO,0,YES,R,Pounds,0,0,0,0,0,0,0,0,0,0,0,0,0,0,0,0,0,0,0,0,0,0,0,0,0,0,0,0,0,0,0,0,0,0,0,0,0,0,0,0,3.8,0,3.8,0,0,0,0,0,0,0,0,0,0,0,0,0,0,3.8,0,0,0,0,3.8,0,1,MARATHON OIL CORP,002028801
2009,48917GNRLM85REL,GENERAL MOTORS LANSING DELTA TOWNSHIP,8175 MILLETT HWY,LANSING,EATON,MI,48917,42.697549,-84.671033,,,,,,,336111,336370,,,,,1309207564980,ETHYLBENZENE,000100414,YES,NON-PBT,NO,0,NO,R,Pounds,14,51,0,0,0,0,0,0,0,0,0,0,65,0,0,0,0,0,0,0,0,0,0,0,0,0,0,0,0,0,0,0,0,0,0,0,0,0,980,980,58,0,58,0,0,0,0,0,0,0,65,0,0,65,0,0,0,58,0,980,360,0,1463,0,.53,GENERAL MOTORS LLC,831247536
2009,48054DTRTD4505K,DETROIT EDISON BELLE RIVER POWER PLANT (PART),4505 KING RD,CHINA TOWNSHIP,ST CLAIR,MI,48054,42.772523,-82.512273,,,,,,,221112,,,,,,1309207538467,COPPER COMPOUNDS,N100,NO,NON-PBT,YES,1,NO,R,Pounds,0,170,49,0,0,0,50000,0,0,0,0,0,50219,0,0,0,0,0,0,0,0,0,0,0,0,0,0,0,0,0,0,0,0,0,0,0,0,0,0,0,0,0,0,0,0,0,0,0,0,0,50219,0,50000,220,0,0,0,0,0,0,0,0,50220,0,1.17,DTE ENERGY CO,839329158
2009,48220GGPRD625WA,GAGE PRODUCTS CO,625 WANDA AVE,FERNDALE,OAKLAND,MI,48220,42.451389,-83.11472,,,,,,,325510,,,,,,1309207509427,LEAD COMPOUNDS,N420,YES,PBT,YES,1,NO,R,Pounds,0,0,0,0,0,0,0,0,0,0,0,0,0,0,0,0,0,0,0,0,0,0,0,0,0,0,0,0,0,0,305,177,0,482,0,0,0,0,0,0,0,0,0,0,0,0,0,0,0,0,482,0,0,0,0,482,0,0,0,0,0,0,482,0,.9,NA,NA
2009,49707SRFRC5884A,US DOD USAF MICHIGAN ANG CRTC ALPENA RANGE,5884 A ST,ALPENA,ALPENA,MI,497078125,45.046111,-83.455946,,,,,,,928110,,,,,,1309207591785,LEAD,007439921,YES,PBT,YES,1,YES,R,Pounds,0,0,0,0,0,0,0,0,0,0,0,0,0,0,0,0,0,0,0,0,0,0,0,0,0,0,0,0,0,0,0,0,0,0,0,1065,0,0,0,1065,0,0,0,0,0,0,0,0,0,0,0,0,0,0,0,0,0,0,0,1065,0,0,1065,0,3.15,US DEPARTMENT OF DEFENSE,NA
2009,48183MNSNT5045W,SOLUTIA INC,5045 W JEFFERSON AVE,TRENTON,WAYNE,MI,48183,42.119404,-83.189214,,,,,,,325211,325199,326113,,,,1309207589957,AMMONIA,007664417,NO,NON-PBT,NO,0,NO,R,Pounds,0,0,0,0,0,0,0,0,0,0,0,0,0,0,2500,2500,0,0,0,0,0,0,0,0,0,0,0,0,0,0,0,0,0,0,0,0,0,0,0,0,0,0,0,0,0,0,0,0,0,0,0,0,0,0,0,0,0,0,0,0,0,2500,2500,0,.95,SOLUTIA INC,NA
2009,48842PRKRH1355S,PARKER HANNIFIN CORP,1355 N CEDAR RD,MASON,INGHAM,MI,48854,42.62206,-84.50051,,,,,,,332912,,,,,,1309207550118,LEAD,007439921,YES,PBT,YES,1,YES,R,Pounds,0,0,0,0,0,0,0,0,0,0,0,0,0,0,0,0,0,0,0,0,0,0,0,0,0,0,0,0,0,0,0,0,0,0,0,14383,15,0,0,14398,0,0,0,0,0,0,0,0,0,0,0,0,0,0,0,0,0,0,0,14398,0,0,14398,0,.7,PARKER HANNIFIN CORP,004175550
2009,49016WLDRF177AN,ROCK-TENN CO,177 ANGELL ST,BATTLE CREEK,CALHOUN,MI,490378274,42.323576,-85.207351,,,,,,,322130,,,,,,1309207551591,LEAD,007439921,YES,PBT,YES,1,YES,R,Pounds,0,2.5,0,0,0,0,0,0,0,0,0,0,2.5,.63,0,.63,0,0,0,0,0,0,0,0,0,0,.52,0,0,0,0,0,0,.52,0,0,0,0,0,0,0,0,0,0,0,0,0,0,0,0,3.65,0,0,2.5,.52,.63,0,0,0,0,0,0,3.65,0,.99,ROCK-TENN CO,003289725
2009,48077STRLN35777,CHRYSLER GROUP LLC STERLING STAMPING PLANT (PART),35777 VAN DYKE,STERLING HEIGHTS,MACOMB,MI,48312,42.55601,-83.0294,,,,,,,336370,,,,,,1309207557683,ZINC COMPOUNDS,N982,NO,NON-PBT,YES,1,NO,R,Pounds,2,5,0,0,0,0,0,0,0,0,0,0,7,0,0,0,0,0,0,0,0,0,0,0,0,0,340,0,0,0,0,1,0,341,0,0,0,0,0,0,0,0,0,0,0,0,0,0,0,0,348,0,0,7,340,1,0,0,0,0,0,0,348,0,.57,CHRYSLER GROUP LLC,830966904
2009,48174RMLSR28000,MARATHON PETROLEUM CO ROMULUS MI TERMINAL,28001 CITRON DR,ROMULUS,WAYNE,MI,48174,42.245659,-83.308248,,,,,,,424710,,,,,,1309207566670,"1,2,4-TRIMETHYLBENZENE",000095636,NO,NON-PBT,NO,0,NO,R,Pounds,0,0,0,0,0,0,0,0,0,0,0,0,0,0,0,0,0,0,0,0,0,0,0,0,0,0,0,0,0,0,0,0,0,0,0,0,0,0,0,0,1,0,1,0,0,0,0,0,0,0,0,0,0,0,0,0,0,1,0,0,0,0,1,0,.71,MARATHON OIL CORP,002028801
2009,48917GNRLM85REL,GENERAL MOTORS LANSING DELTA TOWNSHIP,8175 MILLETT HWY,LANSING,EATON,MI,48917,42.697549,-84.671033,,,,,,,336111,336370,,,,,1309207565060,SODIUM NITRITE,007632000,NO,NON-PBT,YES,2,NO,R,Pounds,0,0,0,0,0,0,0,0,0,0,0,0,0,0,0,0,0,0,0,0,0,0,0,0,0,0,0,0,0,0,0,0,0,0,0,0,0,0,0,0,0,0,0,0,0,0,0,0,0,0,0,0,0,0,0,0,0,0,0,0,30000,0,30000,0,.53,GENERAL MOTORS LLC,831247536
2009,48921GMCGL920TO,GMVM-LANSING GRAND RIVER ASSEMBLY,920 TOWNSEND ST MAIL CODE: 489-066-600,LANSING,INGHAM,MI,48921,42.724183,-84.55559,,,,,,,336111,336112,,,,,1309207565161,N-BUTYL ALCOHOL,000071363,NO,NON-PBT,NO,0,NO,R,Pounds,12000,17000,0,0,0,0,0,0,0,0,0,0,29000,0,0,0,0,0,0,0,0,0,0,0,0,0,0,0,0,0,0,0,0,0,0,0,0,0,6500,6500,1670,0,1670,0,0,0,0,0,0,0,29000,0,0,29000,0,0,0,1700,0,6500,8600,0,45800,0,.33,GENERAL MOTORS LLC,831247536
2009,48220GGPRD625WA,GAGE PRODUCTS CO,625 WANDA AVE,FERNDALE,OAKLAND,MI,48220,42.451389,-83.11472,,,,,,,325510,,,,,,1309207509504,XYLENE (MIXED ISOMERS),001330207,YES,NON-PBT,NO,0,NO,R,Pounds,76,1755,0,0,0,0,0,0,0,0,0,0,1831,0,15,15,0,0,0,0,0,0,0,0,0,0,0,0,0,0,0,0,0,0,0,0,0,0,0,0,700498,413253,1113751,0,0,0,0,0,0,0,1831,0,0,1831,0,0,0,1113751,3982267,0,0,15,5097864,0,.9,NA,NA
2009,49461HWMTC555BE,HOWMET CORP PLANT 4,555 BENSTON RD,WHITEHALL,MUSKEGON,MI,49461,43.392817,-86.343972,,,,,,,332812,331492,,,,,1309207528340,CHROMIUM,007440473,YES,NON-PBT,YES,1,YES,R,Pounds,4,4,0,0,0,0,0,0,0,0,0,0,8,7,0,7,0,332,0,0,0,0,0,0,0,0,100,0,0,0,0,0,0,432,0,0,65280,0,5,65285,0,0,0,0,0,0,0,0,0,0,447,0,0,8,107,332,0,0,0,65285,0,0,65732,0,.89,ALCOA INC,001339472
2009,49445NRTHM3005H,MARATHON PETROLEUM CO NORTH MUSKEGON MI TERMINAL,3005 HOLTON RD,NORTH MUSKEGON,MUSKEGON,MI,494452513,43.309605,-86.184811,,,,,,,424710,,,,,,1309207566807,LEAD COMPOUNDS,N420,YES,PBT,YES,1,NO,R,Pounds,0,0,0,0,0,0,0,0,0,0,0,0,0,0,0,0,0,0,0,0,0,0,0,0,0,0,.8,0,0,0,0,.3,0,1.1,0,0,0,0,0,0,0,0,0,0,0,0,0,0,0,0,1.1,0,0,0,.8,.3,0,0,0,0,0,0,1.1,0,.99,MARATHON OIL CORP,002028801
2009,48079KZSLT916SO,CARGILL SALT SAINT CLAIR,916 S RIVERSIDE AVE,SAINT CLAIR,ST CLAIR,MI,48079,42.819293,-82.486594,,,,,,,311942,325998,,,,,1309207570134,LEAD COMPOUNDS,N420,YES,PBT,YES,1,NO,R,Pounds,0,548.92,0,0,0,0,0,0,0,0,0,0,548.92,0,0,0,0,0,0,0,0,0,0,0,0,0,243.93,0,0,0,0,0,0,243.93,0,0,0,0,0,0,0,0,0,0,0,0,0,0,0,0,792.85,0,0,548.92,243.93,0,0,0,0,0,0,0,792.85,0,1,CARGILL INC,006249189
2009,48551GMCTRG3100,GM LLC POWERTRAIN FLINT ENGINE OPERATIONS,2100 BRISTOL RD,FLINT,GENESEE,MI,48551,42.98526,-83.7192,,,,,,,336370,,,,,,1309207584208,LEAD,007439921,YES,PBT,YES,1,YES,R,Pounds,0,.1,0,0,0,0,0,0,0,0,0,0,.1,.17,0,.17,0,0,0,0,0,0,0,0,0,0,0,0,0,0,0,0,0,0,0,0,0,0,0,0,0,0,0,0,0,0,0,0,0,0,.27,0,0,.1,0,.17,0,0,0,0,0,0,.27,0,1,GENERAL MOTORS LLC,831247536
2009,48047NTRNT37087,INTERNATIONAL CASTING CORP,37087 GREEN ST,NEW BALTIMORE,MACOMB,MI,48047,42.68605,-82.729627,,,,,,,331513,,,,,,1309207581707,DIISOCYANATES,N120,YES,NON-PBT,NO,0,NO,A,Pounds,0,0,0,0,0,0,0,0,0,0,0,0,0,0,0,0,0,0,0,0,0,0,0,0,0,0,0,0,0,0,0,0,0,0,0,0,0,0,0,0,0,0,0,0,0,0,0,0,0,0,0,0,0,0,0,0,0,0,0,0,0,0,0,0,0,NA,NA
2009,49512TCMCR4070E,AUTOCAM CORP KENTWOOD,4070 E PARIS AVE SE,KENTWOOD,KENT,MI,49512,42.890307,-85.567327,,,,,,,332721,,,,,,1309207532995,MANGANESE COMPOUNDS,N450,YES,NON-PBT,YES,1,NO,R,Pounds,0,0,0,0,0,0,0,0,0,0,0,0,0,0,0,0,0,0,0,0,0,0,0,0,0,0,0,0,0,0,0,0,0,0,0,50545,0,0,0,50545,0,0,0,0,0,0,0,0,0,0,0,0,0,0,0,0,0,0,0,50545,0,0,50545,0,.55,MICRON HOLDINGS INC,NA
2009,49601CDLLC603WE,AVON AUTOMOTIVE PLANT 1,603 W 7TH ST,CADILLAC,WEXFORD,MI,49601,44.26082,-85.416615,,,,,,,326220,,,,,,1309207582533,ANTIMONY COMPOUNDS,N010,YES,NON-PBT,YES,1,NO,R,Pounds,0,.86,0,0,0,0,0,0,0,0,0,0,.86,0,0,0,0,0,0,0,0,0,0,0,0,0,0,0,0,0,0,0,0,0,0,0,0,0,0,0,0,0,0,0,0,0,0,0,0,0,.86,0,0,.86,0,0,0,0,0,0,0,0,.86,0,.71,NA,NA
2009,49601CDLLC603WE,AVON AUTOMOTIVE PLANT 1,603 W 7TH ST,CADILLAC,WEXFORD,MI,49601,44.26082,-85.416615,,,,,,,326220,,,,,,1309207582584,THIRAM,000137268,NO,NON-PBT,NO,0,NO,R,Pounds,0,13.48,0,0,0,0,0,0,0,0,0,0,13.48,0,.27,.27,0,0,0,0,0,0,0,0,0,0,0,0,0,0,0,0,0,0,0,0,0,0,0,0,0,0,0,0,0,0,0,0,0,0,13.48,0,0,13.48,0,0,0,0,0,0,0,.27,13.75,0,.71,NA,NA
2009,48183DTRTD4695W,DETROIT EDISON CO TRENTON CHANNEL POWER PLANT,4695 W JEFFERSON AVE,TRENTON,WAYNE,MI,48183,42.1225,-83.181111,,,,,,,221112,,,,,,1309207554902,COPPER COMPOUNDS,N100,NO,NON-PBT,YES,1,NO,R,Pounds,0,250,0,0,0,0,0,0,0,0,0,0,250,0,0,0,0,0,0,0,0,0,0,0,0,0,42000,0,0,0,0,0,0,42000,0,0,0,0,0,0,0,0,0,0,0,0,0,0,0,0,42250,0,0,250,42000,0,0,0,0,0,0,0,42250,0,.87,DTE ENERGY CO,839329158
2009,48912BLDRS1384L,BUILDERS READY MIX PLANT 14,1384 LAKE LANSING RD,LANSING,INGHAM,MI,48912,42.75906,-84.53277,,,,,,,327320,,,,,,1309207571997,CHROMIUM COMPOUNDS(EXCEPT CHROMITE ORE MINED IN THE TRANSVAAL REGION),N090,YES,NON-PBT,YES,1,NO,R,Pounds,0,0,0,0,0,0,0,0,0,0,0,0,0,0,0,0,0,0,0,0,0,0,0,0,0,0,0,0,0,0,0,0,0,0,0,0,0,0,0,0,0,0,0,0,0,0,0,0,0,0,0,0,0,0,0,0,0,0,0,0,0,0,0,0,,NA,NA
2009,48197FRDMTMCKEA,FORD MOTOR CO RAWSONVILLE PLANT,10300 TEXTILE RD,YPSILANTI,WASHTENAW,MI,48197,42.200294,-83.552669,,,,,,,336312,336322,,,,,1309207572037,LEAD,007439921,YES,PBT,YES,1,YES,R,Pounds,0,25,0,0,0,0,0,0,0,0,0,0,25,5.4,0,5.4,0,.5,0,0,0,0,0,0,0,0,0,0,0,0,0,0,0,.5,0,64,0,0,0,64,0,0,0,0,0,0,0,0,0,0,30.9,0,0,25,0,5.9,0,0,0,64,0,0,94.9,0,.65,FORD MOTOR CO,001344746
2009,48551GMCTRG3100,GM LLC POWERTRAIN FLINT ENGINE OPERATIONS,2100 BRISTOL RD,FLINT,GENESEE,MI,48551,42.98526,-83.7192,,,,,,,336370,,,,,,1309207584309,ZINC COMPOUNDS,N982,NO,NON-PBT,YES,1,NO,R,Pounds,15,1,0,0,0,0,0,0,0,0,0,0,16,2,0,2,0,0,0,0,0,0,0,0,0,0,0,0,0,0,22,0,0,22,0,0,0,0,50,50,0,0,0,0,0,0,0,0,0,0,40,0,0,16,0,24,0,0,0,50,0,0,90,0,1,GENERAL MOTORS LLC,831247536
2009,49456LMNDP17151,ALMOND PRODUCTS INC,17150  148TH ST,SPRING LAKE,OTTAWA,MI,49456,43.08074,-86.155955,,,,,,,332812,,,,,,1309207640576,TOLUENE,000108883,YES,NON-PBT,NO,0,NO,R,Pounds,503,10053,0,0,0,0,0,0,0,0,0,0,10556,0,0,0,0,0,0,0,0,0,0,0,0,0,0,0,0,0,0,0,0,0,0,0,0,0,0,0,3303,0,3303,0,0,0,0,0,0,0,10556,0,0,10556,0,0,0,3303,0,0,0,0,13859,0,1,NA,NA
2009,48217MRTHN1300S,MARATHON PETROLEUM CO LP MICHIGAN REFINING DIV,1300 S FORT ST HES DEPT,DETROIT,WAYNE,MI,48217,42.280556,-83.152778,,,,,,,324110,,,,,,1309207607033,CYCLOHEXANE,000110827,NO,NON-PBT,NO,0,NO,R,Pounds,3160,307,0,0,0,0,0,0,0,0,0,0,3467,0,93,93,0,0,0,0,0,0,0,0,0,0,0,0,0,0,0,0,0,0,0,0,0,0,0,0,0,0,0,4,0,0,0,0,0,4,3467,0,0,3467,0,0,0,0,3158,0,0,93,6718,4,1.03,MARATHON OIL CORP,002028801
2009,48217MRTHN1300S,MARATHON PETROLEUM CO LP MICHIGAN REFINING DIV,1300 S FORT ST HES DEPT,DETROIT,WAYNE,MI,48217,42.280556,-83.152778,,,,,,,324110,,,,,,1309207607108,LEAD COMPOUNDS,N420,YES,PBT,YES,1,NO,R,Pounds,0,6.8,0,0,0,0,0,0,0,0,0,0,6.8,91.6,0,91.6,0,5.8,0,0,52.2,0,0,0,0,0,1869.2,0,0,0,0,3033.2,29.3,4989.7,0,911.8,0,0,0,911.8,0,0,0,0,0,0,0,0,0,0,5088.1,0,0,6.8,1921.4,3159.9,0,0,0,911.8,0,0,5999.9,0,1.03,MARATHON OIL CORP,002028801
2009,48183MRTHN24400,MARATHON ASHLAND PIPELINE LLC  WOODHAVEN TERMINAL,24400 ALLEN RD,WOODHAVEN,WAYNE,MI,48183,42.130556,-83.226944,,,,,,,424710,,,,,,1309207706336,BENZENE,000071432,YES,NON-PBT,NO,0,YES,R,Pounds,709,0,0,0,0,0,0,0,0,0,0,0,709,0,0,0,0,0,0,0,0,0,0,0,0,0,0,0,0,0,0,0,0,0,0,0,0,0,0,0,0,0,0,0,0,0,0,0,0,0,709,0,0,709,0,0,0,0,0,0,0,0,709,0,.69,MARATHON OIL CORP,002028801
2009,49340NTDST7839C,US MARBLE INC,7839 COSTABELLA RD,REMUS,MECOSTA,MI,49340,43.579074,-85.085902,,,,,,,326191,,,,,,1309207629179,STYRENE,000100425,YES,NON-PBT,NO,0,YES,R,Pounds,9061,34924,0,0,0,0,0,0,0,0,0,0,43985,0,0,0,0,0,0,0,0,0,0,0,0,0,0,0,0,0,0,0,0,0,0,0,0,0,30,30,0,0,0,0,0,0,0,0,0,0,43985,0,0,43985,0,0,0,0,0,30,0,0,44015,0,1.19,NA,NA
2009,48121DRBRN3001M,FORD MOTOR CO DEARBORN DIVERSIFIED MANUFACTURING,3001 MILLER RD,DEARBORN,WAYNE,MI,48121,42.30982,-83.15734,,,,,,,336399,,,,,,1309207632340,SODIUM NITRITE,007632000,NO,NON-PBT,YES,2,NO,R,Pounds,0,0,0,0,0,0,0,0,0,0,0,0,0,0,0,0,0,0,0,0,0,0,0,0,0,0,0,0,0,0,0,0,0,0,0,0,0,0,0,0,0,0,0,0,0,0,0,0,0,0,0,0,0,0,0,0,0,0,0,0,0,0,0,0,.71,FORD MOTOR CO,001344746
2009,48390FNSHT4205M,QUEST SPECIALTY COATINGS LLC WALLED LAKE,4205 MARTIN RD,WALLED LAKE,OAKLAND,MI,48390,42.576667,-83.456944,,,,,,,325510,,,,,,1309207632415,N-BUTYL ALCOHOL,000071363,NO,NON-PBT,NO,0,NO,R,Pounds,72,288,0,0,0,0,0,0,0,0,0,0,360,0,0,0,0,0,0,0,0,0,0,0,0,0,0,0,0,0,0,0,0,0,0,0,0,0,0,0,1398,0,1398,0,0,0,0,0,0,0,360,0,0,360,0,0,0,1398,562,0,0,0,2320,0,.31,QUEST SPECIALTY CHEMICALS INC,132338364
2009,48121DRBRN3001M,FORD MOTOR CO DEARBORN DIVERSIFIED MANUFACTURING,3001 MILLER RD,DEARBORN,WAYNE,MI,48121,42.30982,-83.15734,,,,,,,336399,,,,,,1309207632290,METHYL ISOBUTYL KETONE,000108101,YES,NON-PBT,NO,0,NO,R,Pounds,4,0,0,0,0,0,0,0,0,0,0,0,4,0,0,0,0,0,0,0,0,0,0,0,0,0,0,0,0,0,0,0,0,0,0,0,0,0,0,0,0,0,0,0,0,0,0,0,0,0,4,0,0,4,0,0,0,0,0,0,0,0,4,0,.71,FORD MOTOR CO,001344746
2009,48768GRDVS700EH,METAVATION LLC,700 E HURON AVE,VASSAR,TUSCOLA,MI,48768,43.369196,-83.572656,,,,,,,331511,,,,,,1309207682422,"4,4'-ISOPROPYLIDENEDIPHENOL",000080057,NO,NON-PBT,NO,0,NO,R,Pounds,0,490,0,0,0,0,0,0,0,0,0,0,490,0,0,0,0,0,0,0,0,0,0,0,0,0,2860,0,0,0,0,0,0,2860,0,0,0,0,0,0,0,0,0,0,0,0,0,0,0,0,3350,0,0,490,2860,0,0,0,0,0,0,0,3350,0,2.43,REVSTONE INDUSTRIES LLC,787032916
2009,4839WDPTPL354BE,ADEPT PLASTIC FINISHING PLANT #4,30540 BECK RD,WIXOM,OAKLAND,MI,48393,42.517993,-83.517176,,,,,,,332813,,,,,,1309207622630,CHROMIUM COMPOUNDS(EXCEPT CHROMITE ORE MINED IN THE TRANSVAAL REGION),N090,YES,NON-PBT,YES,1,NO,R,Pounds,0,.2,0,0,0,0,0,0,0,0,0,0,.2,3,0,3,0,0,0,0,0,0,0,0,0,0,0,0,0,0,0,0,0,0,0,5250,0,0,0,5250,0,0,0,0,0,0,0,0,0,0,3.2,0,0,.2,0,3,0,0,0,5250,0,0,5253.2,0,95.2,ADEPT PLASTIC FINISHING INC,121524318
2009,49441PRTCT711EP,PORT CITY CASTINGS CORP,711 E PORTER RD,MUSKEGON,MUSKEGON,MI,49441,43.158293,-86.23002,,,,,,,331521,,,,,,1309207658788,COPPER,007440508,NO,NON-PBT,YES,1,NO,A,Pounds,0,0,0,0,0,0,0,0,0,0,0,0,0,0,0,0,0,0,0,0,0,0,0,0,0,0,0,0,0,0,0,0,0,0,0,0,0,0,0,0,0,0,0,0,0,0,0,0,0,0,0,0,0,0,0,0,0,0,0,0,0,0,0,0,0,PORT CITY GROUP,NA
2009,48184FRDMT38303,FORD MOTOR CO MICHIGAN ASSEMBLY PLANT,38303 MICHIGAN AVE,WAYNE,WAYNE,MI,48184,42.278227,-83.41298,,,,,,,336112,,,,,,1309207625765,CERTAIN GLYCOL ETHERS,N230,YES,NON-PBT,NO,0,NO,R,Pounds,81,0,0,0,0,0,0,0,0,0,0,0,81,0,0,0,0,0,0,0,0,0,0,0,0,0,0,0,0,0,0,0,0,0,16051,0,0,0,0,16051,0,0,0,0,0,0,0,0,0,0,81,0,0,81,0,0,0,0,0,16000,0,0,16081,0,0,FORD MOTOR CO,001344746
2009,48184FRDMT37625,FORD MOTOR COMPANY-WAYNE ASSEMBLY,37625 MICHIGAN AVE,WAYNE,WAYNE,MI,48184,42.279007,-83.409062,,,,,,,336111,,,,,,1309207629433,COPPER,007440508,NO,NON-PBT,YES,1,NO,R,Pounds,2,0,0,0,0,0,0,0,0,0,0,0,2,0,0,0,0,0,0,0,0,0,0,0,0,0,0,0,0,0,0,0,0,0,0,18000,0,0,0,18000,0,0,0,0,0,0,0,0,0,0,2,0,0,2,0,0,0,0,0,18000,0,0,18002,0,.7,FORD MOTOR CO,001344746
2009,48184FRDMT37625,FORD MOTOR COMPANY-WAYNE ASSEMBLY,37625 MICHIGAN AVE,WAYNE,WAYNE,MI,48184,42.279007,-83.409062,,,,,,,336111,,,,,,1309207629484,METHANOL,000067561,YES,NON-PBT,NO,0,NO,R,Pounds,690,0,0,0,0,0,0,0,0,0,0,0,690,0,0,0,0,0,0,0,0,0,0,0,0,0,0,0,0,0,0,0,0,0,0,0,0,0,0,0,0,610,610,0,0,0,0,0,0,0,690,0,0,690,0,0,0,610,0,0,0,0,1300,0,.7,FORD MOTOR CO,001344746
2009,48054DTRTD4901P,DETROIT EDISON ST CLAIR POWER PLANT,4901 POINTE DR,EAST CHINA TOWNSHIP,ST CLAIR,MI,48054,42.758123,-82.476993,,,,,,,221112,,,,,,1309207690506,MANGANESE COMPOUNDS,N450,YES,NON-PBT,YES,1,NO,R,Pounds,0,340,130,0,0,0,81000,0,0,0,0,0,81470,0,0,0,0,0,0,0,0,0,0,0,0,0,0,0,0,0,0,0,0,0,0,0,0,0,0,0,0,0,0,0,0,0,0,0,0,0,81470,0,81000,470,0,0,0,0,0,0,0,0,81470,0,.81,DTE ENERGY CO,839329158
2009,49204QNXCRPOBOX,GERDAU MACSTEEL JACKSON,3100 BROOKLYN RD,JACKSON,JACKSON,MI,49203,42.196997,-84.366395,,,,,,,331111,,,,,,1309207653522,MANGANESE COMPOUNDS,N450,YES,NON-PBT,YES,1,NO,R,Pounds,1,24,0,0,0,0,0,0,0,0,0,0,25,0,0,0,0,0,0,0,0,0,0,0,0,0,0,0,0,0,0,0,0,0,0,37117,0,0,0,37117,0,0,0,0,0,0,0,0,0,0,25,0,0,25,0,0,0,0,0,37117,0,0,37142,0,.19,GERDAU,005357249
2009,49829MDPBLCOUNT,ESCANABA PAPER CO,7100 COUNTY RD 426 PO BOX 757,ESCANABA,DELTA,MI,49829,45.804889,-87.094361,,,,,,,322121,322222,322110,,,,1309207655085,CATECHOL,000120809,YES,NON-PBT,NO,0,NO,R,Pounds,0,0,92,0,0,0,.8,0,0,0,0,0,92.8,0,0,0,0,0,0,0,0,0,0,0,0,0,0,0,0,0,0,0,0,0,0,0,0,0,0,0,0,0,0,0,0,0,0,0,0,0,92.8,0,.8,92,0,0,0,0,0,0,1794,0,1886.8,0,.94,NEWPAGE CORP,197533446
2009,49720MDSCMBELLS,ST MARYS CEMENT INC (US),16000 BELLS BAY RD,CHARLEVOIX,CHARLEVOIX,MI,49720,45.302501,-85.3015,,,,,,,327310,,,,,,1309207667647,ZINC (FUME OR DUST),007440666,NO,NON-PBT,YES,4,NO,R,Pounds,0,2,0,0,0,0,1305,0,0,0,0,0,1307,0,0,0,0,0,0,0,0,0,0,0,0,0,0,0,0,0,0,0,0,0,0,0,0,0,0,0,0,0,0,0,0,0,0,0,0,0,1307,0,1305,2,0,0,0,0,0,0,0,0,1307,0,,ST MARY'S CEMENT INC,NA
2009,48111WYNDS49350,WAYNE DISPOSAL INC,49350 N I-94 SERVICE DR,BELLEVILLE,WAYNE,MI,48111,42.1966,-83.4863,,,,,,,562212,,,,,,1309207662925,MERCURY COMPOUNDS,N458,YES,PBT,YES,1,NO,R,Pounds,.01,0,0,0,0,1147.37,0,0,0,0,0,0,1147.38,0,0,0,0,0,0,0,0,0,0,0,0,0,0,0,0,0,0,0,0,0,0,0,0,0,0,0,0,0,0,0,0,0,0,0,0,0,1147.38,0,1147.37,.01,0,0,0,0,0,0,0,0,1147.38,0,143.37,EQ HOLDING CO,022528553
2009,48111WYNDS49350,WAYNE DISPOSAL INC,49350 N I-94 SERVICE DR,BELLEVILLE,WAYNE,MI,48111,42.1966,-83.4863,,,,,,,562212,,,,,,1309207662976,XYLENE (MIXED ISOMERS),001330207,YES,NON-PBT,NO,0,NO,R,Pounds,0,0,0,0,0,18309,0,0,0,0,0,0,18309,0,0,0,0,0,0,0,0,0,0,0,0,0,0,0,0,0,0,0,0,0,0,0,0,0,0,0,0,0,0,0,35,0,0,0,0,35,18309,0,18309,0,0,0,0,0,0,0,0,35,18344,0,2.06,EQ HOLDING CO,022528553
2009,48161DTRTD3500E,DETROIT EDISON MONROE POWER PLANT,3500 E FRONT ST,MONROE,MONROE,MI,48161,41.892806,-83.352796,,,,,,,221112,,,,,,1309207678006,"BENZO(G,H,I)PERYLENE",000191242,YES,PBT,NO,0,YES,R,Pounds,0,.28,0,0,0,0,0,0,.51,0,.51,0,.79,0,0,0,0,0,0,0,0,0,0,0,0,0,0,0,0,0,0,0,0,0,0,0,0,0,0,0,2.27,0,2.27,0,0,0,0,0,0,0,.79,0,0,.79,0,0,0,2.27,0,0,0,0,3.06,0,1,DTE ENERGY CO,839329158
2009,48768GRDVS700EH,METAVATION LLC,700 E HURON AVE,VASSAR,TUSCOLA,MI,48768,43.369196,-83.572656,,,,,,,331511,,,,,,1309207682497,PHENOL,000108952,YES,NON-PBT,NO,0,NO,R,Pounds,0,24700,0,0,0,0,0,0,0,0,0,0,24700,0,0,0,0,0,0,0,0,0,0,0,0,0,1520,0,0,0,0,0,0,1520,0,0,0,0,0,0,0,0,0,0,0,0,0,0,0,0,26220,0,0,24700,1520,0,0,0,0,0,0,0,26220,0,2.43,REVSTONE INDUSTRIES LLC,787032916
2009,49829MDPBLCOUNT,ESCANABA PAPER CO,7100 COUNTY RD 426 PO BOX 757,ESCANABA,DELTA,MI,49829,45.804889,-87.094361,,,,,,,322121,322222,322110,,,,1309207655200,PHENOL,000108952,YES,NON-PBT,NO,0,NO,R,Pounds,129,17559,0,0,0,0,.6,0,0,0,0,0,17688.6,0,0,0,0,0,0,0,0,0,0,0,0,0,0,0,0,0,0,0,0,0,0,0,0,0,0,0,0,0,0,0,0,0,0,0,0,0,17688.6,0,.6,17688,0,0,3000,0,0,0,4322,0,25010.6,0,.94,NEWPAGE CORP,197533446
2009,48844CHMTR1445W,CHEM-TREND LP,1445 W MCPHERSON PARK DR,HOWELL,LIVINGSTON,MI,48844,42.607526,-83.951487,,,,,,,325998,,,,,,1309207624255,XYLENE (MIXED ISOMERS),001330207,YES,NON-PBT,NO,0,NO,R,Pounds,5,50,0,0,0,0,0,0,0,0,0,0,55,0,0,0,0,0,0,0,0,0,0,0,0,0,0,0,0,0,0,0,0,0,0,0,0,0,0,0,0,1175,1175,0,1471,0,0,0,0,1471,55,0,0,55,0,0,0,1175,0,0,0,1471,2701,0,.95,CHEM-TREND HOLDING LP,NA
2009,48184FRDMT38303,FORD MOTOR CO MICHIGAN ASSEMBLY PLANT,38303 MICHIGAN AVE,WAYNE,WAYNE,MI,48184,42.278227,-83.41298,,,,,,,336112,,,,,,1309207625803,METHANOL,000067561,YES,NON-PBT,NO,0,NO,R,Pounds,100,0,0,0,0,0,0,0,0,0,0,0,100,0,0,0,0,0,0,0,0,0,0,0,0,0,0,0,0,0,0,0,0,0,19563,0,0,0,0,19563,0,3500,3500,0,0,0,0,0,0,0,100,0,0,100,0,0,0,3500,0,20000,0,0,23600,0,0,FORD MOTOR CO,001344746
2009,48184FRDMT38303,FORD MOTOR CO MICHIGAN ASSEMBLY PLANT,38303 MICHIGAN AVE,WAYNE,WAYNE,MI,48184,42.278227,-83.41298,,,,,,,336112,,,,,,1309207625841,XYLENE (MIXED ISOMERS),001330207,YES,NON-PBT,NO,0,NO,R,Pounds,550,0,0,0,0,0,0,0,0,0,0,0,550,0,0,0,0,0,0,0,0,0,0,0,0,0,0,0,0,0,0,0,0,0,108300,0,0,0,0,108300,0,121,121,0,0,0,0,0,0,0,550,0,0,550,0,0,0,120,0,110000,0,0,110670,0,0,FORD MOTOR CO,001344746
2009,48184FRDMT37625,FORD MOTOR COMPANY-WAYNE ASSEMBLY,37625 MICHIGAN AVE,WAYNE,WAYNE,MI,48184,42.279007,-83.409062,,,,,,,336111,,,,,,1309207629534,TOLUENE,000108883,YES,NON-PBT,NO,0,NO,R,Pounds,1200,2700,0,0,0,0,0,0,0,0,0,0,3900,0,0,0,0,0,0,0,0,0,0,0,0,0,0,0,0,0,0,0,0,0,3700,0,58,0,0,3758,0,1,1,0,0,0,0,0,0,0,3900,0,0,3900,0,0,0,1,0,3800,1700,0,9401,0,.7,FORD MOTOR CO,001344746
2009,48184FRDMT37500,FORD MOTOR CO WAYNE INTEGRAL STAMPING,37500 VAN BORN,WAYNE,WAYNE,MI,48184,42.26619,-83.40912,,,,,,,336370,,,,,,1309207629573,ETHYLBENZENE,000100414,YES,NON-PBT,NO,0,NO,R,Pounds,2,0,0,0,0,0,0,0,0,0,0,0,2,0,0,0,0,0,0,0,0,0,0,0,0,0,0,0,0,0,0,0,0,0,0,0,0,0,0,0,0,0,0,0,0,0,0,0,0,0,2,0,0,2,0,0,0,0,0,0,0,0,2,0,.7,FORD MOTOR CO,001344746
2009,48065RMRMN74000,ROMEO RIM INC - PLANTS 1 & 2,74000 VAN DYKE AVE,ROMEO,MACOMB,MI,48065,42.839481,-83.020012,,,,,,,326199,,,,,,1309207645906,DICYCLOPENTADIENE,000077736,NO,NON-PBT,NO,0,NO,R,Pounds,5,250,0,0,0,0,0,0,0,0,0,0,255,0,0,0,0,0,0,0,0,0,0,0,0,0,0,0,0,0,0,0,0,0,0,0,0,0,0,0,0,0,0,0,0,4494,0,0,0,4494,255,0,0,227,0,0,0,0,0,0,0,4494,4721,0,1.69,R MARK HAMLIN JR TRUST,NA
2009,49512LCKSN42455,LACKS TRIM SYSTEMS INC,4245 52ND ST SE,KENTWOOD,KENT,MI,49512,42.86901,-85.559852,,,,,,,336399,326199,,,,,1309207671001,TOLUENE,000108883,YES,NON-PBT,NO,0,NO,R,Pounds,270,2431,0,0,0,0,0,0,0,0,0,0,2701,0,0,0,0,0,0,0,0,0,0,0,0,0,0,0,0,0,0,0,0,0,0,0,972,0,0,972,30,0,30,0,0,0,0,0,0,0,2701,0,0,2701,0,0,0,30,0,972,0,0,3703,0,1,LACKS ENTERPRISES INC,616811659
2009,48161DTRTD3500E,DETROIT EDISON MONROE POWER PLANT,3500 E FRONT ST,MONROE,MONROE,MI,48161,41.892806,-83.352796,,,,,,,221112,,,,,,1309207678133,SELENIUM COMPOUNDS,N725,YES,NON-PBT,YES,1,NO,R,Pounds,0,7700,4100,0,0,0,0,0,9600,0,9600,0,21400,0,0,0,0,0,0,0,0,0,0,0,0,0,142,0,0,0,0,0,0,142,0,0,0,0,0,0,0,0,0,0,0,0,0,0,0,0,21542,0,0,21000,140,0,0,0,0,0,0,0,21140,0,.75,DTE ENERGY CO,839329158
2009,49203WLVRN701LI,WOLVERINE SIDING SYSTEMS,701 E WASHINGTON ST,JACKSON,JACKSON,MI,49203,42.24505,-84.39291,,,,,,,326199,,,,,,1309207660325,MANGANESE,007439965,YES,NON-PBT,YES,1,NO,R,Pounds,0,6,0,0,0,0,0,0,0,0,0,0,6,0,0,0,0,0,0,0,0,0,0,0,0,0,0,0,0,0,3,0,0,3,0,0,0,0,0,0,0,0,0,0,0,0,0,0,0,0,9,0,0,6,0,3,0,0,0,0,0,0,9,0,.65,SAINT-GOBAIN CORP,002358265
2009,48111WYNDS49350,WAYNE DISPOSAL INC,49350 N I-94 SERVICE DR,BELLEVILLE,WAYNE,MI,48111,42.1966,-83.4863,,,,,,,562211,562998,562219,,,,1309207661784,COPPER COMPOUNDS,N100,NO,NON-PBT,YES,1,NO,R,Pounds,0,1,0,0,0,10262,0,0,0,0,0,0,10263,0,0,0,0,0,0,0,0,0,0,0,0,0,7630,0,0,0,0,0,0,7630,0,0,0,0,0,0,0,0,0,0,0,0,0,0,0,0,17893,0,10262,1,7630,0,0,0,0,0,0,0,17893,0,.24,EQ HOLDING CO,022528553
2009,48111WYNDS49350,WAYNE DISPOSAL INC,49350 N I-94 SERVICE DR,BELLEVILLE,WAYNE,MI,48111,42.1966,-83.4863,,,,,,,562211,562998,562219,,,,1309207661834,NICKEL COMPOUNDS,N495,YES,NON-PBT,YES,1,NO,R,Pounds,0,1,0,0,0,20763,0,0,0,0,0,0,20764,0,0,0,0,0,0,0,0,0,0,0,0,0,2956,0,0,0,0,0,0,2956,0,0,0,0,0,0,0,0,0,0,0,0,0,0,0,0,23720,0,20763,1,2956,0,0,0,0,0,0,0,23720,0,.72,EQ HOLDING CO,022528553
2009,48111WYNDS49350,WAYNE DISPOSAL INC,49350 N I-94 SERVICE DR,BELLEVILLE,WAYNE,MI,48111,42.1966,-83.4863,,,,,,,562211,562998,562219,,,,1309207661885,SODIUM NITRITE,007632000,NO,NON-PBT,YES,2,NO,R,Pounds,0,38,0,0,0,125,0,0,0,0,0,0,163,0,0,0,0,0,0,0,0,0,0,0,0,0,80407,0,0,0,0,0,0,80407,0,0,0,0,0,0,0,0,0,0,0,0,0,0,0,0,80570,0,125,38,80407,0,0,0,0,0,0,0,80570,0,.66,EQ HOLDING CO,022528553
2009,49503PLSTC1648M,PLASTIC PLATE INC-MONROE PLA NT,1648 MONROE AVE NW,GRAND RAPIDS,KENT,MI,49505,42.993036,-85.670502,,,,,,,332813,326199,336399,,,,1309207671203,CHROMIUM COMPOUNDS(EXCEPT CHROMITE ORE MINED IN THE TRANSVAAL REGION),N090,YES,NON-PBT,YES,1,NO,R,Pounds,5,5,0,0,0,0,0,0,0,0,0,0,10,250,0,250,0,0,0,0,0,0,0,0,0,0,0,475,0,0,0,0,0,475,0,5100,0,0,0,5100,0,0,0,0,0,0,0,0,0,0,735,0,0,10,475,250,0,0,48125,5100,0,0,53960,0,1,LACKS ENTERPRISES INC,616811659
2009,48198GNRLMWILLO,GM POWERTRAIN WILLOW RUN,2930 ECORSE RD M/C 481-700-130,YPSILANTI,WASHTENAW,MI,481970935,42.23727,-83.553482,,,,,,,336350,,,,,,1309207666482,LEAD,007439921,YES,PBT,YES,1,YES,R,Pounds,0,8.06,.1,0,0,0,0,0,0,0,0,0,8.16,4.39,0,4.39,0,1897.16,0,0,0,0,0,0,0,0,29.13,0,0,257.44,77.9,0,0,2261.63,0,32.95,.06,0,0,33.01,0,0,0,0,0,0,0,0,0,0,2274.18,0,0,8.16,29.13,2236.89,0,0,0,33.01,0,0,2307.19,0,.56,GENERAL MOTORS LLC,831247536
2009,49512LCKSW49BAR,LACKS WHEEL TRIM SYSTEMS BARDEN PLATER,4090 BARDEN SE,KENTWOOD,KENT,MI,49512,42.875371,-85.562756,,,,,,,332813,326199,336399,,,,1309207672787,CHROMIUM COMPOUNDS(EXCEPT CHROMITE ORE MINED IN THE TRANSVAAL REGION),N090,YES,NON-PBT,YES,1,NO,R,Pounds,1.7,15,0,0,0,0,0,0,0,0,0,0,16.7,250,0,250,0,0,0,0,0,0,0,0,0,0,0,1872,0,0,0,0,0,1872,0,0,13391,0,0,13391,0,0,0,0,0,0,0,0,0,0,2138.7,0,0,16.7,1872,250,0,0,0,13391,0,0,15529.7,0,1,LACKS ENTERPRISES INC,616811659
2009,48121FRDM43001M,FORD MOTOR CO DEARBORN TOOL & DIE PLANT,3001 MILLER RD,DEARBORN,WAYNE,MI,48121,42.30982,-83.15734,,,,,,,333514,,,,,,1309207613922,CERTAIN GLYCOL ETHERS,N230,YES,NON-PBT,NO,0,NO,R,Pounds,2,0,0,0,0,0,0,0,0,0,0,0,2,0,0,0,0,0,0,0,0,0,0,0,0,0,45,0,0,0,0,0,0,45,0,0,0,0,0,0,0,0,0,0,0,0,0,0,0,0,47,0,0,2,45,0,0,0,0,0,0,0,47,0,2.03,FORD MOTOR CO,001344746
2009,49445NRMCH1740W,BAYER CROPSCIENCE,1740 WHITEHALL RD,MUSKEGON,MUSKEGON,MI,49445,43.285703,-86.261324,,,,,,,325320,,,,,,1309207681483,N-BUTYL ALCOHOL,000071363,NO,NON-PBT,NO,0,NO,R,Pounds,5,5,0,0,0,0,0,0,0,0,0,0,10,0,6010,6010,0,0,0,0,0,0,0,0,0,0,0,0,0,0,0,0,0,0,0,0,0,0,0,0,0,0,0,0,591119,0,0,0,0,591119,10,0,0,3,0,0,0,0,0,0,0,597129,597132,0,1.39,BAYER GROUP,NA
2009,48150MCHGN29601,MICHIGAN DAIRY,29601 INDUSTRIAL RD,LIVONIA,WAYNE,MI,48150,42.380389,-83.338778,,,,,,,311511,,,,,,1309207689643,NITRIC ACID,007697372,NO,NON-PBT,NO,0,NO,R,Pounds,5,0,0,0,0,0,0,0,0,0,0,0,5,0,1628,1628,0,0,0,0,0,0,0,0,0,0,0,0,0,0,0,0,0,0,0,0,0,0,0,0,0,0,0,0,0,0,0,0,0,0,5,0,0,5,0,0,0,0,0,0,65107,1628,66740,0,1.31,THE KROGER CO,006999528
2009,49615LMNNC1000F,ANCHOR LAMINA AMERICA,3650 S DERENZY RD,BELLAIRE,ANTRIM,MI,496150250,44.980282,-85.19314,,,,,,,332813,332999,,,,,1309207626476,MANGANESE,007439965,YES,NON-PBT,YES,1,NO,R,Pounds,7.36,0,0,0,0,0,0,0,0,0,0,0,7.36,0,0,0,0,0,0,0,0,0,0,0,0,0,0,0,0,0,0,0,0,0,0,32328.21,0,0,0,32328.21,0,0,0,0,0,0,0,0,0,0,7.36,0,0,7.36,0,0,0,0,0,32328.21,0,0,32335.57,0,.89,CONNELL LP,005353379
2009,48121FRDM13001M,FORD MOTOR CO DEARBORN STAMPING PLANT,3001 MILLER RD,DEARBORN,WAYNE,MI,48121,42.30982,-83.15734,,,,,,,336370,,,,,,1309207639992,MANGANESE,007439965,YES,NON-PBT,YES,1,NO,R,Pounds,2,0,0,0,0,0,0,0,0,0,0,0,2,0,0,0,0,0,0,0,0,0,0,0,0,0,2,0,0,0,0,0,0,2,0,930,0,0,0,930,0,0,0,0,0,0,0,0,0,0,4,0,0,2,2,0,0,0,0,930,0,0,934,0,1.05,FORD MOTOR CO,001344746
2009,48183FRDMT24189,FORD MOTOR CO WOODHAVEN FORGING PLANT,24189 ALLEN RD,WOODHAVEN,WAYNE,MI,48183,42.132186,-83.225788,,,,,,,332111,,,,,,1309207643533,CHROMIUM,007440473,YES,NON-PBT,YES,1,YES,R,Pounds,0,0,0,0,0,0,0,0,0,0,0,0,0,0,0,0,0,0,0,0,0,0,0,0,0,0,0,0,0,0,9,0,0,9,0,9100,0,0,0,9100,0,0,0,0,0,0,0,0,0,0,9,0,0,0,0,9,0,0,0,9100,0,0,9109,0,1.14,FORD MOTOR CO,001344746
2009,49508LCKSN4260A,LACKS TRIM SYSTEMS INC - AIR LANE PLANT,4260 AIRLANE SE,KENTWOOD,KENT,MI,49512,42.884785,-85.575283,,,,,,,332813,326199,336399,,,,1309207671710,NICKEL COMPOUNDS,N495,YES,NON-PBT,YES,1,NO,R,Pounds,7,57,0,0,0,0,0,0,0,0,0,0,64,250,0,250,0,0,0,0,0,0,0,0,0,0,0,0,0,0,0,0,0,0,0,21276,0,0,0,21276,0,0,0,0,0,0,0,0,0,0,314,0,0,64,0,250,0,0,0,21276,0,0,21590,0,1.5,LACKS ENTERPRISES INC,616811659
2009,49601PLSTR6007T,PAULSTRA CRC CADILLAC DIV,600 7TH ST PO BOX 209,CADILLAC,WEXFORD,MI,49601,44.26082,-85.41655,,,,,,,336399,,,,,,1309207608047,TOLUENE,000108883,YES,NON-PBT,NO,0,NO,R,Pounds,4141,4662,0,0,0,0,0,0,0,0,0,0,8803,0,0,0,0,0,0,0,0,0,0,0,0,0,0,0,0,0,0,0,0,0,0,0,0,0,0,0,0,3230,3230,0,0,0,0,0,0,0,8803,0,0,8803,0,0,0,3230,0,0,32611,0,44644,0,.54,PAULSTRA CRC,006015382
2009,48091HYDRM23500,GM POWERTRAIN WARREN TRANSMISSION,23500 MOUND RD,WARREN,MACOMB,MI,48091,42.46665,-83.04482,,,,,,,336350,,,,,,1309207681800,MANGANESE,007439965,YES,NON-PBT,YES,1,NO,R,Pounds,0,0,3,0,0,0,0,0,0,0,0,0,3,1,0,1,0,0,0,0,0,0,0,0,0,0,0,0,0,0,0,0,0,0,0,0,190,0,0,190,0,0,0,0,0,0,0,0,0,0,4,0,0,3,0,1,0,0,0,190,0,0,194,0,.44,GENERAL MOTORS LLC,831247536
2009,48453GRPNT63EUC,GRUPO ANTOLIN MARLETTE,6300 EUCLID ST,MARLETTE,SANILAC,MI,48453,43.32057,-83.07344,,,,,,,336360,336399,,,,,1309207610015,LEAD,007439921,YES,PBT,YES,1,YES,R,Pounds,0,0,0,0,0,0,0,0,0,0,0,0,0,0,0,0,0,0,0,0,0,0,0,0,0,0,162,0,0,0,0,0,0,162,0,0,0,0,0,0,0,0,0,0,0,0,0,0,0,0,162,0,0,0,162,0,0,0,0,0,0,0,162,0,.78,GRUPO ANTOLIN,NA
2009,48058GMCTR820OP,PONTIAC ASSEMBLY CENTER,2100 S OPDYKE RD,PONTIAC,OAKLAND,MI,483413155,42.61133,-83.2483,,,,,,,336112,,,,,,1309207656226,"1,2,4-TRIMETHYLBENZENE",000095636,NO,NON-PBT,NO,0,NO,R,Pounds,2400,32000,0,0,0,0,0,0,0,0,0,0,34400,0,0,0,0,0,0,0,0,0,0,0,0,0,0,0,0,0,0,0,0,0,0,0,0,0,16000,16000,3800,0,3800,0,0,0,0,0,0,0,34400,0,0,34400,0,0,0,3800,0,16000,6700,0,60900,0,.45,GENERAL MOTORS LLC,831247536
2009,49508LCKSN4260A,LACKS TRIM SYSTEMS INC - AIR LANE PLANT,4260 AIRLANE SE,KENTWOOD,KENT,MI,49512,42.884785,-85.575283,,,,,,,332813,326199,336399,,,,1309207671734,NITRIC ACID,007697372,NO,NON-PBT,NO,0,NO,R,Pounds,14,127,0,0,0,0,0,0,0,0,0,0,141,0,5,5,0,0,0,0,0,0,0,0,0,0,0,0,0,0,0,0,0,0,0,0,0,0,0,0,0,0,0,0,0,0,0,0,0,0,141,0,0,141,0,0,0,0,0,0,217788,5,217934,0,1.5,LACKS ENTERPRISES INC,616811659
2009,48121DRBRN3001M,FORD MOTOR CO DEARBORN DIVERSIFIED MANUFACTURING,3001 MILLER RD,DEARBORN,WAYNE,MI,48121,42.30982,-83.15734,,,,,,,336399,,,,,,1309207632252,CERTAIN GLYCOL ETHERS,N230,YES,NON-PBT,NO,0,NO,R,Pounds,6,0,0,0,0,0,0,0,0,0,0,0,6,0,0,0,0,0,0,0,0,0,0,0,0,0,0,0,0,0,0,0,0,0,0,0,0,0,0,0,0,0,0,0,0,0,0,0,0,0,6,0,0,6,0,0,0,0,0,0,0,0,6,0,.71,FORD MOTOR CO,001344746
2009,48731TWRTM81DRE,TOWER AUTOMOTIVE TOOL LLC,81 DRETTMAN DR,ELKTON,HURON,MI,48731,43.81833,-83.17773,,,,,,,336370,,,,,,1309207693247,MANGANESE,007439965,YES,NON-PBT,YES,1,NO,R,Pounds,0,5,0,0,0,0,0,0,0,0,0,0,5,0,0,0,0,0,0,0,0,0,0,0,0,0,0,0,0,0,0,0,0,0,0,224000,0,0,0,224000,0,0,0,0,0,0,0,0,0,0,5,0,0,5,0,0,0,0,0,224000,0,0,224005,0,.67,TOWER AUTOMOTIVE PRODUCTS CO INC,NA
2009,48217MRTHN1300S,MARATHON PETROLEUM CO LP MICHIGAN REFINING DIV,1300 S FORT ST HES DEPT,DETROIT,WAYNE,MI,48217,42.280556,-83.152778,,,,,,,324110,,,,,,1309207606967,"1,3-BUTADIENE",000106990,YES,NON-PBT,NO,0,YES,R,Pounds,1345,0,0,0,0,0,0,0,0,0,0,0,1345,0,0,0,0,0,0,0,0,0,0,0,0,0,0,0,0,0,0,0,0,0,0,0,0,0,0,0,0,0,0,0,0,0,0,0,0,0,1345,0,0,1345,0,0,0,0,0,0,0,0,1345,0,1.27,MARATHON OIL CORP,002028801
2009,48058GMCTR820OP,PONTIAC ASSEMBLY CENTER,2100 S OPDYKE RD,PONTIAC,OAKLAND,MI,483413155,42.61133,-83.2483,,,,,,,336112,,,,,,1309207656253,METHANOL,000067561,YES,NON-PBT,NO,0,NO,R,Pounds,110,1800,0,0,0,0,0,0,0,0,0,0,1910,0,0,0,0,0,0,0,0,0,0,0,0,0,0,0,0,0,0,0,0,0,0,0,0,0,2200,2200,540,0,540,0,0,0,0,0,0,0,1910,0,0,1910,0,0,0,540,0,2200,8.6,0,4658.6,0,.45,GENERAL MOTORS LLC,831247536
2009,48121RGSTL3001M,SEVERSTAL DEARBORN LLC,4001 MILLER RD,DEARBORN,WAYNE,MI,48120,42.30982,-83.15734,,,,,,,331111,324199,331221,,,,1309207829387,ALUMINUM (FUME OR DUST),007429905,NO,NON-PBT,YES,4,NO,R,Pounds,0,0,0,0,0,0,0,0,0,0,0,0,0,0,0,0,0,0,0,0,0,0,0,0,0,0,0,0,0,0,0,0,0,0,0,0,0,0,0,0,0,0,0,0,0,0,0,0,0,0,0,0,0,0,0,0,0,0,0,0,0,0,0,0,,SEVERSTAL NORTH AMERICA INC,645166489
2009,49444WBBCH2708J,WEBB CHEMICAL SERVICE CORP,2708 JARMAN,MUSKEGON HEIGHTS,MUSKEGON,MI,49444,43.202426,-86.230963,,,,,,,424690,,,,,,1309207863135,2-METHOXYETHANOL,000109864,NO,NON-PBT,NO,0,NO,A,Pounds,0,0,0,0,0,0,0,0,0,0,0,0,0,0,0,0,0,0,0,0,0,0,0,0,0,0,0,0,0,0,0,0,0,0,0,0,0,0,0,0,0,0,0,0,0,0,0,0,0,0,0,0,0,0,0,0,0,0,0,0,0,0,0,0,0,NA,NA
2009,49441CNNNM2875L,CANNON-MUSKEGON,2875 LINCOLN ST,MUSKEGON,MUSKEGON,MI,49441,43.200443,-86.303342,,,,,,,331513,,,,,,1309207838828,MANGANESE,007439965,YES,NON-PBT,YES,1,NO,R,Pounds,97,2,0,0,0,0,0,0,0,0,0,2,101,0,0,0,0,0,0,0,0,0,0,0,0,0,1600,0,0,0,2,1,0,1603,0,3700,0,0,0,3700,0,0,0,0,0,0,0,0,0,0,1704,0,0,101,1600,3,0,0,0,3700,0,0,5404,0,.84,PRECISION CASTPARTS CORP,009027970
2009,48667THDWCMICHI,THE DOW CHEMICAL CO,1790 BUILDING,MIDLAND,MIDLAND,MI,48667,43.606083,-84.219528,,,,,,,325199,325211,325320,,,,1309207718747,ACRYLIC ACID,000079107,YES,NON-PBT,NO,0,NO,R,Pounds,890,1,0,0,0,0,0,0,0,0,0,0,891,0,0,0,0,0,0,0,0,0,0,0,0,0,0,0,0,0,0,0,0,0,0,0,0,0,0,0,0,0,0,0,0,0,0,0,0,0,891,0,0,891,0,0,0,0,0,0,52,0,943,0,.8,THE DOW CHEMICAL CO,001381581
2009,48371MSPND45WAK,MSP INDUSTRIES,45 W OAKWOOD RD,OXFORD,OAKLAND,MI,48371,42.869117,-83.290448,,,,,,,332111,,,,,,1309207792363,ETHYLENE GLYCOL,000107211,YES,NON-PBT,NO,0,NO,R,Pounds,5,0,0,0,0,0,0,0,0,0,0,0,5,0,0,0,0,0,0,0,0,0,0,0,0,0,0,0,0,0,0,0,0,0,0,0,0,0,0,0,0,0,0,0,0,0,14350,0,0,14350,5,0,0,5,0,0,0,0,0,0,0,14350,14355,0,.83,AMERICAN AXLE & MANUFACTURING INC,808844567
2009,48060CHSNC1600W,HENKEL CORP,1600 WASHINGTON AVE,PORT HURON,ST CLAIR,MI,48060,42.98854,-82.43728,,,,,,,325998,,,,,,1309207750466,LEAD COMPOUNDS,N420,YES,PBT,YES,1,NO,R,Pounds,27.8,.28,1,0,0,0,0,0,0,0,0,0,29.08,0,0,0,0,0,0,0,0,0,0,0,0,0,0,0,0,0,0,0,0,0,0,0,0,0,0,0,0,0,0,0,0,0,0,0,0,0,29.08,0,0,29.08,0,0,0,0,0,0,0,0,29.08,0,.8,HENKEL CORP,009152364
2009,49444WBBCH2708J,WEBB CHEMICAL SERVICE CORP,2708 JARMAN,MUSKEGON HEIGHTS,MUSKEGON,MI,49444,43.202426,-86.230963,,,,,,,424690,,,,,,1309207863236,NITRIC ACID,007697372,NO,NON-PBT,NO,0,NO,A,Pounds,0,0,0,0,0,0,0,0,0,0,0,0,0,0,0,0,0,0,0,0,0,0,0,0,0,0,0,0,0,0,0,0,0,0,0,0,0,0,0,0,0,0,0,0,0,0,0,0,0,0,0,0,0,0,0,0,0,0,0,0,0,0,0,0,0,NA,NA
2009,4883WNRTHL126EA,AGA MARVEL,1260 E VAN DEINSE ST,GREENVILLE,MONTCALM,MI,48838,43.192208,-85.237937,,,,,,,333415,,,,,,1309207882440,DIISOCYANATES,N120,YES,NON-PBT,NO,0,NO,A,Pounds,0,0,0,0,0,0,0,0,0,0,0,0,0,0,0,0,0,0,0,0,0,0,0,0,0,0,0,0,0,0,0,0,0,0,0,0,0,0,0,0,0,0,0,0,0,0,0,0,0,0,0,0,0,0,0,0,0,0,0,0,0,0,0,0,0,NA,NA
2009,49507PLYMR1415S,COOK COMPOSITES & POLYMERS CO,1415 STEELE AVE SW,GRAND RAPIDS,KENT,MI,49507,42.93847,-85.675622,,,,,,,325211,,,,,,1309207810856,XYLENE (MIXED ISOMERS),001330207,YES,NON-PBT,NO,0,NO,R,Pounds,3707,825,0,0,0,0,0,0,0,0,0,0,4532,0,0,0,0,0,0,0,0,0,0,0,0,0,0,0,0,0,0,0,0,0,6270,0,0,0,0,6270,71063,0,71063,0,0,0,13612,0,0,13612,4532,0,0,4532,0,0,0,71063,0,6270,0,13612,95477,0,.83,COOK COMPOSITES & POLYMERS CO,610416802
2009,48071STRNC434WE,CASS POLYMERS OF MICHIGAN INC,31200 STEPHENSON HWY,MADISON HEIGHTS,OAKLAND,MI,48071,42.52192,-83.11942,,,,,,,326199,,,,,,1309207813801,DICHLOROMETHANE,000075092,YES,NON-PBT,NO,0,YES,R,Pounds,750,0,0,0,0,0,0,0,0,0,0,0,750,0,0,0,0,0,0,0,0,0,0,0,0,0,0,0,0,0,0,0,0,0,0,0,0,0,0,0,0,0,0,0,0,0,0,0,0,0,750,0,0,750,0,0,0,0,0,0,0,0,750,0,,CASS HOLDING LLC,NA
2009,49707LFRGCFORDA,LAFARGE MIDWEST INC,1435 FORD AVE,ALPENA,ALPENA,MI,49707,45.069967,-83.415738,,,,,,,327310,,,,,,1309207824335,MERCURY COMPOUNDS,N458,YES,PBT,YES,1,NO,R,Pounds,.015,270,0,0,0,0,42,0,0,0,0,0,312.015,0,0,0,0,0,0,0,0,0,0,0,0,0,0,0,0,0,0,0,0,0,0,0,0,0,0,0,0,0,0,0,0,0,0,0,0,0,312.015,0,42,270.015,0,0,0,0,0,0,0,0,312.015,0,.82,LAFARGE NA,050622018
2009,48667THDWCMICHI,THE DOW CHEMICAL CO,1790 BUILDING,MIDLAND,MIDLAND,MI,48667,43.606083,-84.219528,,,,,,,325199,325211,325320,,,,1309207718901,CHROMIUM COMPOUNDS(EXCEPT CHROMITE ORE MINED IN THE TRANSVAAL REGION),N090,YES,NON-PBT,YES,1,NO,R,Pounds,0,0,290,0,0,30000,0,0,0,0,0,0,30290,0,0,0,0,0,0,0,0,0,0,0,0,0,17,0,0,0,0,0,12,29,0,0,0,0,0,0,0,0,0,0,0,0,0,0,0,0,30319,0,29150,290,17,12,0,0,0,0,0,0,29469,850,.81,THE DOW CHEMICAL CO,001381581
