Year,TRI Facility ID,Facility Name,Street Address,City,County,ST,ZIP,Latitude,Longitude,Primary SIC,SIC 2,SIC 3,SIC 4,SIC 5,SIC 6,Primary NAICS,NAICS 2,NAICS 3,NAICS 4,NAICS 5,NAICS 6,Doc_Ctrl_Num,Chemical,CAS #/Compound ID,Clean Air Act Chemical,Classification,Metal,Metal Category,Carcinogen,Form Type,Unit of Measure,5.1 Fugitive Air,5.2 Stack Air,5.3 Water,5.4.1 Underground Class I,5.4.2 Underground Class II-V,5.5.1A RCRA C Landfills,5.5.1B Other Landfills,5.5.2 Land Treatment,5.5.3 Surface Impoundment,5.5.3A RCRA C Surface Impoundment,5.5.3B Other Surface Impoundment,5.5.4 Other Disposal,On-site Release Total,6.1 POTW - Metals and Metal Compounds,6.1 POTW - Non-Metals,6.1 POTW - Total Transfers,6.2 M10,6.2 M41,6.2 M62,6.2 M71,6.2 M81,6.2 M82,6.2 M72,6.2 M63,6.2 M66,6.2 M67,6.2 M64,6.2 M65,6.2 M73,6.2 M79,6.2 M90,6.2 M94,6.2 M99,Off-Site Release Total,6.2 M20,6.2 M24,6.2 M26,6.2 M28,6.2 M93,Off-Site Recycled Total,6.2 M56,6.2 M92,Off-Site Recovery Total,6.2 M40,6.2 M50,6.2 M54,6.2 M61,6.2 M69,6.2 M95,Off-Site Treated Total,Total Releases,8.1 Releases,8.1a On-site Contained Releases,8.1b On-site Other Releases,8.1c Off-site Contained Releases,8.1d Off-site Other Releases,8.2 Energy Recovery On-site,8.3 Energy Recovery Off-site,8.4 Recycling On-Site,8.5 Recycling Off-Site,8.6 Treatment On-site,8.7 Treatement Off-site,Production Waste (8.1 thru 8.7),8.8 One-time Release,8.9 Production Ratio,Parent Company Name,Parent Company DB Number,3/3/2012 v10
2000,77507VLCMP11500,KURARAY AMERICA-EVAL BU,11500 BAY AREA BLVD,PASADENA,HARRIS,TX,77507,29.621111,-95.04333,2821,,,,,,325211,,,,,,1300140008261,METHANOL,000067561,YES,NON-PBT,NO,0,NO,R,Pounds,21508,27474,0,0,0,0,0,0,0,0,0,0,48982,0,644937,644937,0,0,0,0,0,0,0,0,0,0,0,0,0,0,0,0,0,0,0,0,0,0,0,0,0,0,0,0,299148,0,0,0,0,299148,48982,48982,0,0,0,0,0,299148,0,0,0,644937,993067,205,1.05,KURARAY AMERICA INC,NA
2000,77520NTRLG3601D,NATURAL GAS ODORIZING INC.,3601 DECKER DR,BAYTOWN,HARRIS,TX,77520,29.760778,-95.013528,2869,,,,,,325199,,,,,,1300140037021,PROPYLENE,000115071,NO,NON-PBT,NO,0,NO,R,Pounds,320,642,0,0,0,0,0,0,0,0,0,0,962,0,0,0,0,0,0,0,0,0,0,0,0,0,0,0,0,0,0,0,0,0,0,0,0,0,0,0,0,0,0,0,0,0,0,0,0,0,962,962,0,0,0,0,0,0,0,0,32100,0,33062,0,.77,OCCIDENTAL PETROLEUM CORP,006908354
2000,77532PNNWL18000,ARKEMA INC,18000 CROSBY EASTGATE RD,CROSBY,HARRIS,TX,77532,29.943722,-95.022722,2869,,,,,,325199,,,,,,1300140027246,TERT-BUTYL ALCOHOL,000075650,NO,NON-PBT,NO,0,NO,R,Pounds,46479,0,0,515605,0,0,0,0,0,0,0,0,562084,0,0,0,0,0,0,0,0,0,39,0,0,0,0,0,0,0,0,0,0,39,0,0,0,0,0,0,41670,0,41670,0,0,0,0,0,0,0,562123,562123,0,0,0,0,0,41670,0,0,0,0,603793,0,1.25,ARKEMA DELAWARE INC,002290773
2000,75160MDXNC201SK,MADIX INC SKYLINE FACILITY,201 SKYLINE DR,TERRELL,KAUFMAN,TX,75160,32.709732,-96.26258,2542,2541,,,,,337127,,,,,,1300140031168,METHYL ISOBUTYL KETONE,000108101,YES,NON-PBT,NO,0,NO,R,Pounds,133,2707,0,0,0,0,0,0,0,0,0,0,2840,0,0,0,0,0,0,0,0,0,0,0,0,0,0,0,0,0,0,0,0,0,0,0,0,0,0,0,0,369,369,0,0,0,0,0,0,0,2840,2840,0,0,0,0,0,369,0,0,0,0,3209,0,1.03,NA,NA
2000,77041CHMPN7403W,CHAMPION COATINGS,7403 WRIGHT RD,HOUSTON,HARRIS,TX,77041,29.885271,-95.589257,2851,,,,,,325510,,,,,,1300140034063,ETHYLBENZENE,000100414,YES,NON-PBT,NO,0,NO,R,Pounds,12,840,0,0,0,0,0,0,0,0,0,0,852,0,0,0,1217,0,0,0,0,0,0,0,0,0,0,0,0,0,0,0,0,1217,0,0,0,0,0,0,0,0,0,0,0,0,0,0,0,0,2069,852,0,0,0,0,0,0,50,0,0,0,902,0,.8,CHAMPION COATINGS,016680480
2000,77378NKJTN4211F,INKJET INC,11111 INKJET WAY,WILLIS,MONTGOMERY,TX,77378,30.407422,-95.432529,2893,,,,,,325910,,,,,,1300140034202,METHANOL,000067561,YES,NON-PBT,NO,0,NO,R,Pounds,120,0,0,0,0,0,0,0,0,0,0,0,120,0,0,0,0,0,0,0,0,0,0,0,0,0,0,0,0,0,0,0,0,0,0,0,0,0,0,0,9392,0,9392,0,0,0,0,0,0,0,120,140,0,0,0,0,0,12892,0,0,0,0,13032,0,1.07,NA,NA
2000,78523PTTRP101YA,AKZO NOBEL TRANSPORTATION COATINGS INC.,200 YARD RD,BROWNSVILLE,CAMERON,TX,78521,25.95815,-97.42039,2851,,,,,,325510,,,,,,1300140005733,XYLENE (MIXED ISOMERS),001330207,YES,NON-PBT,NO,0,NO,R,Pounds,1947,1947,0,0,0,0,0,0,0,0,0,0,3894,0,0,0,0,0,0,0,0,0,0,0,0,0,0,0,0,0,0,0,0,0,0,0,0,0,0,0,13359,0,13359,0,0,0,0,0,0,0,3894,3894,0,0,0,0,0,13359,0,0,0,0,17253,0,.78,AKZO NOBEL INC,062999347
2000,77507LNZBY9700B,GULF BAYPORT CHEMICALS LP,9700 BAYPORT BLVD,PASADENA,HARRIS,TX,77507,29.615556,-95.061389,2869,,,,,,325000,,,,,,1300140031295,AMMONIA,007664417,NO,NON-PBT,NO,0,NO,R,Pounds,798,0,0,0,0,0,0,0,0,0,0,0,798,0,0,0,0,0,0,0,0,0,0,0,0,0,0,0,0,0,0,0,0,0,0,0,0,0,0,0,0,0,0,0,0,0,0,0,0,0,798,798,0,0,0,0,0,0,0,0,0,0,798,0,1.29,NA,NA
2000,77507LNZBY9700B,GULF BAYPORT CHEMICALS LP,9700 BAYPORT BLVD,PASADENA,HARRIS,TX,77507,29.615556,-95.061389,2869,,,,,,325000,,,,,,1300140031358,O-ANISIDINE,000090040,YES,NON-PBT,NO,0,YES,R,Pounds,701,1,0,0,0,0,0,0,0,0,0,0,702,0,0,0,0,0,0,0,0,0,0,0,0,0,0,0,0,0,0,0,0,0,0,0,0,0,0,0,0,0,0,0,0,0,0,0,0,0,702,702,0,0,0,0,1182,0,0,0,0,0,1884,0,1.38,NA,NA
2000,75090TXSNS6400H,TEXAS INSTRUMENTS,6412 U S HWY 75 S,SHERMAN,GRAYSON,TX,75090,33.5675,-96.588333,3674,,,,,,334413,,,,,,1300140034430,NITRIC ACID,007697372,NO,NON-PBT,NO,0,NO,R,Pounds,5,14,0,0,0,0,0,0,0,0,0,0,19,0,5,5,0,0,0,0,0,0,0,0,0,0,0,0,0,0,0,0,0,0,0,0,0,0,0,0,0,0,0,0,0,0,0,0,0,0,19,17,0,0,0,0,0,0,0,0,27955,3,27975,0,1.49,TEXAS INSTRUMENTS INC,045588241
2000,77015RCHHL1053H,REICHHOLD INC,1503 HADEN RD,HOUSTON,HARRIS,TX,77015,29.766,-95.1805,2821,,,,,,325211,,,,,,1300140031586,STYRENE,000100425,YES,NON-PBT,NO,0,YES,R,Pounds,2581,3924,0,0,0,0,0,0,0,0,0,0,6505,0,0,0,0,0,0,0,0,0,0,0,0,0,0,0,0,0,0,0,0,0,0,0,0,0,0,0,0,6505,6505,0,0,0,0,0,0,0,6505,6505,0,0,0,0,0,5990,0,0,12,0,12507,0,95,REICHHOLD INC,001220904
2000,75243DLLS011344,BRENNTAG SOUTHWEST INC. DALLAS,11344 PLANO RD,DALLAS,DALLAS,TX,75243,32.903056,-96.700278,5169,,,,,,424690,,,,,,1300140034570,TRICHLOROETHYLENE,000079016,YES,NON-PBT,NO,0,YES,R,Pounds,250,250,0,0,0,0,0,0,0,0,0,0,500,0,0,0,0,0,0,0,0,0,0,0,0,0,0,0,0,0,0,0,0,0,0,0,0,0,0,0,1480,0,1480,0,0,0,0,0,0,0,500,442,0,0,0,0,0,1480,0,0,0,0,1922,0,1.36,BRENNTAG INC,092963644
2000,76106BNGDB400EE,BUNGE CORP,400 E EXCHANGE AVE,FORT WORTH,TARRANT,TX,76106,32.791667,-97.341667,2079,,,,,,311225,,,,,,1300140009414,NICKEL,007440020,YES,NON-PBT,YES,1,YES,R,Pounds,0,0,0,0,0,0,0,0,0,0,0,0,0,0,0,0,0,0,0,0,0,0,21780,0,0,0,0,0,0,0,0,0,0,21780,0,0,0,0,0,0,0,0,0,0,0,0,0,0,0,0,21780,21780,0,0,0,0,0,0,0,0,0,0,21780,0,0,BUNGE NORTH AMERICA INC,006981435
2000,75120CRGLLPOBOX,HEXION SPECIALTY CHEMICALS INC,201 CEDAR RD,ENNIS,ELLIS,TX,75119,32.35479,-96.6448,2821,,,,,,325211,,,,,,1300140014212,PHTHALIC ANHYDRIDE,000085449,YES,NON-PBT,NO,0,NO,R,Pounds,109,38,0,0,0,0,0,0,0,0,0,0,147,0,0,0,0,0,0,0,0,0,0,0,0,0,0,0,0,0,0,0,0,0,0,0,0,0,0,0,0,0,0,0,0,0,0,0,0,0,147,147,0,0,0,0,0,0,0,0,0,0,147,0,1.04,HEXION SPECIALTY CHEMICALS INC,001338797
2000,77047DLTDS14826,BRENNTAG SOUTHWEST INC HOUS TON,14826 HOOPER RD,HOUSTON,HARRIS,TX,77047,29.588611,-95.406111,5169,,,,,,424690,,,,,,1300140034669,METHANOL,000067561,YES,NON-PBT,NO,0,NO,R,Pounds,250,250,0,0,0,0,0,0,0,0,0,0,500,0,0,0,0,0,0,0,0,0,0,0,0,0,0,0,0,0,0,0,0,0,0,0,0,0,0,0,549,0,549,0,0,0,0,0,0,0,500,479,0,0,0,0,0,549,0,0,0,0,1028,0,.78,BRENNTAG NA INC,092963644
2000,77065DNLVL19191,SPX PROCESS EQUIPMENT,19191 HEMSTEAD RD,HOUSTON,HARRIS,TX,77065,29.905708,-95.606758,3491,,,,,,332911,,,,,,1300140031826,NICKEL,007440020,YES,NON-PBT,YES,1,YES,R,Pounds,0,0,0,0,0,0,0,0,0,0,0,0,0,0,0,0,0,0,0,0,0,0,9,0,0,0,0,0,0,0,0,0,0,9,0,7941,0,0,0,7941,0,0,0,0,0,0,0,0,0,0,9,9,0,0,0,0,0,0,0,7941,0,0,7950,0,.55,SPX CORP,NA
2000,75482SSCTD1101M,DAIRY FARMERS OF AMERICA INC SULPHUR SPRINGS,1101 MAIN ST,SULPHUR SPRINGS,HOPKINS,TX,75483,33.134722,-95.618611,2023,2026,,,,,311514,,,,,,1300140028630,AMMONIA,007664417,NO,NON-PBT,NO,0,NO,R,Pounds,8850,0,0,0,0,0,0,0,0,0,0,0,8850,0,0,0,0,0,0,0,0,0,0,0,0,0,0,0,0,0,0,0,0,0,0,0,0,0,0,0,0,0,0,0,0,0,0,0,0,0,8850,8850,0,0,0,0,0,0,0,0,9240,0,18090,0,1,DAIRY FARMERS OF AMERICA INC,029855640
2000,75119GLBPR1490J,GLOBE PRODUCTS CO INC,1490 JACK MCKAY BLVD,ENNIS,ELLIS,TX,75119,32.315529,-96.621239,3471,,,,,,332116,,,,,,1300140014453,NITRATE COMPOUNDS,N511,NO,NON-PBT,NO,0,NO,R,Pounds,0,0,0,0,0,0,0,0,0,0,0,0,0,0,80350,80350,0,0,0,0,0,0,0,0,0,0,0,0,0,0,0,0,0,0,0,0,0,0,0,0,0,0,0,0,0,0,0,0,0,0,0,80350,0,0,0,0,0,0,0,0,0,0,80350,0,0,NA,NA
2000,78071DMNDS301LE,VALERO THREE RIVERS REFINERY,301 LEROY ST,THREE RIVERS,LIVE OAK,TX,780710490,28.455472,-98.194167,2911,,,,,,324110,,,,,,1300140024264,"SULFURIC ACID (1994 AND AFTER ""ACID AEROSOLS"" ONLY)",007664939,NO,NON-PBT,NO,0,NO,R,Pounds,1270,0,0,0,0,0,0,0,0,0,0,0,1270,0,0,0,0,0,0,0,0,0,0,0,0,0,0,0,0,0,0,0,0,0,0,0,0,0,0,0,0,0,0,0,0,0,0,0,0,0,1270,1270,0,0,0,0,0,0,0,0,200,0,1470,0,.24,VALERO ENERGY CORP,082686916
2000,77704PDGLYGULFS,PD GLYCOL,3510  GULF STATES RD,BEAUMONT,JEFFERSON,TX,77704,30.057083,-94.046,2869,,,,,,325199,,,,,,1300140035130,CHLORINE,007782505,YES,NON-PBT,NO,0,NO,R,Pounds,597,118,0,0,0,0,0,0,0,0,0,0,715,0,0,0,0,0,0,0,0,0,0,0,0,0,0,0,0,0,0,0,0,0,0,0,0,0,0,0,0,0,0,0,0,0,461,0,0,461,715,715,0,0,0,0,0,0,0,0,0,461,1176,0,1.09,E I DU PONT DE NEMOURS & CO INC,126040237
2000,77545CHMPN3130H,CHAMPION TECHNOLOGIES INC,3130 FM 521,FRESNO,FORT BEND,TX,77545,29.543917,-95.446861,2869,,,,,,325110,,,,,,1300140028426,PROPYLENE OXIDE,000075569,YES,NON-PBT,NO,0,YES,R,Pounds,318,0,0,0,0,0,0,0,0,0,0,0,318,0,0,0,0,0,0,0,0,0,0,0,0,0,0,0,0,0,0,0,0,0,0,0,0,0,0,0,0,0,0,0,0,0,0,0,0,0,318,318,0,0,0,0,0,0,0,0,0,0,318,0,1.27,PERMIAN MUD SERVICE,008024580
2000,79760CHMPN115PR,CHAMPION TECHNOLOGIES INC,115 PROCTOR,ODESSA,ECTOR,TX,79762,31.873333,-102.302778,2869,,,,,,325110,,,,,,1300140028515,METHANOL,000067561,YES,NON-PBT,NO,0,NO,R,Pounds,7783,940,0,0,0,0,0,0,0,0,0,0,8723,0,0,0,185,0,0,7485,0,0,1514,0,0,0,0,0,0,0,0,0,0,9184,0,0,0,0,0,0,4861,0,4861,0,0,0,0,0,0,0,17907,19561,0,0,0,0,0,4861,3404,0,0,0,27826,0,1.04,PERMIAN MUD SERVICE,008024580
2000,78758MLTLY3300W,MULTILAYER TEK L.P.,3300 W. BRAKER LN.,AUSTIN,TRAVIS,TX,78758,30.393194,-97.727191,3672,,,,,,334412,,,,,,1300140032160,METHANOL,000067561,YES,NON-PBT,NO,0,NO,R,Pounds,4826,9468,0,0,0,0,0,0,0,0,0,0,14294,0,4888,4888,0,0,0,0,0,0,0,0,0,0,0,0,0,0,0,0,0,0,0,0,0,0,0,0,0,0,0,0,207,0,0,0,0,207,14294,14294,0,0,0,0,0,0,0,0,0,5095,19389,0,1.09,FLEXTRONICS INTL,014607886
2000,77704PDGLYGULFS,PD GLYCOL,3510  GULF STATES RD,BEAUMONT,JEFFERSON,TX,77704,30.057083,-94.046,2869,,,,,,325199,,,,,,1300140035181,CHLOROETHANE,000075003,YES,NON-PBT,NO,0,NO,R,Pounds,673,0,0,0,0,0,0,0,0,0,0,0,673,0,0,0,0,0,0,0,0,0,0,0,0,0,0,0,0,0,0,0,0,0,0,0,0,0,0,0,0,0,0,0,0,0,0,0,0,0,673,673,0,0,0,0,0,0,0,0,0,0,673,0,1.09,E I DU PONT DE NEMOURS & CO INC,126040237
2000,77041LRKHT6640M,LARK HEAT TREATING INC.,6640 MAYARD DR.,HOUSTON,HARRIS,TX,770412612,29.872606,-95.606007,3398,,,,,,332811,,,,,,1300140035371,AMMONIA,007664417,NO,NON-PBT,NO,0,NO,R,Pounds,560,0,0,0,0,0,0,0,0,0,0,0,560,0,0,0,0,0,0,0,0,0,0,0,0,0,0,0,0,0,0,0,0,0,0,0,0,0,0,0,0,0,0,0,0,0,0,0,0,0,560,560,0,0,0,0,0,0,0,0,0,0,560,0,0,NA,NA
2000,77092MNRCH3530L,PPG ARCHITECURAL COATINGS HOUSTON,3530 LANG RD,HOUSTON,HARRIS,TX,77092,29.825188,-95.488766,2851,,,,,,325510,,,,,,1300140011091,METHYL ISOBUTYL KETONE,000108101,YES,NON-PBT,NO,0,NO,R,Pounds,83,0,0,0,0,0,0,0,0,0,0,0,83,0,0,0,0,0,0,0,0,0,0,0,0,0,0,0,0,0,0,0,0,0,0,0,0,0,0,0,4099,0,4099,0,0,0,0,0,0,0,83,83,0,0,0,0,0,4099,0,0,0,0,4182,0,.82,PPG INDUSTRIES INC,NA
2000,76110GWNTR1800P,TRINKOTE INDUSTRIAL FINISHES INC,1800 PARK PL AVE,FORT WORTH,TARRANT,TX,76110,32.7258,-97.3456,2851,,,,,,325510,,,,,,1300140014681,METHYL ETHYL KETONE,000078933,NO,NON-PBT,NO,0,NO,R,Pounds,0,107,0,0,0,0,0,0,0,0,0,0,107,0,0,0,0,0,0,0,0,0,0,0,0,0,0,0,0,0,0,0,0,0,0,0,0,0,2200,2200,0,0,0,0,0,0,0,0,0,0,107,107,0,0,0,0,0,0,0,962,0,0,1069,0,.9,TRINKOTE INDUSTRIAL FINISHES INC,NA
2000,76067GWNTR830HO,COMPLEMENTARY COATINGS CORP,830 HOOD RD,MINERAL WELLS,PARKER,TX,76067,32.827573,-98.049158,2851,,,,,,325510,,,,,,1300140014729,METHYL ETHYL KETONE,000078933,NO,NON-PBT,NO,0,NO,R,Pounds,0,4990,0,0,0,0,0,0,0,0,0,0,4990,0,0,0,0,0,0,0,0,0,0,0,0,0,0,0,0,0,0,0,0,0,0,0,0,0,0,0,0,0,0,0,0,0,0,0,0,0,4990,4990,0,0,0,0,0,0,0,0,0,0,4990,0,.9,BENJAMIN MOORE & CO,001210715
2000,75604STHWS600FO,SOUTHWEST STEEL CASTING CO,600 FOUNDRY DR,LONGVIEW,GREGG,TX,75604,32.49432,-94.81323,3325,,,,,,331513,,,,,,1300140011166,CHROMIUM,007440473,YES,NON-PBT,YES,1,YES,R,Pounds,0,0,0,0,0,0,0,0,0,0,0,0,0,0,0,0,0,0,0,0,0,0,2320,0,0,0,0,0,0,0,0,0,0,2320,0,0,0,0,0,0,0,0,0,0,0,0,0,0,0,0,2320,2320,0,0,0,0,0,0,0,1500,0,0,3820,0,.87,AMERICAN RAILCAR INDUSTRIES INC,929875615
2000,77012HLLPT9701M,VALERO REFINING - TEXAS LP HOUSTON REFINERY,9701 MANCHESTER,HOUSTON,HARRIS,TX,77012,29.720611,-95.249722,2911,,,,,,324110,,,,,,1300140054141,CRESOL (MIXED ISOMERS),001319773,YES,NON-PBT,NO,0,NO,R,Pounds,0,0,11,0,0,0,0,0,0,0,0,0,11,0,0,0,0,0,0,0,0,0,83,0,0,0,0,0,0,0,0,0,0,83,0,0,5,0,0,5,41,0,41,3,10,0,0,0,0,13,94,94,0,0,0,0,50219,41,735,5,28283,13,79390,0,1.15,VALERO ENERGY CORP,079391280
2000,77012HLLPT9701M,VALERO REFINING - TEXAS LP HOUSTON REFINERY,9701 MANCHESTER,HOUSTON,HARRIS,TX,77012,29.720611,-95.249722,2911,,,,,,324110,,,,,,1300140054343,CARBONYL SULFIDE,000463581,YES,NON-PBT,NO,0,NO,R,Pounds,0,55,0,0,0,0,0,0,0,0,0,0,55,0,0,0,0,0,0,0,0,0,0,0,0,0,0,0,0,0,0,0,0,0,0,0,0,0,0,0,0,0,0,0,0,0,0,0,0,0,55,55,0,0,0,0,0,0,0,0,54900,0,54955,0,1.15,VALERO ENERGY CORP,079391280
2000,78380TXSCLPETRO,US ECOLOGY TEXAS INC,3277 COUNTY RD 69,ROBSTOWN,NUECES,TX,78380,27.725611,-97.660111,4953,,,,,,562211,,,,,,1300140054560,COPPER COMPOUNDS,N100,NO,NON-PBT,YES,1,NO,R,Pounds,0,0,0,0,0,72786,0,0,0,0,0,0,72786,0,0,0,0,0,0,0,0,0,0,0,0,0,0,0,0,0,0,0,0,0,0,0,0,0,0,0,0,0,0,0,0,0,0,0,0,0,72786,72786,0,0,0,0,0,0,0,0,0,0,72786,0,0,US ECOLOGY INC,118806587
2000,75160FLXBL501IN,FLEXIBLE FOAM PRODUCTS INC,501 INDUSTRIAL BLVD,TERRELL,KAUFMAN,TX,75160,32.715453,-96.278679,3086,,,,,,326150,,,,,,1300140018666,TOLUENE DIISOCYANATE (MIXED ISOMERS),026471625,NO,NON-PBT,NO,0,YES,R,Pounds,53,159,0,0,0,0,0,0,0,0,0,0,212,0,0,0,0,0,0,0,0,0,0,0,0,0,0,0,0,0,0,0,0,0,0,0,0,0,0,0,0,0,0,0,0,2600,0,0,0,2600,212,211,0,0,0,0,0,0,0,0,0,2600,2811,2600,1.02,OHIO DECORATIVE PRODUCTS INC,005036264
2000,78213CLMBN5005W,900 GLOBAL LLC,5005 W AVE,SAN ANTONIO,BEXAR,TX,78213,29.511544,-98.52595,3949,,,,,,339920,,,,,,1300140055120,STYRENE,000100425,YES,NON-PBT,NO,0,YES,R,Pounds,890,640,0,0,0,0,0,0,0,0,0,0,1530,0,0,0,0,0,0,0,0,0,85000,0,0,0,0,0,0,0,0,0,0,85000,0,0,0,0,0,0,0,0,0,0,0,0,0,0,0,0,86530,85003,0,0,0,0,0,0,0,0,0,0,85003,0,1,NA,NA
2000,75501LMXML300AL,ALUMAX MILL PRODUCTS INC,300 ALUMAX DR,TEXARKANA,BOWIE,TX,75501,33.450707,-94.134356,3355,3341,,,,,331314,,,,,,1300140044734,XYLENE (MIXED ISOMERS),001330207,YES,NON-PBT,NO,0,NO,R,Pounds,0,415,0,0,0,0,0,0,0,0,0,0,415,0,0,0,0,0,0,0,0,0,5,0,0,0,0,0,0,0,0,0,0,5,0,0,0,0,0,0,0,1410,1410,0,0,0,0,0,0,0,420,457,0,0,0,0,37350,1660,0,0,37350,0,76817,0,.83,ALCOA INC,001339472
2000,77630TDHLT91WFR,SIGNAL INTERNATIONAL TEXAS FRONT STREET YARD,91 W FRONT ST,ORANGE,ORANGE,TX,77630,30.091191,-93.728591,3731,,,,,,336611,,,,,,1300140012081,XYLENE (MIXED ISOMERS),001330207,YES,NON-PBT,NO,0,NO,R,Pounds,10183,0,0,0,0,0,0,0,0,0,0,0,10183,0,0,0,0,0,0,0,0,0,0,0,0,0,0,0,0,0,0,0,0,0,0,0,0,0,0,0,0,4363,4363,0,0,0,0,0,0,0,10183,10183,0,0,0,0,0,4363,0,0,0,0,14546,0,.36,ACON OFFSHORE PARTNERS LP,NA
2000,77562STHWS18310,SOUTHWEST SHIPYARD LP,18310 MARKET ST,CHANNELVIEW,HARRIS,TX,77530,29.789306,-95.065583,3731,,,,,,336611,,,,,,1300140022183,"1,3-BUTADIENE",000106990,YES,NON-PBT,NO,0,YES,R,Pounds,10,9751,0,0,0,0,0,0,0,0,0,0,9761,0,0,0,0,0,0,0,0,0,0,0,0,0,0,0,0,0,0,0,0,0,0,0,0,0,0,0,0,0,0,0,0,0,0,0,0,0,9761,9761,0,0,0,0,0,0,0,0,501211,0,510972,0,.55,SOUTHWEST SHIPYARD LP,002784957
2000,77562STHWS18310,SOUTHWEST SHIPYARD LP,18310 MARKET ST,CHANNELVIEW,HARRIS,TX,77530,29.789306,-95.065583,3731,,,,,,336611,,,,,,1300140022233,CHLOROFORM,000067663,YES,NON-PBT,NO,0,YES,R,Pounds,220,220,1,0,0,0,0,0,0,0,0,0,441,0,0,0,0,0,0,0,0,0,0,0,0,0,0,0,0,0,0,10,0,10,0,0,0,0,0,0,0,0,0,0,4597,0,0,0,0,4597,451,441,0,0,0,0,0,0,0,0,4019,4607,9067,0,1,SOUTHWEST SHIPYARD LP,002784957
2000,75211DRSSR3400W,HALLIBURTON ENERGY SERVICES INC,3400 W ILLINOIS AVE,DALLAS,DALLAS,TX,75211,32.7203,-96.875931,3533,,,,,,333132,,,,,,1300140045372,METHANOL,000067561,YES,NON-PBT,NO,0,NO,R,Pounds,3940,0,0,0,0,0,0,0,0,0,0,0,3940,0,0,0,0,0,0,0,0,0,0,0,0,0,0,0,0,0,0,0,0,0,0,0,0,0,0,0,0,0,0,0,0,0,0,0,0,0,3940,3940,0,0,0,0,0,0,0,0,0,0,3940,0,1.75,HALLIBURTON ENERGY SERVICES INC,043296920
2000,77507NVMLC10200,NOVA MOLECULAR TECHNOLOGIES I NC,10200 BAY AREA BLVD,PASADENA,HARRIS,TX,77507,29.60802,-95.0555,2869,,,,,,325199,,,,,,1300140051727,XYLENE (MIXED ISOMERS),001330207,YES,NON-PBT,NO,0,NO,R,Pounds,23,455,0,0,0,0,0,0,0,0,0,0,478,0,230,230,0,0,0,0,0,0,0,0,0,0,0,0,0,0,0,0,0,0,0,0,0,0,0,0,0,45440,45440,0,0,0,0,0,0,0,478,478,0,0,0,0,0,0,0,0,0,45440,45918,0,0,NA,NA
2000,77562STHWS18310,SOUTHWEST SHIPYARD LP,18310 MARKET ST,CHANNELVIEW,HARRIS,TX,77530,29.789306,-95.065583,3731,,,,,,336611,,,,,,1300140022359,CERTAIN GLYCOL ETHERS,N230,YES,NON-PBT,NO,0,NO,R,Pounds,186,20,1,0,0,0,0,0,0,0,0,0,207,0,0,0,0,0,0,0,0,0,0,0,0,0,0,0,0,0,0,10,0,10,0,0,0,0,0,0,0,0,0,0,1260,0,0,0,0,1260,217,207,0,0,0,0,0,0,0,0,24,1270,1501,0,.4,SOUTHWEST SHIPYARD LP,002784957
2000,77562STHWS18310,SOUTHWEST SHIPYARD LP,18310 MARKET ST,CHANNELVIEW,HARRIS,TX,77530,29.789306,-95.065583,3731,,,,,,336611,,,,,,1300140022409,METHYL METHACRYLATE,000080626,YES,NON-PBT,NO,0,NO,R,Pounds,0,0,0,0,0,0,0,0,0,0,0,0,0,0,0,0,0,0,0,0,0,0,0,0,0,0,0,0,0,0,0,0,0,0,0,0,0,0,0,0,0,0,0,0,0,0,0,0,0,0,0,0,0,0,0,0,0,0,0,0,0,0,0,0,.01,SOUTHWEST SHIPYARD LP,002784957
2000,77630FRSTNFARMR,FIRESTONE POLYMERS LLC,5713 FM 1006,ORANGE,ORANGE,TX,77630,30.044944,-93.788028,2822,,,,,,325212,,,,,,1300140012156,N-HEXANE,000110543,YES,NON-PBT,NO,0,NO,R,Pounds,30000,640000,0,0,0,0,0,0,0,0,0,0,670000,0,0,0,0,0,0,0,0,0,0,0,0,0,0,0,0,0,0,0,0,0,0,0,0,0,0,0,430000,0,430000,0,0,0,0,0,0,0,670000,670000,0,0,0,0,0,430000,0,0,0,0,1100000,9100,.92,BRIDGESTONE AMERICAS HOLDING INC,001288109
2000,76086JMKFB1401N,JAMAK FABRICATION INC,1401 N BOWIE DR,WEATHERFORD,PARKER,TX,76086,32.777326,-97.808838,3061,,,,,,326291,,,,,,1300140016130,METHANOL,000067561,YES,NON-PBT,NO,0,NO,R,Pounds,0,0,0,0,0,0,0,0,0,0,0,0,0,0,0,0,0,0,0,0,0,0,0,0,0,0,0,0,0,0,0,0,0,0,0,0,0,0,0,0,13904,0,13904,0,0,0,0,0,0,0,0,0,0,0,0,0,0,13904,0,0,0,0,13904,0,1.07,JMK INTERNATIONAL,150538122
2000,78130THCLM766HW,COLEMAN CO,766 FM 306,NEW BRAUNFELS,COMAL,TX,78130,29.737778,-98.088056,3086,,,,,,326000,,,,,,1300140045422,"1,1-DICHLORO-1-FLUOROETHANE",001717006,NO,NON-PBT,NO,0,NO,R,Pounds,23100,0,0,0,0,0,0,0,0,0,0,0,23100,0,0,0,0,0,0,0,0,0,0,0,0,0,0,0,0,0,0,0,0,0,0,0,0,0,0,0,0,0,0,0,0,900,0,0,0,900,23100,23100,0,0,0,0,0,0,0,0,0,900,24000,0,.99,JARDEN CORP,801875980
2000,75165WNSCRHWY35,OWENS CORNING INSULATING SYSTEMS LLC - WAXAHACHIE,3700 N INTERSTATE HWY 35E,WAXAHACHIE,ELLIS,TX,75165,32.437083,-96.84775,3296,,,,,,327993,,,,,,1300140048733,CHROMIUM,007440473,YES,NON-PBT,YES,1,YES,R,Pounds,0,0,0,0,0,0,0,0,0,0,0,0,0,0,0,0,0,0,0,0,0,0,21,0,0,0,0,0,0,0,0,0,0,21,0,16000,0,0,0,16000,0,0,0,0,0,0,0,0,0,0,21,21,0,0,0,0,0,0,0,16000,0,0,16021,0,.96,OWENS CORNING,796514466
2000,75091MMCST6800H,MEMC SOUTHWEST,6800 S US HWY 75,SHERMAN,GRAYSON,TX,750903490,33.555556,-96.611111,3674,,,,,,334413,,,,,,1300140051968,HYDROGEN FLUORIDE,007664393,YES,NON-PBT,NO,0,NO,R,Pounds,20,930,0,0,0,0,0,0,0,0,0,0,950,0,160,160,0,0,0,0,0,0,5,0,0,0,0,0,0,0,0,0,0,5,0,0,0,0,0,0,0,0,0,0,0,0,0,0,0,0,955,940,0,0,0,0,0,0,0,0,171000,165,172105,0,1.43,MEMC ELECTRONIC MATERIALS INC,361834617
2000,77502FRDSC3310P,BAYER CROPSCIENCE,3310 PASADENA BLVD,PASADENA,HARRIS,TX,77503,29.681423,-95.163267,2879,,,,,,325320,,,,,,1300140023033,PERMETHRIN,052645531,NO,NON-PBT,NO,0,NO,R,Pounds,0,.038,0,0,0,0,0,0,0,0,0,0,.038,0,0,0,0,0,0,0,0,0,0,0,0,0,0,0,0,0,0,0,0,0,0,0,0,0,0,0,0,0,0,0,250,0,0,0,0,250,.038,0,0,0,0,0,0,0,0,0,0,420,420,0,.86,BAYER GROUP,153994801
2000,76031TCHNC3327P,TECHNICAL CHEMICAL CO,3327 PIPELINE RD,CLEBURNE,JOHNSON,TX,76033,32.406995,-97.404793,2899,,,,,,325998,,,,,,1300140052299,TETRACHLOROETHYLENE,000127184,YES,NON-PBT,NO,0,YES,R,Pounds,250,0,0,0,0,0,0,0,0,0,0,0,250,0,0,0,0,0,0,0,0,0,0,0,0,0,0,0,0,0,0,0,0,0,0,0,0,0,0,0,0,0,0,0,0,0,0,0,0,0,250,265,0,0,0,0,0,0,0,0,0,0,265,0,1.34,NA,NA
2000,75972DWDPRHWY96,D & I WOOD PRODUCTS INC,157 FM 3451,SAN AUGUSTINE,SAN AUGUSTINE,TX,75972,31.582222,-94.130278,2491,,,,,,321114,,,,,,1300140013107,ARSENIC COMPOUNDS,N020,YES,NON-PBT,YES,1,NO,R,Pounds,0,0,0,0,0,0,0,0,0,0,0,0,0,0,0,0,250,0,0,0,0,0,0,0,0,0,0,0,0,0,0,0,0,250,0,0,0,0,0,0,0,0,0,0,0,0,0,0,0,0,250,1,0,0,0,0,0,0,0,0,0,0,1,0,1.01,NA,NA
2000,78680WSTNGIH35A,TECO-WESTINGHOUSE MOTOR CO,5100 N IH 35,ROUND ROCK,WILLIAMSON,TX,78681,30.57737,-97.69138,3621,,,,,,335312,,,,,,1300140052681,COPPER,007440508,NO,NON-PBT,YES,1,NO,R,Pounds,5,0,0,0,0,0,0,0,0,0,0,0,5,5,0,5,0,0,0,0,0,0,0,0,0,0,0,0,0,0,0,0,0,0,0,0,0,0,32820,32820,0,0,0,0,0,0,0,0,0,0,10,1,0,0,0,0,0,0,0,32820,0,0,32821,0,1,TECO HOLDINGS USA INC,NA
2000,77015MRCHM1914H,MERISOL USA LLC,1914 HADEN RD,HOUSTON,HARRIS,TX,77015,29.760361,-95.177833,2865,,,,,,325192,,,,,,1300140052731,TOLUENE,000108883,YES,NON-PBT,NO,0,NO,R,Pounds,665,5,1,2017,0,0,0,0,0,0,0,0,2688,0,0,0,0,0,0,0,0,0,0,0,0,0,0,0,0,0,0,0,0,0,0,0,0,0,0,0,0,0,0,0,71,0,0,0,0,71,2688,2598,0,0,0,0,0,0,11340,0,11720,71,25729,90,.95,MERISOL USA LLC,NA
2000,77015MRCHM1914H,MERISOL USA LLC,1914 HADEN RD,HOUSTON,HARRIS,TX,77015,29.760361,-95.177833,2865,,,,,,325192,,,,,,1300140052844,ANILINE,000062533,YES,NON-PBT,NO,0,NO,R,Pounds,0,0,1,135666,0,0,0,0,0,0,0,0,135667,0,0,0,0,0,0,0,0,0,0,0,0,0,0,0,0,0,0,0,0,0,0,0,0,0,0,0,0,0,0,0,0,0,0,0,0,0,135667,135667,0,0,0,0,0,0,0,0,0,0,135667,0,.95,MERISOL USA LLC,NA
2000,77041QSTCH12255,QUEST CHEMICAL CORP,12255 FM 529,HOUSTON,HARRIS,TX,77041,29.876374,-95.594666,2842,,,,,,325612,,,,,,1300140046499,TOLUENE,000108883,YES,NON-PBT,NO,0,NO,R,Pounds,300,0,0,0,0,0,0,0,0,0,0,0,300,0,0,0,0,0,0,0,0,0,0,0,0,0,0,0,0,0,0,0,0,0,0,0,0,0,0,0,0,0,0,0,0,0,0,0,0,0,300,300,0,0,0,0,0,0,200,0,0,0,500,0,.83,NA,NA
2000,75702LGLRL1702E,DELEK REFINING LTD,1702 E COMMERCE ST,TYLER,SMITH,TX,75702,32.3625,-95.28055,2911,,,,,,324110,,,,,,1300140043187,"BENZO(G,H,I)PERYLENE",000191242,YES,PBT,NO,0,YES,R,Pounds,0,.23,0,0,0,0,0,0,0,0,0,0,.23,0,0,0,0,0,0,0,0,0,0,0,0,0,0,0,0,0,0,0,0,0,0,0,0,0,0,0,0,0,0,0,0,0,0,0,0,0,.23,.23,0,0,0,0,0,0,0,0,0,0,.23,0,1.07,DELEK US HOLDINGS INC,624438219
2000,79604RDRFNNORTH,DELEK MARKETING & SUPPLY,8050 PRIVATE RD 314,ABILENE,JONES,TX,79601,32.54444,-99.7675,5171,,,,,,424710,,,,,,1300140046640,NAPHTHALENE,000091203,YES,NON-PBT,NO,0,NO,R,Pounds,17,940,0,0,0,0,0,0,0,0,0,0,957,0,0,0,0,0,0,0,0,0,0,0,0,0,0,0,0,0,0,0,0,0,0,0,0,0,0,0,0,0,0,0,0,0,0,0,0,0,957,957,0,0,0,0,0,0,0,0,0,0,957,0,.98,DELEK MARKETING & SUPPLY,NA
2000,77501GRGGL3503P,GEORGIA GULF CHEMICALS & VINYL S LLC - PASADENA,3503 PASADENA FWY,PASADENA,HARRIS,TX,775031105,29.732833,-95.1545,2865,,,,,,325192,,,,,,1300140049812,PHENOL,000108952,YES,NON-PBT,NO,0,NO,R,Pounds,10144,2333,6,0,0,0,0,0,0,0,0,0,12483,0,0,0,0,0,0,0,0,0,0,0,0,0,0,0,0,0,0,0,0,0,0,0,0,0,0,0,0,0,0,0,0,0,0,0,0,0,12483,12512,0,0,0,0,344695,0,2776219,0,119231,0,3252657,0,1.06,GEORGIA GULF CORP,120957840
2000,77501GRGGL3503P,GEORGIA GULF CHEMICALS & VINYL S LLC - PASADENA,3503 PASADENA FWY,PASADENA,HARRIS,TX,775031105,29.732833,-95.1545,2865,,,,,,325192,,,,,,1300140049937,"BENZO(G,H,I)PERYLENE",000191242,YES,PBT,NO,0,YES,R,Pounds,0,.001,0,0,0,0,0,0,0,0,0,0,.001,0,0,0,0,0,0,0,0,0,0,0,0,0,0,0,0,0,0,0,0,0,0,0,0,0,0,0,0,0,0,0,0,0,0,0,0,0,.001,.001,0,0,0,0,1149,0,0,0,0,0,1149.001,0,1.06,GEORGIA GULF CORP,120957840
2000,77641KMCNC2450S,KMCO PORT ARTHUR INC DBA KMTEX,2450 S GULFWAY DR,PORT ARTHUR,JEFFERSON,TX,77641,29.828587,-93.963257,2869,,,,,,325199,,,,,,1300140053190,N-HEXANE,000110543,YES,NON-PBT,NO,0,NO,R,Pounds,0,250,0,0,0,0,0,0,0,0,0,0,250,0,0,0,0,0,0,0,0,0,0,0,0,0,0,0,0,0,0,0,0,0,0,0,0,0,0,0,0,0,0,0,0,0,0,0,0,0,250,24,0,0,0,0,0,0,0,0,1141,0,1165,0,0,KMCO LP,074198961
2000,76092MSCMT400NK,MESCO METAL BUILDINGS,400 N. KIMBALL AVE.,SOUTHLAKE,TARRANT,TX,76092,32.94424,-97.11672,3448,,,,,,332311,,,,,,1300140050422,COPPER,007440508,NO,NON-PBT,YES,1,NO,R,Pounds,0,5,0,0,0,0,0,0,0,0,0,0,5,0,0,0,0,0,0,0,0,0,0,0,0,0,0,0,0,0,0,0,0,0,0,0,0,0,0,0,0,0,0,0,0,0,0,0,0,0,5,4,0,0,0,0,0,0,0,0,0,0,4,0,1.1,NCI BUILDING SYS INC,130234529
2000,77536TXSLK730BA,AKZO NOBEL POLYMER CHEMICALS LLC,730 INDEPENDENCE PKWY S,LA PORTE,HARRIS,TX,77571,29.709866,-95.090913,2869,,,,,,325199,,,,,,1300140053594,TOLUENE,000108883,YES,NON-PBT,NO,0,NO,R,Pounds,753,1038,0,0,0,0,0,0,0,0,0,0,1791,0,0,0,0,0,0,0,0,0,0,0,0,0,0,0,0,0,0,0,0,0,0,0,0,0,0,0,0,0,0,0,225218,0,0,0,0,225218,1791,1791,0,0,0,0,0,0,0,0,24847,225218,251856,0,1.09,AKZO NOBEL NV,062999347
2000,79108STHWSNLAKE,SOUTHWESTERN PUBLIC SERVICE CO HARRINGTON STATION,8400 N LAKESIDE DR,AMARILLO,POTTER,TX,79108,35.308056,-101.751333,4911,,,,,,221112,,,,,,1300140053721,ZINC COMPOUNDS,N982,NO,NON-PBT,YES,1,NO,R,Pounds,9,420,0,0,0,0,0,0,0,0,0,1500,1929,0,0,0,0,0,0,0,0,0,0,0,0,0,0,0,0,0,72000,0,0,72000,0,0,0,0,0,0,0,0,0,0,0,0,0,0,0,0,73929,74000,0,0,0,0,0,0,0,0,0,0,74000,0,1.11,XCEL ENERGY,848381245
2000,77536FNLND1818B,TOTAL PETROCHEMICALS USA INC,1818 INDEPENDENCE PKWY S,LA PORTE,HARRIS,TX,77571,29.727338,-95.08978,2821,,,,,,325211,,,,,,1300140047287,PROPYLENE,000115071,NO,NON-PBT,NO,0,NO,R,Pounds,45467,104175,0,0,0,0,0,0,0,0,0,0,149642,0,0,0,0,0,0,0,0,0,0,0,0,0,0,0,0,0,0,0,0,0,0,0,0,0,0,0,0,0,0,0,0,0,0,0,0,0,149642,149642,0,0,0,0,27579461,0,0,0,520426,0,28249529,3146,1.24,TOTAL DELAWARE INC,NA
2000,77041MDWST7301F,NCI BUILDING SYSTEMS LP,7301 FAIRVIEW,HOUSTON,HARRIS,TX,77041,29.884029,-95.594331,3448,,,,,,332312,,,,,,1300140050725,MANGANESE,007439965,YES,NON-PBT,YES,1,NO,R,Pounds,5,250,0,0,0,0,0,0,0,0,0,0,255,0,0,0,0,0,0,0,0,0,0,0,0,0,0,0,0,0,0,0,0,0,0,0,0,0,0,0,0,0,0,0,0,0,0,0,0,0,255,148,0,0,0,0,0,0,0,0,0,0,148,0,1.1,NCI GROUP INC,130234529
2000,79108STHWSNLAKE,SOUTHWESTERN PUBLIC SERVICE CO HARRINGTON STATION,8400 N LAKESIDE DR,AMARILLO,POTTER,TX,79108,35.308056,-101.751333,4911,,,,,,221112,,,,,,1300140053808,POLYCYCLIC AROMATIC COMPOUNDS,N590,YES,PBT,NO,0,YES,R,Pounds,0,3.1,0,0,0,0,0,0,0,0,0,0,3.1,0,0,0,0,0,0,0,0,0,0,0,0,0,0,0,0,0,0,0,0,0,0,0,0,0,0,0,0,0,0,0,0,0,0,0,0,0,3.1,3.1,0,0,0,0,0,0,0,0,1781.9,0,1785,0,0,XCEL ENERGY,848381245
2000,79371STHWS8MISW,SOUTHWESTERN PUBLIC SERVICE CO TOLK STATION,970 COUNTY RD 65,EARTH,LAMB,TX,79031,34.185,-102.5675,4911,,,,,,221112,,,,,,1300140053935,POLYCYCLIC AROMATIC COMPOUNDS,N590,YES,PBT,NO,0,YES,R,Pounds,0,3,0,0,0,0,0,0,0,0,0,0,3,0,0,0,0,0,0,0,0,0,0,0,0,0,0,0,0,0,0,0,0,0,0,0,0,0,0,0,0,0,0,0,0,0,0,0,0,0,3,3,0,0,0,0,0,0,0,0,1724,0,1727,0,0,XCEL ENERGY,848381245
2000,77501TNNCM4403L,ENRON METHANOL CO.,4403 PASADENA FWY.,PASADENA,HARRIS,TX,77503,29.712018,-95.146744,2869,,,,,,325000,,,,,,1300140040268,N-BUTYL ALCOHOL,000071363,NO,NON-PBT,NO,0,NO,R,Pounds,0,4,0,0,0,0,0,0,0,0,0,0,4,0,0,0,0,0,0,0,0,0,0,0,0,0,0,0,0,0,0,0,0,0,0,0,0,0,0,0,0,0,0,0,0,0,1748,0,0,1748,4,4,0,0,0,0,0,0,0,0,0,1748,1752,0,.9,ENRON CORP,969986983
2000,77979NNCRBPOBOX,UNION CARBIDE CORP SEADRIFT PLANT,7501 N HWY 185,SEADRIFT,CALHOUN,TX,77983,28.454193,-96.669086,2869,2891,2821,,,,325000,,,,,,1300140040383,BENZENE,000071432,YES,NON-PBT,NO,0,YES,R,Pounds,19976,78537,75,0,0,2454,0,0,0,0,0,0,101042,0,0,0,0,0,0,0,0,0,0,0,0,0,0,0,0,0,0,0,0,0,0,0,0,0,0,0,3498,0,3498,0,0,2,0,0,0,2,101042,101872,0,0,0,0,0,3498,0,0,10714,2,116086,0,.94,THE DOW CHEMICAL CO,001381581
2000,77979NNCRBPOBOX,UNION CARBIDE CORP SEADRIFT PLANT,7501 N HWY 185,SEADRIFT,CALHOUN,TX,77983,28.454193,-96.669086,2869,2891,2821,,,,325000,,,,,,1300140040609,TRIETHYLAMINE,000121448,YES,NON-PBT,NO,0,NO,R,Pounds,0,0,0,0,0,0,0,0,0,0,0,0,0,0,0,0,0,0,0,0,0,0,0,0,0,0,0,0,0,0,0,0,0,0,0,0,0,0,0,0,11767,0,11767,0,0,0,0,0,0,0,0,0,0,0,0,0,0,11767,0,0,0,0,11767,0,.92,THE DOW CHEMICAL CO,001381581
2000,77979NNCRBPOBOX,UNION CARBIDE CORP SEADRIFT PLANT,7501 N HWY 185,SEADRIFT,CALHOUN,TX,77983,28.454193,-96.669086,2869,2891,2821,,,,325000,,,,,,1300140040700,XYLENE (MIXED ISOMERS),001330207,YES,NON-PBT,NO,0,NO,R,Pounds,831,1888,0,0,0,3,0,0,0,0,0,0,2722,0,0,0,0,0,0,0,0,0,0,0,0,0,0,0,0,0,0,0,0,0,0,0,0,0,0,0,6585,0,6585,0,0,0,0,0,0,0,2722,2721,0,0,0,0,0,6585,0,0,6,0,9312,0,.94,THE DOW CHEMICAL CO,001381581
2000,78721MTRLN3501E,FREESCALE SEMICONDUCTOR - ED BLUESTEIN FACILITY,3501 ED BLUESTEIN BLVD,AUSTIN,TRAVIS,TX,78721,30.26987,-97.669444,3674,,,,,,334413,,,,,,1300140044064,NITRIC ACID,007697372,NO,NON-PBT,NO,0,NO,R,Pounds,63,1700,0,0,0,0,0,0,0,0,0,0,1763,0,0,0,0,0,0,0,0,0,0,0,0,0,0,0,0,0,0,0,0,0,0,0,0,0,0,0,0,0,0,0,0,0,0,0,0,0,1763,1800,0,0,0,0,0,0,0,0,120000,0,121800,0,1.01,FREESCALE SEMICONDUCTOR,NA
2000,77541GLFCH302MI,GULF CHEMICAL & METALLURGICAL CORP,302 MIDWAY RD,FREEPORT,BRAZORIA,TX,77541,28.956056,-95.336583,3341,,,,,,331492,,,,,,1300140026865,NITRATE COMPOUNDS,N511,NO,NON-PBT,NO,0,NO,R,Pounds,0,0,473972,0,0,0,0,0,0,0,0,0,473972,0,0,0,0,0,0,0,0,0,0,0,0,0,0,0,0,0,0,0,0,0,0,0,0,0,0,0,0,0,0,0,0,0,0,0,0,0,473972,473972,0,0,0,0,0,0,0,0,0,0,473972,0,.48,GULF CHEMICAL & METALLURGICAL CORP,NA
2000,76017NTNLS1111W,NATIONAL SEMICONDUCTOR CORP,1111 W BARDIN RD,ARLINGTON,TARRANT,TX,76017,32.672778,-97.1275,3674,,,,,,334413,,,,,,1300140033275,"HYDROCHLORIC ACID (1995 AND AFTER ""ACID AEROSOLS"" ONLY)",007647010,YES,NON-PBT,NO,0,NO,R,Pounds,0,1056,0,0,0,0,0,0,0,0,0,0,1056,0,0,0,0,0,0,0,0,0,0,0,0,0,0,0,0,0,0,0,0,0,0,0,4553,0,0,4553,0,0,0,0,0,0,0,0,0,0,1056,1056,0,0,0,0,0,0,0,0,12264,4553,17873,0,1.1,NATIONAL SEMICONDUCTOR CORP,041472986
2000,78219FRDRC4200N,FRIEDRICH AIR CONDITIONING CO LTD,4200 N PAN AM EXPRESSWAY,SAN ANTONIO,BEXAR,TX,782185214,29.45648,-98.41248,3585,,,,,,333415,,,,,,1300140069713,CHLORODIFLUOROMETHANE,000075456,NO,NON-PBT,NO,0,NO,R,Pounds,37180,0,0,0,0,0,0,0,0,0,0,0,37180,0,0,0,0,0,0,0,0,0,0,0,0,0,0,0,0,0,0,0,0,0,0,0,0,0,0,0,0,0,0,0,0,0,0,0,0,0,37180,37180,0,0,0,0,0,0,10000,0,0,0,47180,0,1.06,US NATURAL RESOURCES,087465449
2000,77507NSSKC10500,NISSEKI CHEMICAL TEXAS INC BAYPORT PLANT,10500 BAY AREA BLVD,PASADENA,HARRIS,TX,77507,29.608333,-95.051667,2869,,,,,,324110,,,,,,1300140004286,TOLUENE,000108883,YES,NON-PBT,NO,0,NO,R,Pounds,896,9,0,0,0,0,0,0,0,0,0,0,905,0,63,63,0,0,0,0,0,0,0,0,0,0,0,0,0,0,0,0,0,0,0,0,0,0,0,0,0,0,0,0,0,0,0,0,0,0,905,968,0,0,0,0,0,0,0,0,451,63,1482,0,0,NIPPON OIL,NA
2000,77041BKRHG12100,NOV TUBOSCOPE WEST LITTLE YORK COATING,12100 W LITTLE YORK RD,HOUSTON,HARRIS,TX,77041,29.869944,-95.587361,3479,,,,,,332812,,,,,,1300140008020,METHYL ETHYL KETONE,000078933,NO,NON-PBT,NO,0,NO,R,Pounds,312,46,0,0,0,0,0,0,0,0,0,0,358,0,0,0,0,0,0,0,0,0,0,0,0,0,0,0,0,0,0,0,0,0,0,0,0,0,0,0,29561,0,29561,0,0,0,0,0,0,0,358,358,0,0,0,0,0,29561,0,0,1342,0,31261,0,1.41,NATIONAL OILWELL VARCO LP,161681044
2000,77507VLCMP11500,KURARAY AMERICA-EVAL BU,11500 BAY AREA BLVD,PASADENA,HARRIS,TX,77507,29.621111,-95.04333,2821,,,,,,325211,,,,,,1300140008246,ACETALDEHYDE,000075070,YES,NON-PBT,NO,0,YES,R,Pounds,250,5,0,0,0,0,0,0,0,0,0,0,255,0,0,0,0,0,0,0,0,0,0,0,0,0,0,0,0,0,0,0,0,0,0,0,0,0,0,0,0,0,0,0,2418,0,0,0,0,2418,255,10,0,0,0,0,0,41924,0,0,0,0,41934,0,1.05,KURARAY AMERICA INC,NA
2000,77003LMNSM3600C,LAMONS GASKET CO,3600 CANAL,HOUSTON,HARRIS,TX,770031896,29.75165,-95.33622,3053,,,,,,339991,,,,,,1300140030432,CHROMIUM,007440473,YES,NON-PBT,YES,1,YES,R,Pounds,0,0,0,0,0,0,0,0,0,0,0,0,0,0,0,0,0,0,0,0,0,0,0,0,0,0,0,0,0,0,0,0,0,0,0,0,0,0,0,0,0,0,0,0,0,0,0,0,0,0,0,0,0,0,0,0,0,0,0,0,0,0,0,0,0,METALDYNE CORP,NA
2000,77061LMNSG7300A,LAMONS GASKET CO,7300 AIRPORT BLVD,HOUSTON,HARRIS,TX,77061,29.65409,-95.29215,3053,,,,,,332116,,,,,,1300140030471,CHROMIUM,007440473,YES,NON-PBT,YES,1,YES,R,Pounds,0,0,0,0,0,0,0,0,0,0,0,0,0,0,0,0,0,0,0,0,0,0,0,0,0,0,0,0,0,0,0,0,0,0,0,121814,0,0,0,121814,0,0,0,0,0,0,0,0,0,0,0,0,0,0,0,0,0,0,0,121814,0,0,121814,0,0,TRIMAS CORP,NA
2000,77292NTRNT6001A,INTERNATIONAL PAINT LLC,6001 ANTOINE DR,HOUSTON,HARRIS,TX,77091,29.85448,-95.4734,2851,,,,,,325510,,,,,,1300140066554,METHYL ISOBUTYL KETONE,000108101,YES,NON-PBT,NO,0,NO,R,Pounds,22,62,0,0,0,0,0,0,0,0,0,0,84,0,0,0,2941,0,0,0,0,0,0,0,0,0,0,0,0,0,0,0,0,2941,13340,0,0,0,0,13340,0,1859,1859,0,0,0,0,0,0,0,3025,84,0,0,0,0,0,15199,26070,0,0,0,41353,0,1,AKZO NOBEL NV,062999347
2000,77292NTRNT6001A,INTERNATIONAL PAINT LLC,6001 ANTOINE DR,HOUSTON,HARRIS,TX,77091,29.85448,-95.4734,2851,,,,,,325510,,,,,,1300140066628,ALUMINUM (FUME OR DUST),007429905,NO,NON-PBT,YES,4,NO,R,Pounds,0,0,0,0,0,0,0,0,0,0,0,0,0,0,0,0,177,0,0,0,0,0,0,0,0,0,0,0,0,0,0,449,0,626,0,261,0,0,0,261,0,0,0,0,0,0,0,0,0,0,626,0,0,0,0,0,0,710,343,0,0,0,1053,0,1,AKZO NOBEL NV,062999347
2000,75455FRNCD1300I,DEKORON WIRE & CABLE INC,1300 INDUSTRIAL BLVD,MOUNT PLEASANT,TITUS,TX,75455,33.171101,-94.962345,3357,,,,,,335929,,,,,,1300140142314,LEAD COMPOUNDS,N420,YES,PBT,YES,1,NO,R,Pounds,0,0,0,0,0,0,0,0,0,0,0,0,0,0,0,0,0,0,0,0,0,0,750,0,0,0,0,0,0,0,0,0,0,750,0,0,0,0,0,0,0,0,0,0,0,0,0,0,0,0,750,2000,0,0,0,0,0,0,370,0,0,0,2370,0,2.45,BERKSHIRE HATHAWAY,010216679
2000,77984KSPRLHWY95,KASPAR ELECTROPLATING CORP.,HWY. 95 N.,SHINER,LAVACA,TX,77984,29.436696,-97.164929,3471,,,,,,332813,,,,,,1300140107020,NICKEL,007440020,YES,NON-PBT,YES,1,YES,R,Pounds,0,0,0,0,0,0,0,0,0,0,0,0,0,44,0,44,0,0,0,0,0,0,0,0,0,0,0,0,0,0,0,0,0,0,0,3664,0,0,0,3664,0,0,0,0,0,0,0,0,0,0,44,44,0,0,0,0,0,0,0,3664,0,0,3708,0,1,NA,NA
2000,77024NDRFB7100O,ENDURO SYSTEMS INC.,7100 OLD KATY RD,HOUSTON,HARRIS,TX,77024,29.78361,-95.44631,3089,,,,,,326199,,,,,,1300140142415,XYLENE (MIXED ISOMERS),001330207,YES,NON-PBT,NO,0,NO,R,Pounds,5,3220,0,0,0,0,0,0,0,0,0,0,3225,0,0,0,0,0,0,0,0,0,0,0,0,0,0,0,0,0,0,0,0,0,0,0,0,0,0,0,0,0,0,0,0,0,0,0,0,0,3225,3320,0,0,0,0,0,0,0,0,0,0,3320,0,0,NA,NA
2000,77705LNCRP1400O,CHEMTRADE REFINERY SERVICES INC,1400 OLIN RD,BEAUMONT,JEFFERSON,TX,77705,30.046389,-94.06888,2819,,,,,,325188,,,,,,1300140077708,CHLORINE,007782505,YES,NON-PBT,NO,0,NO,R,Pounds,5,0,0,0,0,0,0,0,0,0,0,0,5,0,0,0,0,0,0,0,0,0,0,0,0,0,0,0,0,0,0,0,0,0,0,0,0,0,0,0,0,0,0,0,0,0,0,0,0,0,5,10,0,0,0,0,0,0,0,0,0,0,10,0,1,CHEMTRADE LOGISTICS INC,201126559
2000,77705LNCRP1400O,CHEMTRADE REFINERY SERVICES INC,1400 OLIN RD,BEAUMONT,JEFFERSON,TX,77705,30.046389,-94.06888,2819,,,,,,325188,,,,,,1300140077759,N-BUTYL ALCOHOL,000071363,NO,NON-PBT,NO,0,NO,R,Pounds,9,3,0,0,0,0,0,0,0,0,0,0,12,0,0,0,0,0,0,0,0,0,0,0,0,0,0,0,0,0,0,0,0,0,0,0,0,0,0,0,0,0,0,0,0,0,0,0,0,0,12,12,0,0,0,0,0,0,0,0,0,0,12,0,1.95,CHEMTRADE LOGISTICS INC,201126559
2000,75239SHLND8201S,AIR PRODUCTS & CHEMICALS INC,8201 S CENTRAL EXPRESSWAY,DALLAS,DALLAS,TX,75241,32.706667,-96.751667,2819,,,,,,325188,,,,,,1300140084308,HYDROGEN FLUORIDE,007664393,YES,NON-PBT,NO,0,NO,R,Pounds,13,342,2,0,0,0,0,0,0,0,0,0,357,0,0,0,0,0,0,0,0,0,0,0,0,0,0,0,0,0,0,0,0,0,0,0,0,0,0,0,0,0,0,0,0,0,225,0,1370,1595,357,357,0,0,0,0,0,0,0,0,0,1595,1952,0,1.21,AIR PRODUCTS & CHEMICALS INC,121433569
2000,75215BRCKW3301S,BWAY CORP,3301 S LAMAR ST,DALLAS,DALLAS,TX,75215,32.75589,-96.77854,3412,3479,,,,,332439,,,,,,1300140103730,METHYL ISOBUTYL KETONE,000108101,YES,NON-PBT,NO,0,NO,R,Pounds,0,9,0,0,0,0,0,0,0,0,0,0,9,0,0,0,0,0,0,0,0,0,0,0,0,0,0,0,0,0,0,0,0,0,0,0,0,0,0,0,0,0,0,0,0,0,0,0,0,0,9,9,0,0,0,0,300,0,0,0,0,0,309,0,1,BWY CORP,809993520
2000,77007HLLBR1201S,HALLIBURTON ENERGY SERVICES SAWYER,1201 SAWYER ST,HOUSTON,HARRIS,TX,77007,29.7699,-95.38277,3533,,,,,,332618,,,,,,1300140132895,CHROMIUM,007440473,YES,NON-PBT,YES,1,YES,R,Pounds,1,0,0,0,0,0,0,0,0,0,0,0,1,0,0,0,0,0,0,0,0,0,0,0,0,0,0,0,0,0,0,0,0,0,0,10359,0,0,0,10359,0,0,0,0,0,0,0,0,0,0,1,1,0,0,0,0,0,0,0,10359,0,0,10360,0,1,HALLIBURTON CO,964409007
2000,77507CLGNC9640B,ONDEO-NALCO,9640 BAYPORT BLVD.,PASADENA,HARRIS,TX,775071404,29.620929,-95.062713,2899,,,,,,325199,,,,,,1300140139763,SODIUM NITRITE,007632000,NO,NON-PBT,YES,2,NO,R,Pounds,0,0,0,0,0,0,0,0,0,0,0,0,0,0,250,250,0,0,0,0,0,0,0,0,0,0,0,0,0,0,0,0,0,0,0,0,0,0,0,0,0,0,0,0,0,0,0,0,0,0,0,0,0,0,0,0,0,0,0,0,300,0,300,0,0,DEGREMONT AMERICA HOLDINGS INC,NA
2000,75149LMXLM227TO,SENOX CORP,227 S TOWN E BLVD,MESQUITE,DALLAS,TX,75149,32.772274,-96.647629,3479,,,,,,332812,,,,,,1300140100847,CERTAIN GLYCOL ETHERS,N230,YES,NON-PBT,NO,0,NO,R,Pounds,21860,1600,0,0,0,0,0,0,0,0,0,0,23460,0,0,0,0,0,0,0,0,0,0,0,0,0,0,0,0,0,0,0,0,0,0,0,0,0,0,0,43145,0,43145,0,0,0,0,0,0,0,23460,23460,0,0,0,0,0,43145,0,0,0,0,66605,0,1.79,SENOX CORP,NA
2000,75670MRSHL707EV,MARSHALL MINERALS INC,707 EVANS ST,MARSHALL,HARRISON,TX,75670,32.550069,-94.379962,2048,,,,,,311119,,,,,,1300140086846,MANGANESE COMPOUNDS,N450,YES,NON-PBT,YES,1,NO,R,Pounds,0,250,0,0,0,0,0,0,0,0,0,0,250,0,0,0,0,0,0,0,0,0,0,0,0,0,0,0,0,0,0,0,0,0,0,0,0,0,0,0,0,0,0,0,0,0,0,0,0,0,250,0,0,0,0,0,0,0,3600,0,0,0,3600,0,1,NA,NA
2000,77547DYNGY12801,TARGA DOWNSTREAM LP GALENA PARK MARINE TERMINAL,12801 AMERICAN PETROLEUM RD,GALENA PARK,HARRIS,TX,77547,29.74098,-95.2123,5171,,,,,,424710,,,,,,1300140096645,PROPYLENE,000115071,NO,NON-PBT,NO,0,NO,R,Pounds,60,4511,0,0,0,0,0,0,0,0,0,0,4571,0,0,0,0,0,0,0,0,0,0,0,0,0,0,0,0,0,0,0,0,0,0,0,0,0,0,0,0,0,0,0,0,0,0,0,0,0,4571,4571,0,0,0,0,0,0,0,0,0,0,4571,0,.33,TARGA RESOURCES INC,138735688
2000,78154CRNDP7451F,CORONADO PAINT CO,7451 FM 3009,SCHERTZ,COMAL,TX,78154,29.609722,-98.284722,2851,,,,,,325510,,,,,,1300140129798,ETHYLENE GLYCOL,000107211,YES,NON-PBT,NO,0,NO,R,Pounds,1700,0,0,0,0,0,0,0,0,0,0,0,1700,0,0,0,0,0,0,0,0,0,0,0,0,0,0,0,0,0,0,0,0,0,0,0,0,0,0,0,0,0,0,0,0,0,0,0,0,0,1700,1700,0,0,0,0,0,0,218,0,0,0,1918,0,.77,CORONADO PAINT CO,082400441
2000,77303CHMCL5HACK,CHEMICAL SPECIALISTS & DEVELOPMENT INC,2210 HACKBERRY LN,CUT AND SHOOT,MONTGOMERY,TX,77303,30.320797,-95.389303,5169,,,,,,424690,,,,,,1300140140613,ETHYLBENZENE,000100414,YES,NON-PBT,NO,0,NO,R,Pounds,4,39,0,0,0,0,0,0,0,0,0,0,43,0,0,0,0,0,0,0,0,0,0,0,0,0,0,0,0,0,0,0,0,0,0,0,0,0,0,0,0,0,0,0,0,0,0,0,0,0,43,43,0,0,0,0,0,0,0,0,0,0,43,0,.79,NA,NA
2000,77051FRMNC2434H,COOK COMPOSITES & POLYMERS CO,2434 HOLMES RD,HOUSTON,HARRIS,TX,770511096,29.671628,-95.392997,2821,2869,,,,,325211,,,,,,1300140093790,ETHYL ACRYLATE,000140885,YES,NON-PBT,NO,0,YES,R,Pounds,250,250,0,0,0,0,0,0,0,0,0,0,500,0,0,0,0,0,0,0,0,0,0,0,0,0,0,0,0,0,0,0,0,0,0,0,0,0,0,0,10517,0,10517,0,3856,0,0,0,0,3856,500,96,0,0,0,0,0,10517,0,0,0,3856,14469,0,1.51,COOK COMPOSITES & POLYMERS CO,610416802
2000,76118TCRBB7101G,ATCO RUBBER PRODUCTS INC,7101 ATCO DR,FORT WORTH,TARRANT,TX,76118,32.7912,-97.22752,3083,2893,2653,3444,,,326130,,,,,,1300140087115,DECABROMODIPHENYL OXIDE,001163195,NO,NON-PBT,NO,0,NO,R,Pounds,5,1260,0,0,0,0,0,0,0,0,0,0,1265,0,0,0,0,0,0,0,0,0,2000,0,0,0,0,0,0,0,0,0,0,2000,0,0,0,0,0,0,0,0,0,0,0,0,0,0,0,0,3265,2000,0,0,0,0,0,0,0,0,0,0,2000,0,1,NA,NA
2000,77051FRMNC2434H,COOK COMPOSITES & POLYMERS CO,2434 HOLMES RD,HOUSTON,HARRIS,TX,770511096,29.671628,-95.392997,2821,2869,,,,,325211,,,,,,1300140093865,METHANOL,000067561,YES,NON-PBT,NO,0,NO,R,Pounds,0,0,0,0,0,0,0,0,0,0,0,0,0,0,0,0,0,0,0,0,0,0,0,0,0,0,0,0,0,0,0,0,0,0,0,0,0,0,0,0,6757,0,6757,0,364,0,0,0,0,364,0,0,0,0,0,0,0,6757,0,0,0,364,7121,0,1.51,COOK COMPOSITES & POLYMERS CO,610416802
2000,75670FRMNRSCOTT,COOK COMPOSITES & POLYMERS CO,5851 FM 1998,MARSHALL,HARRISON,TX,75672,32.545241,-94.296227,2821,,,,,,325211,,,,,,1300140094261,MALEIC ANHYDRIDE,000108316,YES,NON-PBT,NO,0,NO,R,Pounds,250,250,0,0,0,0,0,0,0,0,0,0,500,0,0,0,0,0,0,0,0,0,0,0,0,0,0,0,0,0,0,0,0,0,0,0,0,0,0,0,0,0,0,0,438,0,125,0,0,563,500,308,0,0,0,0,0,0,0,0,0,563,871,0,1,COOK COMPOSITES & POLYMERS CO,610416802
2000,79013SBFTTSCHRO,S. B. FOOT TANNING CO,SCHROETER INDUSTRIAL PARK,CACTUS,MOORE,TX,79013,36.041111,-102.00861,3111,,,,,,316110,,,,,,1300140094463,AMMONIA,007664417,NO,NON-PBT,NO,0,NO,R,Pounds,20451,0,0,0,0,0,0,0,0,0,0,0,20451,0,61353,61353,0,0,0,0,0,0,0,0,0,0,0,0,0,0,0,0,0,0,0,0,0,0,0,0,0,0,0,0,0,0,0,0,0,0,20451,20500,0,0,0,0,0,0,0,0,0,61300,81800,0,.92,RED WING SHOE CO,006154496
2000,75503KRRMC155BU,KERR MCGEE CHEMICAL LLC,2513 BUCHANAN RD,TEXARKANA,BOWIE,TX,75501,33.385452,-94.061081,2491,,,,,,321114,,,,,,1300140127325,CREOSOTE,008001589,NO,NON-PBT,NO,0,YES,R,Pounds,4100,2400,0,0,0,0,0,0,0,0,0,0,6500,0,0,0,0,0,0,0,0,0,0,0,0,0,0,0,0,0,0,0,0,0,0,0,0,0,0,0,34100,0,34100,0,0,0,0,0,0,0,6500,18100,0,0,0,0,0,34100,2800000,0,2800000,0,5652200,22500,1.09,KERR-MCGEE CORP LLC,007188667
2000,76712MRTHN8301I,MARATHONNORCO AEROSPACE INC,8301 IMPERIAL DR,WACO,MCLENNAN,TX,76712,31.494444,-97.206944,3691,,,,,,335911,,,,,,1300140065982,CADMIUM COMPOUNDS,N078,YES,NON-PBT,YES,1,NO,R,Pounds,0,0,0,0,0,0,0,0,0,0,0,0,0,5,0,5,0,0,0,0,0,0,1418,0,0,0,0,0,0,0,0,0,0,1418,0,2149,0,0,16677,18826,0,0,0,0,0,0,0,0,0,0,1423,0,0,0,0,0,0,0,0,16677,0,3567,20244,0,.74,TRANS DIGM INC,808784326
2000,76086JMPKN1226W,JUMPKING OUTDOOR PRODUCTS WEATHERFORD DIV.,1226 W. PARK AVE.,WEATHERFORD,PARKER,TX,76086,32.731091,-97.818753,3949,,,,,,339920,,,,,,1300140089032,ZINC COMPOUNDS,N982,NO,NON-PBT,YES,1,NO,R,Pounds,2837,0,0,0,0,0,2837,0,0,0,0,0,5674,0,0,0,0,0,0,0,0,0,0,0,0,0,0,0,0,0,0,0,0,0,0,79222,0,0,0,79222,0,0,0,0,0,0,0,0,0,0,5674,5674,0,0,0,0,0,0,0,79222,0,0,84896,0,87.4,ICON HEALTH & FITNESS INC,083922229
2000,76110TNDYW3500M,TANDY WIRE & CABLE,3500 MCCART AVE.,FORT WORTH,TARRANT,TX,761104696,32.6986,-97.35297,3357,,,,,,335921,,,,,,1300140088877,LEAD COMPOUNDS,N420,YES,PBT,YES,1,NO,R,Pounds,0,0,0,0,0,0,0,0,0,0,0,0,0,0,0,0,0,0,0,0,0,0,0,0,0,0,0,0,0,0,0,0,0,0,0,3510,0,0,0,3510,0,0,0,0,0,0,0,0,0,0,0,0,0,0,0,0,0,0,0,3339,0,0,3339,0,1.06,TANDY CORP,008012635
2000,75081HNYWL830EA,HONEYWELL INTERNATIONAL INC,830 E ARAPAHO RD,RICHARDSON,DALLAS,TX,75081,32.960615,-96.71236,3674,,,,,,334413,,,,,,1300140125028,AMMONIA,007664417,NO,NON-PBT,NO,0,NO,R,Pounds,0,0,0,0,0,0,0,0,0,0,0,0,0,0,2503,2503,0,0,0,0,0,0,0,0,0,0,0,0,0,0,0,0,0,0,0,0,0,0,0,0,0,0,0,0,0,0,0,0,0,0,0,2502,0,0,0,0,0,0,0,0,0,0,2502,0,0,HONEYWELL INTERNATIONAL INC,139691877
2000,75088GLCPL5201G,GLECO PLATING INC,5201 GRISHAM,ROWLETT,DALLAS,TX,75088,32.906543,-96.582499,3471,,,,,,332813,,,,,,1300140085770,COPPER,007440508,NO,NON-PBT,YES,1,NO,R,Pounds,0,0,0,0,0,0,0,0,0,0,0,0,0,10,0,10,0,0,0,0,0,0,0,0,0,0,0,0,0,0,0,0,0,0,0,20504,0,0,0,20504,0,0,0,0,0,0,0,0,0,0,10,10,0,0,0,0,0,0,0,20504,0,0,20514,0,0,GLECO PLATING INC,NA
2000,76010GNRLM2525E,GMC TRUCK GROUP ARLINGTON ASSEMBLY PLANT,2525 E ABRAMS ST,ARLINGTON,TARRANT,TX,760101346,32.738884,-97.070168,3713,,,,,,336112,,,,,,1300140085871,CERTAIN GLYCOL ETHERS,N230,YES,NON-PBT,NO,0,NO,R,Pounds,3700,22000,0,0,0,0,0,0,0,0,0,0,25700,0,31000,31000,0,0,0,0,0,0,0,0,0,0,0,0,0,0,0,0,0,0,5500,0,0,0,0,5500,530,38,568,0,0,0,0,0,0,0,25700,25000,0,0,0,0,0,560,0,5500,18000,31000,80060,0,.83,GENERAL MOTORS LLC,831247536
2000,76010GNRLM2525E,GMC TRUCK GROUP ARLINGTON ASSEMBLY PLANT,2525 E ABRAMS ST,ARLINGTON,TARRANT,TX,760101346,32.738884,-97.070168,3713,,,,,,336112,,,,,,1300140085960,MANGANESE COMPOUNDS,N450,YES,NON-PBT,YES,1,NO,R,Pounds,0,0,0,0,0,0,0,0,0,0,0,0,0,360,0,360,0,0,0,0,0,0,3280,0,0,0,0,0,0,0,0,0,0,3280,0,0,0,0,0,0,0,0,0,0,0,0,0,0,0,0,3640,3600,0,0,0,0,0,0,0,0,0,0,3600,0,0,GENERAL MOTORS LLC,831247536
2000,77011JBSMT6618N,J.B. SMITH MANUFACTURING CO,6618 NAVIGATION BLVD,HOUSTON,HARRIS,TX,77011,29.746379,-95.306943,3498,,,,,,332996,,,,,,1300140081858,NICKEL,007440020,YES,NON-PBT,YES,1,YES,R,Pounds,0,0,0,0,0,0,0,0,0,0,0,0,0,0,0,0,0,0,0,0,0,0,0,0,0,0,0,0,0,0,0,0,0,0,0,19042,0,0,0,19042,0,0,0,0,0,0,0,0,0,0,0,19042,0,0,0,0,0,0,0,19402,0,0,38444,0,0,ANVIL INTERNATIONAL,NA
2000,76804KHLRCMILAM,KOHLER CO,4601 HWY 377 S,BROWNWOOD,BROWN,TX,76801,31.664306,-98.991972,3261,3088,,,,,327111,,,,,,1300140099298,METHYL METHACRYLATE,000080626,YES,NON-PBT,NO,0,NO,R,Pounds,431,13671,0,0,0,0,0,0,0,0,0,0,14102,0,0,0,0,0,0,0,0,0,0,0,0,0,0,0,0,0,0,0,0,0,0,0,0,0,0,0,0,0,0,0,0,0,0,0,0,0,14102,14100,0,0,0,0,0,0,0,0,260,0,14360,0,1.04,KOHLER CO,006073225
2000,75229GHHNS2108J,HENSLEY INDUSTRIES INC,2108 JOE FIELD RD,DALLAS,DALLAS,TX,75229,32.89296,-96.907241,3325,,,,,,331513,,,,,,1300140108352,NICKEL,007440020,YES,NON-PBT,YES,1,YES,R,Pounds,0,0,0,0,0,0,0,0,0,0,0,0,0,0,0,0,0,0,0,0,0,0,0,0,0,0,0,0,0,0,0,0,0,0,0,0,0,0,0,0,0,0,0,0,0,0,0,0,0,0,0,0,0,0,0,0,0,0,0,0,0,0,0,0,0,KOMATSU AMERICA CORP,618750772
2000,75604STRHC1001F,REXAM BEVERAGE CAN CO RE: LONGVIEW FACILITY,1001 FISHER RD,LONGVIEW,GREGG,TX,75604,32.51,-94.818347,3411,,,,,,332431,,,,,,1300140134646,N-BUTYL ALCOHOL,000071363,NO,NON-PBT,NO,0,NO,R,Pounds,17375,98460,0,0,0,0,0,0,0,0,0,0,115835,0,0,0,0,0,0,0,0,0,0,0,0,0,0,0,0,0,0,0,0,0,0,0,0,0,0,0,42,0,42,0,0,0,0,0,0,0,115835,115836,0,0,0,0,0,42,0,0,0,0,115878,0,1.28,REXAM BEVERAGE CAN CO,005105366
2000,77044HSTNH8600P,NOV TUBOSCOPE HIGHWAY 90,8600 PINELAND DR,HOUSTON,HARRIS,TX,77044,29.84982,-95.174494,3479,,,,,,332812,,,,,,1300140137959,METHYL ISOBUTYL KETONE,000108101,YES,NON-PBT,NO,0,NO,R,Pounds,0,4954,0,0,0,0,0,0,0,0,0,0,4954,0,0,0,0,0,0,0,0,0,0,0,0,0,0,0,0,0,0,0,0,0,0,0,0,0,0,0,3896,0,3896,0,0,0,0,0,0,0,4954,4954,0,0,0,0,0,3896,0,0,0,0,8850,0,.9,NATIONAL OILWELL VARCO LP,161681044
2000,77305TBSCP2800N,VARCO CREXEL DIV. DREXEL OILFIELD SERVICES,2800 N. FRAZIER,CONROE,MONTGOMERY,TX,77303,30.350729,-95.471805,3533,,,,,,333132,,,,,,1300140138001,METHYL ETHYL KETONE,000078933,NO,NON-PBT,NO,0,NO,R,Pounds,0,9282,0,0,0,0,0,0,0,0,0,0,9282,0,0,0,0,0,0,0,0,0,0,0,0,0,0,0,0,0,0,0,0,0,0,0,0,0,0,0,0,0,0,0,0,0,0,0,0,0,9282,9282,0,0,0,0,0,0,0,0,0,0,9282,0,2.17,VARCO LP,197220874
2000,76427RMRNNHWY38,AERO-MARINE ENGINEERING INC,708 W DEMPSEY ST ( HWY 380 W),BRYSON,JACK,TX,76427,33.1575,-98.399444,3479,,,,,,332812,,,,,,1300140076821,XYLENE (MIXED ISOMERS),001330207,YES,NON-PBT,NO,0,NO,R,Pounds,0,12364,0,0,0,0,0,0,0,0,0,0,12364,0,0,0,0,0,0,0,0,0,0,0,0,0,0,0,0,0,0,0,0,0,0,0,0,0,0,0,1378,0,1378,0,0,0,0,0,0,0,12364,13742,0,0,0,0,0,1378,0,0,0,0,15120,0,.7,NA,NA
2000,75155CSTNT3030S,CASITA ENTERPRISES INC,3030 SO MCKINNEY,RICE,NAVARRO,TX,75155,32.18884,-96.47206,3792,,,,,,336214,,,,,,1300140108630,DICHLOROMETHANE,000075092,YES,NON-PBT,NO,0,YES,R,Pounds,250,14100,0,0,0,0,0,0,0,0,0,0,14350,0,0,0,0,0,0,0,0,0,0,0,0,0,0,0,0,0,0,0,250,250,0,0,0,0,0,0,0,0,0,0,0,0,0,0,0,0,14600,14100,0,0,0,0,0,0,0,0,0,110,14210,0,1.5,NA,NA
2000,78245DVNCD8611M,SONY SEMICONDUCTOR  SAN ANTONIO,ONE SONY PL,SAN ANTONIO,BEXAR,TX,78245,29.44489,-98.64136,3674,,,,,,334413,,,,,,1300140080185,AMMONIA,007664417,NO,NON-PBT,NO,0,NO,R,Pounds,5,7100,0,0,0,0,0,0,0,0,0,0,7105,0,3200,3200,0,0,0,0,0,0,0,0,0,0,0,0,0,0,0,0,0,0,0,0,0,0,0,0,0,0,0,0,0,0,0,0,0,0,7105,7100,0,0,0,0,0,0,0,0,0,3200,10300,0,1.39,SONY CORP OF AMERICA,005902150
2000,75507SDDRDSDSRR,US ARMY RED RIVER ARMY DEPOT,100 MAIN DR,TEXARKANA,BOWIE,TX,75507,33.426667,-94.236667,9711,,,,,,928110,,,,,,1300140109125,DIBUTYL PHTHALATE,000084742,YES,NON-PBT,NO,0,NO,R,Pounds,0,0,0,0,0,0,0,0,0,0,0,0,0,0,0,0,0,0,0,0,0,0,0,0,0,0,0,0,0,0,0,0,0,0,0,0,0,0,0,0,0,0,0,0,0,0,0,0,0,0,0,0,0,0,0,0,0,0,0,0,63351,0,63351,0,1.01,US DEPARTMENT OF DEFENSE,NA
2000,77984KSPRWHWY95,KASPAR WIRE WORKS INC.,959 HWY 95 N,SHINER,LAVACA,TX,77984,29.436696,-97.164929,3496,,,,,,332618,,,,,,1300140132186,TOLUENE,000108883,YES,NON-PBT,NO,0,NO,R,Pounds,14150,197,0,0,0,0,0,0,0,0,0,0,14347,0,0,0,0,0,0,0,0,0,0,0,0,0,0,0,0,0,0,0,0,0,0,0,0,0,0,0,0,0,0,0,0,0,0,0,0,0,14347,14347,0,0,0,0,0,0,0,0,0,0,14347,0,.72,NA,NA
2000,78654HGHLN1405T,HIGHLAND LAKES QUALITY CASTING INC,1405 TRADE ST,MARBLE FALLS,BURNET,TX,78654,30.597134,-98.268625,3324,,,,,,331512,,,,,,1300140109529,NICKEL,007440020,YES,NON-PBT,YES,1,YES,R,Pounds,0,0,0,0,0,0,0,0,0,0,0,0,0,0,0,0,0,0,0,0,0,0,250,0,0,0,0,0,0,0,0,0,0,250,0,0,0,0,0,0,0,0,0,0,0,0,0,0,0,0,250,770,0,0,0,0,0,0,0,0,0,0,770,0,0,NA,NA
2000,75086SBRSS90110,TENTH STREET INDUSTRIES,901 10TH ST.,PLANO,COLLIN,TX,75074,33.01337,-96.70357,3432,3451,3471,,,,332813,,,,,,1300140112879,NICKEL,007440020,YES,NON-PBT,YES,1,YES,R,Pounds,0,0,0,0,0,0,2,0,0,0,0,2,4,5,0,5,0,0,0,0,0,0,0,0,0,0,0,0,0,2,0,0,0,2,0,3,0,0,0,3,0,0,0,0,0,0,0,0,0,0,11,4,0,0,0,0,0,0,4500,400,120,0,5024,0,50,NA,NA
2000,75041SHRWN2802W,SHERWIN-WILLIAMS CO,2802 W MILLER RD,GARLAND,DALLAS,TX,75041,32.894398,-96.670863,2851,,,,,,325510,,,,,,1300140241845,METHYL ETHYL KETONE,000078933,NO,NON-PBT,NO,0,NO,R,Pounds,1953,1146,0,0,0,0,0,0,0,0,0,0,3099,0,0,0,0,0,0,0,0,0,0,0,0,0,0,0,0,0,0,0,0,0,150337,0,0,0,0,150337,306887,0,306887,0,52,0,0,53,0,105,3099,3099,0,0,0,0,0,306887,2438,150337,0,105,462866,0,.96,THE SHERWIN WILLIAMS CO,004206397
2000,75041SHRWN2802W,SHERWIN-WILLIAMS CO,2802 W MILLER RD,GARLAND,DALLAS,TX,75041,32.894398,-96.670863,2851,,,,,,325510,,,,,,1300140241908,METHYL ISOBUTYL KETONE,000108101,YES,NON-PBT,NO,0,NO,R,Pounds,41,559,0,0,0,0,0,0,0,0,0,0,600,0,0,0,0,0,0,0,0,0,0,0,0,0,0,0,0,0,0,0,0,0,207,0,0,0,0,207,807,0,807,0,9,0,0,0,0,9,600,600,0,0,0,0,0,849,459,207,0,9,2124,0,.96,THE SHERWIN WILLIAMS CO,004206397
2000,77571DPNTL12501,DUPONT LA PORTE PLANT,12501 STRANG RD,LA PORTE,HARRIS,TX,775710347,29.700806,-95.029806,2869,2819,2879,,,,325320,,,,,,1300140168396,METHYL ISOCYANATE,000624839,YES,NON-PBT,NO,0,NO,R,Pounds,0,13,0,0,0,0,0,0,0,0,0,0,13,0,0,0,0,0,0,0,0,0,0,0,0,0,0,0,0,0,0,0,0,0,0,0,0,0,0,0,0,0,0,0,0,0,0,0,0,0,13,13,0,0,0,0,0,0,0,0,2641,0,2654,0,.95,E I DU PONT DE NEMOURS & CO INC,001315704
2000,77571QNTMC11603,LYONDELLBASELL ACETYLS LLC,1350 MILLER CUT-OFF RD,LA PORTE,HARRIS,TX,77571,29.713889,-95.06833,2869,,,,,,325000,,,,,,1300140245628,HYDROQUINONE,000123319,YES,NON-PBT,NO,0,NO,R,Pounds,0,0,0,0,0,0,0,0,0,0,0,0,0,0,0,0,0,0,0,0,0,0,0,0,0,0,0,0,0,0,0,0,0,0,0,0,0,0,0,0,11,0,11,0,0,0,0,0,0,0,0,0,0,0,0,0,0,11,0,0,4,0,15,0,1.24,LYONDELLBASELL INDUSTRIES,008080681
2000,77501RSTCH4403L,BASF CORP PASADENA PLANT,4403 LAPORTE HWY 225,PASADENA,HARRIS,TX,77501,29.731639,-95.152083,2865,2869,,,,,325110,,,,,,1300140245705,O-XYLENE,000095476,YES,NON-PBT,NO,0,NO,R,Pounds,1584,694,0,0,0,0,0,0,0,0,0,0,2278,0,0,0,0,0,0,0,0,0,0,0,0,0,0,0,0,0,0,1300,0,1300,0,0,0,0,0,0,0,0,0,0,0,0,0,0,0,0,3578,2278,0,0,0,0,0,0,0,0,12618,1300,16196,0,1.04,BASF CORP,071014385
2000,77571RSTCH8811S,BRASKEM AMERICA INC - LAPORTE SITE,8811 STRANG RD,LA PORTE,HARRIS,TX,77572,29.705278,-95.079444,2821,,,,,,325211,,,,,,1300140245871,N-HEXANE,000110543,YES,NON-PBT,NO,0,NO,R,Pounds,28130,21400,3100,0,0,0,0,0,0,0,0,0,52630,0,0,0,0,0,0,0,0,0,0,0,0,0,0,0,0,0,0,0,0,0,0,0,0,0,0,0,0,0,0,0,0,0,0,0,0,0,52630,52630,0,0,0,0,0,0,0,0,1087950,0,1140580,1500,1.7,NA,NA
2000,77571DPNTL12501,DUPONT LA PORTE PLANT,12501 STRANG RD,LA PORTE,HARRIS,TX,775710347,29.700806,-95.029806,2869,2819,2879,,,,325188,,,,,,1300140168232,NICKEL COMPOUNDS,N495,YES,NON-PBT,YES,1,NO,R,Pounds,0,0,712,0,0,0,0,0,0,0,0,0,712,0,0,0,0,110,0,0,0,0,2743,0,0,0,0,0,0,0,0,0,0,2853,0,0,0,0,0,0,0,0,0,0,0,0,0,0,0,0,3565,3565,0,0,0,0,0,0,0,0,0,0,3565,0,1.1,E I DU PONT DE NEMOURS & CO INC,001315704
2000,77571LNDGS11603,LINDE GAS NORTH AMERICA LLC,11603 STRANG RD,LA PORTE,HARRIS,TX,77571,29.706291,-95.057016,2813,,,,,,325120,,,,,,1300140253523,CHLORINE,007782505,YES,NON-PBT,NO,0,NO,R,Pounds,0,0,0,0,0,0,0,0,0,0,0,0,0,0,0,0,0,0,0,0,0,0,0,0,0,0,0,0,0,0,0,0,0,0,0,0,0,0,0,0,0,0,0,0,0,0,0,0,0,0,0,0,0,0,0,0,0,0,0,0,0,0,0,0,0,LINDE LLC,NA
2000,75711THTRN6200T,TRANE US INC,6200 TROUP HWY,TYLER,SMITH,TX,75707,32.2902,-95.255566,3585,,,,,,333415,,,,,,1300140253675,COPPER,007440508,NO,NON-PBT,YES,1,NO,R,Pounds,450,0,0,0,0,0,0,0,0,0,0,0,450,5,0,5,0,0,0,0,0,0,0,0,0,0,0,0,0,0,0,0,0,0,0,0,0,0,200000,200000,0,0,0,0,0,0,0,0,0,0,455,450,0,0,0,0,0,0,0,200000,0,0,200450,0,1.03,INGERSOLL-RAND CO,001344621
2000,79765PNRCH4315S,PIONEER CHEMICAL INC.,4315 S. COUNTY RD. #1290,ODESSA,MIDLAND,TX,79765,31.903889,-102.229444,5169,,,,,,424690,,,,,,1300140172077,TOLUENE,000108883,YES,NON-PBT,NO,0,NO,R,Pounds,3,68,0,0,0,0,0,0,0,0,0,0,71,0,0,0,0,0,0,0,0,0,0,0,0,0,0,0,0,0,0,0,0,0,0,0,0,0,0,0,0,0,0,0,0,0,0,0,0,0,71,71,0,0,0,0,0,0,0,0,0,0,71,0,0,E & E (US) INC,187240676
2000,77507DNLMR9675B,DIANAL AMERICA INC,9675 BAYPORT BLVD,PASADENA,HARRIS,TX,77507,29.621194,-95.062881,2821,,,,,,325211,,,,,,1300140165806,MALEIC ANHYDRIDE,000108316,YES,NON-PBT,NO,0,NO,R,Pounds,0,1,0,0,0,0,0,0,0,0,0,0,1,0,5,5,0,0,0,0,0,0,0,0,0,0,0,0,0,0,0,0,0,0,0,0,0,0,0,0,0,0,0,0,0,0,0,0,0,0,1,1,0,0,0,0,0,0,0,0,0,1,2,0,0,MITSUBISHI RAYON CO LTD,690553821
2000,79311BRNTH3MILE,ABERNATHY REFINED PRODUCTS TERMINAL,3 MILES N ON IH-27 1/2 MILE ON HWY 54,ABERNATHY,HALE,TX,79311,33.839209,-101.839515,5171,,,,,,424710,,,,,,1300140206210,METHYL TERT-BUTYL ETHER,001634044,YES,NON-PBT,NO,0,NO,R,Pounds,1602,4192,0,0,0,0,0,0,0,0,0,0,5794,0,0,0,0,0,0,0,0,0,0,0,0,0,0,0,250,0,250,0,0,500,0,0,0,0,0,0,0,0,0,0,0,0,0,0,0,0,6294,5824,0,0,0,0,0,0,0,0,56,30,5910,0,.98,"VALERO, LP",848110701
2000,77507HLDRT10010,HALDOR TOPSOE INC,10010 BAYPORT RD,PASADENA,HARRIS,TX,77507,29.613776,-95.05866,2819,2869,,,,,325188,,,,,,1300140144130,MOLYBDENUM TRIOXIDE,001313275,NO,NON-PBT,YES,2,NO,R,Pounds,9,3494,88,0,0,0,0,0,0,0,0,0,3591,0,4302,4302,0,36,0,0,0,0,206,0,0,0,0,0,0,0,0,0,0,242,0,122035,0,0,0,122035,0,0,0,0,0,0,0,0,0,0,3833,8127,0,0,0,0,0,0,0,122035,0,0,130162,0,1.12,HALDOR TOPSOE/ AS,NA
2000,77044HSTNH8600P,NOV TUBOSCOPE HIGHWAY 90,8600 PINELAND DR,HOUSTON,HARRIS,TX,77044,29.84982,-95.174494,3479,,,,,,332812,,,,,,1300140137819,N-BUTYL ALCOHOL,000071363,NO,NON-PBT,NO,0,NO,R,Pounds,0,14252,0,0,0,0,0,0,0,0,0,0,14252,0,0,0,0,0,0,0,0,0,0,0,0,0,0,0,0,0,0,0,0,0,0,0,0,0,0,0,11248,0,11248,0,0,0,0,0,0,0,14252,14252,0,0,0,0,0,11248,0,0,0,0,25500,0,.9,NATIONAL OILWELL VARCO LP,161681044
2000,77049NTRSN17335,CRAY VALLEY USA LLC,17335 WALLISVILLE RD,HOUSTON,HARRIS,TX,77049,29.823187,-95.11863,2821,,,,,,325211,,,,,,1300140149699,XYLENE (MIXED ISOMERS),001330207,YES,NON-PBT,NO,0,NO,R,Pounds,140,5,0,0,0,0,0,0,0,0,0,0,145,0,0,0,0,0,0,8,0,0,3,0,0,0,0,0,0,0,0,0,0,11,0,0,0,0,0,0,0,0,0,0,0,0,3,95,0,98,156,160,0,0,0,0,0,0,0,0,390,98,648,0,1,TOTAL HOLDINGS USA INC,037810702
2000,75710TYLRPHIGHW,TYLER PIPE CO,11910 CR 492,TYLER,SMITH,TX,75706,32.431,-95.362361,3321,,,,,,331511,,,,,,1300140192764,XYLENE (MIXED ISOMERS),001330207,YES,NON-PBT,NO,0,NO,R,Pounds,44123,119,0,0,0,406,0,0,0,0,0,0,44648,0,0,0,0,0,0,0,0,0,0,0,0,0,0,0,0,0,0,0,0,0,0,0,0,0,0,0,0,0,0,0,0,0,0,0,0,0,44648,44648,0,0,0,0,11870,0,0,0,0,0,56518,0,.88,MCWANE INC,004001715
2000,75710TYLRPHIGHW,TYLER PIPE CO,11910 CR 492,TYLER,SMITH,TX,75706,32.431,-95.362361,3321,,,,,,331511,,,,,,1300140192840,METHYL ISOBUTYL KETONE,000108101,YES,NON-PBT,NO,0,NO,R,Pounds,15223,0,0,0,0,15223,0,0,0,0,0,0,30446,0,0,0,0,0,0,0,0,0,0,0,0,0,0,0,0,0,0,0,0,0,0,0,0,0,0,0,0,0,0,0,0,0,0,0,0,0,30446,30446,0,0,0,0,0,0,0,0,0,0,30446,0,0,MCWANE INC,004001715
2000,75149PNRCH100NS,UNIVAR USA INC MESQUITE,100 N SAM HOUSTON RD,MESQUITE,DALLAS,TX,75149,32.76843,-96.65029,5169,,,,,,424690,,,,,,1300140160262,ETHYLENE GLYCOL,000107211,YES,NON-PBT,NO,0,NO,R,Pounds,0,6,0,0,0,0,0,0,0,0,0,0,6,0,0,0,0,0,0,0,0,0,0,0,0,0,0,0,0,0,0,0,0,0,0,0,0,0,0,0,0,0,0,0,0,0,0,0,0,0,6,6,0,0,0,0,0,0,0,0,0,0,6,0,0,UNIVAR USA INC,102971785
2000,75149PNRCH100NS,UNIVAR USA INC MESQUITE,100 N SAM HOUSTON RD,MESQUITE,DALLAS,TX,75149,32.76843,-96.65029,5169,,,,,,424690,,,,,,1300140160312,METHYL ISOBUTYL KETONE,000108101,YES,NON-PBT,NO,0,NO,R,Pounds,0,43,0,0,0,0,0,0,0,0,0,0,43,0,0,0,0,0,0,0,0,0,0,0,0,0,0,0,0,0,0,0,0,0,0,0,0,0,0,0,0,0,0,0,0,0,0,0,0,0,43,43,0,0,0,0,0,0,0,0,0,0,43,0,0,UNIVAR USA INC,102971785
2000,75934CHMPNFARMR,CAMDEN PLYWOOD & LUMBER,20125 E FM 942,CAMDEN,POLK,TX,75934,30.916,-94.73825,2436,2421,,,,,321212,,,,,,1300140167091,DIOXIN AND DIOXIN-LIKE COMPOUNDS,N150,YES,DIOXIN,NO,0,NO,R,Grams,0,.25892,0,0,0,0,0,0,0,0,0,0,.25892,0,0,0,0,0,0,0,0,0,.001584,0,0,0,0,0,0,0,0,0,0,.001584,0,0,.003655,0,0,.003655,0,0,0,0,0,0,0,0,0,0,.260504,.2642,0,0,0,0,0,0,0,.003655,0,0,.267855,0,.98,KOCH INDUSTRIES INC,006944334
2000,75212MTVNT3900S,MOTIVA ENTERPRISES LLC DALLAS TERMINAL,3900 SINGLETON,DALLAS,DALLAS,TX,75212,32.77884,-96.884307,5171,,,,,,424710,,,,,,1300140192600,"1,2,4-TRIMETHYLBENZENE",000095636,NO,NON-PBT,NO,0,NO,R,Pounds,29,23,0,0,0,0,0,0,0,0,0,0,52,0,0,0,0,0,0,0,0,0,0,0,0,0,0,0,0,0,0,0,0,0,0,0,0,0,0,0,0,0,0,0,0,0,0,0,0,0,52,52,0,0,0,0,0,0,0,0,1055,0,1107,0,.94,MOTIVA ENTERPRISES LLC,023838670
2000,77640TXCRFNORTH,MOTIVA ENTERPRISES LLC,2555 SAVANNAH AVE,PORT ARTHUR,JEFFERSON,TX,776403399,29.890182,-93.948254,5171,,,,,,424710,,,,,,1300140192954,N-HEXANE,000110543,YES,NON-PBT,NO,0,NO,R,Pounds,25,1,0,0,0,0,0,0,0,0,0,0,26,0,0,0,0,0,0,0,0,0,0,0,0,0,0,0,0,0,0,0,0,0,0,0,0,0,0,0,0,0,0,0,0,0,0,0,0,0,26,26,0,0,0,0,0,0,0,0,0,0,26,0,.46,MOTIVA ENTERPRISES LLC,NA
2000,77640TXCRFNORTH,MOTIVA ENTERPRISES LLC,2555 SAVANNAH AVE,PORT ARTHUR,JEFFERSON,TX,776403399,29.890182,-93.948254,5171,,,,,,424710,,,,,,1300140193020,NAPHTHALENE,000091203,YES,NON-PBT,NO,0,NO,R,Pounds,2,0,0,0,0,0,0,0,0,0,0,0,2,0,0,0,0,0,0,0,0,0,0,0,0,0,0,0,0,0,0,0,0,0,0,0,0,0,0,0,0,0,0,0,0,0,0,0,0,0,2,2,0,0,0,0,0,0,0,0,0,0,2,0,.46,MOTIVA ENTERPRISES LLC,NA
2000,79008CMNCMFMROA,AGRIUM US INC,F M RD 1551,BORGER,HUTCHINSON,TX,79007,35.644722,-101.425278,2873,,,,,,325311,,,,,,1300140199821,CHROMIUM COMPOUNDS(EXCEPT CHROMITE ORE MINED IN THE TRANSVAAL REGION),N090,YES,NON-PBT,YES,1,NO,R,Pounds,0,0,0,62,0,0,23760,0,0,0,0,0,23822,0,0,0,0,0,0,0,0,0,23760,0,0,0,0,0,0,0,0,0,0,23760,0,0,0,0,0,0,0,0,0,0,0,0,0,0,0,0,47582,23760,0,0,0,0,0,0,0,0,0,0,23760,0,.95,AGRIUM INC,249568056
2000,75062THRML2100C,FIRESTONE BUILDING PRODUCTS CO,2100 CENTURY CIRCLE,IRVING,DALLAS,TX,75062,32.83836,-96.89851,3086,,,,,,326100,,,,,,1300140232087,"1,1-DICHLORO-1-FLUOROETHANE",001717006,NO,NON-PBT,NO,0,NO,R,Pounds,22442,0,0,0,0,0,0,0,0,0,0,0,22442,0,0,0,0,0,0,0,0,0,1500,0,0,0,0,0,0,0,0,0,0,1500,0,0,0,0,0,0,0,0,0,0,0,0,0,0,0,0,23942,22442,0,0,0,0,0,0,0,0,0,0,22442,0,1.12,FIRESTONE BUILDING PRODUCTS,112662812
2000,77979BPCHMTEXAS,INEOS USA LLC           GREEN LAKE PLANT,TEXAS HWY 185,PORT LAVACA,CALHOUN,TX,77979,28.566421,-96.83919,2869,2819,,,,,325199,,,,,,1300140150018,ACETAMIDE,000060355,YES,NON-PBT,NO,0,YES,R,Pounds,0,0,0,841500,0,0,0,0,0,0,0,0,841500,0,0,0,0,0,0,0,0,0,0,0,0,0,0,0,0,0,0,0,0,0,0,0,0,0,0,0,0,0,0,0,2400,0,0,0,0,2400,841500,842000,0,0,0,0,0,0,0,0,0,2400,844400,0,1.01,INEOS USA LLC,NA
2000,77979BPCHMTEXAS,INEOS USA LLC           GREEN LAKE PLANT,TEXAS HWY 185,PORT LAVACA,CALHOUN,TX,77979,28.566421,-96.83919,2869,2819,,,,,325199,,,,,,1300140150071,ALLYL ALCOHOL,000107186,NO,NON-PBT,NO,0,NO,R,Pounds,0,0,0,107800,0,0,0,0,0,0,0,0,107800,0,0,0,0,0,0,0,0,0,0,0,0,0,0,0,0,0,0,0,0,0,0,0,0,0,0,0,0,0,0,0,75,0,0,0,0,75,107800,108000,0,0,0,0,0,0,0,0,0,75,108075,0,1.01,INEOS USA LLC,NA
2000,77979BPCHMTEXAS,INEOS USA LLC           GREEN LAKE PLANT,TEXAS HWY 185,PORT LAVACA,CALHOUN,TX,77979,28.566421,-96.83919,2869,2819,,,,,325199,,,,,,1300140150121,HYDROGEN CYANIDE,000074908,NO,NON-PBT,NO,0,NO,R,Pounds,9,32393,0,0,0,0,0,0,0,0,0,0,32402,0,0,0,0,0,0,0,0,0,0,0,0,0,0,0,0,0,0,0,0,0,0,0,0,0,0,0,0,0,0,0,0,0,0,0,0,0,32402,33000,0,0,0,0,25300,0,0,0,1358545,0,1416845,10,.98,INEOS USA LLC,NA
2000,77507PTRLT13200,BAKER PETROLITE BAYPORT FACILI TY,13200 BAYPARK RD,PASADENA,HARRIS,TX,77507,29.646111,-95.115,2899,,,,,,325998,,,,,,1300140153483,CERTAIN GLYCOL ETHERS,N230,YES,NON-PBT,NO,0,NO,R,Pounds,33,17,0,0,0,0,0,0,0,0,0,0,50,0,7856,7856,0,0,0,0,0,0,0,0,0,0,0,0,0,0,0,0,0,0,0,0,0,0,0,0,0,0,0,0,0,0,0,0,0,0,50,50,0,0,0,0,0,0,0,0,0,7900,7950,0,2.56,BAKER HUGHES INC,174987909
2000,78759SLCTR12455,FLEXTRONICS AMERICA LLC,12455 RESEARCH BLVD,AUSTIN,TRAVIS,TX,78759,30.428786,-97.757629,3679,,,,,,334418,,,,,,1300140150754,LEAD,007439921,YES,PBT,YES,1,YES,R,Pounds,0,0,0,0,0,0,0,0,0,0,0,0,0,250,0,250,0,250,0,0,0,0,0,0,0,0,0,0,0,0,250,0,0,500,0,43255,0,0,0,43255,0,0,0,0,0,0,0,0,0,0,750,73,0,0,0,0,0,0,0,43200,0,0,43273,0,.35,FLEXTRONICS INTERNATIONAL USA,941714834
2000,75662BKRPT806PA,BAKER PETROLITE KILGORE BLEND PLANT,806 PALUXY ST,KILGORE,RUSK,TX,75662,32.363889,-94.891944,5169,,,,,,424690,,,,,,1300140154283,NAPHTHALENE,000091203,YES,NON-PBT,NO,0,NO,R,Pounds,57,5,0,0,0,0,0,0,0,0,0,0,62,0,0,0,0,0,0,0,0,0,0,0,0,0,0,0,0,0,0,0,0,0,0,0,0,0,0,0,250,0,250,0,0,0,0,0,0,0,62,62,0,0,0,0,0,250,0,0,0,0,312,0,1.24,BAKER HUGHES INC,174987909
2000,77303BLLPC1000N,BALL METAL BEVERAGE CONTAINER CORP,1001 N FM 3083 E,CONROE,MONTGOMERY,TX,77303,30.31229,-95.407722,3411,,,,,,332431,,,,,,1300140189960,N-BUTYL ALCOHOL,000071363,NO,NON-PBT,NO,0,NO,R,Pounds,86000,18000,0,0,0,0,0,0,0,0,0,0,104000,0,0,0,0,0,0,0,0,0,0,0,0,0,0,0,0,0,0,0,0,0,0,0,0,0,0,0,0,108,108,0,0,0,0,0,0,0,104000,100000,0,0,0,0,0,108,0,0,130000,0,230108,0,.98,BALL CORP,006419147
2000,76063DRTCH1204A,DURA-TECH PROCESSES INC,1204 ANTLERS DR,MANSFIELD,JOHNSON,TX,76063,32.546944,-97.136667,3471,,,,,,332813,,,,,,1300140203478,NICKEL COMPOUNDS,N495,YES,NON-PBT,YES,1,NO,R,Pounds,0,0,0,0,0,0,0,0,0,0,0,0,0,0,0,0,0,0,0,0,0,0,0,0,0,0,0,0,0,0,0,0,0,0,0,1130,0,0,0,1130,0,0,0,0,0,0,0,0,0,0,0,0,0,0,0,0,0,0,0,1130,1130,0,2260,0,1.62,DURA-TECH PROCESSES INC,087389250
2000,78550SPHLT5809P,ASPHALT PRODUCTS INC,5809 PROGRESS DR,HARLINGEN,CAMERON,TX,78550,26.194431,-97.632673,2952,,,,,,324122,,,,,,1300140147226,POLYCYCLIC AROMATIC COMPOUNDS,N590,YES,PBT,NO,0,YES,R,Pounds,0,.56,0,0,0,0,0,0,0,0,0,0,.56,0,0,0,0,0,0,0,0,0,0,0,0,0,0,0,0,8.3,0,0,0,8.3,0,0,0,0,0,0,0,0,0,0,0,0,0,0,0,0,8.86,8.86,0,0,0,0,0,0,0,0,0,0,8.86,0,0,NA,NA
2000,76140MLLRB6600W,BALL METAL BEVERAGE CONTAINER CORP,6600 WILL ROGERS BLVD,FORT WORTH,TARRANT,TX,76140,32.6492,-97.31301,3411,,,,,,332431,,,,,,1300140190063,CERTAIN GLYCOL ETHERS,N230,YES,NON-PBT,NO,0,NO,R,Pounds,22000,20000,0,0,0,0,0,0,0,0,0,0,42000,0,0,0,0,0,0,0,0,0,0,0,0,0,0,0,0,0,0,0,0,0,0,0,0,0,0,0,0,186,186,0,0,0,0,0,0,0,42000,42000,0,0,0,0,0,186,0,0,130000,0,172186,0,1.03,BALL CORP,006419147
2000,77571QNTMC1515M,EQUISTAR CHEMICALS LP,1515 MILLER CUT-OFF RD,LA PORTE,HARRIS,TX,77571,29.71,-95.071944,2869,2821,,,,,325110,,,,,,1300140219181,STYRENE,000100425,YES,NON-PBT,NO,0,YES,R,Pounds,4640,0,0,0,0,0,0,0,0,0,0,0,4640,0,0,0,0,0,0,0,0,0,0,0,0,0,0,0,0,0,0,0,0,0,0,0,0,0,0,0,0,0,0,0,0,0,0,0,0,0,4640,4640,0,0,0,0,0,0,0,0,5350,0,9990,0,1.75,LYONDELLBASELL INDUSTRIES,008080681
2000,77522CHVRN9500I,CHEVRON PHILLIPS CHEMICAL CO LP,9500 I-10 E EXIT 796,BAYTOWN,HARRIS,TX,77521,29.826,-94.92191,2869,2821,2895,,,,325110,,,,,,1300140227416,TOLUENE,000108883,YES,NON-PBT,NO,0,NO,R,Pounds,5080,4433,0,0,0,0,0,0,0,0,0,0,9513,0,0,0,0,0,0,0,0,0,5,0,0,0,0,0,0,0,0,0,0,5,0,0,0,0,0,0,917,0,917,0,0,0,0,0,0,0,9518,9600,0,0,0,0,0,917,0,0,5000,0,15517,0,1.01,CHEVRON PHILLIPS CHEMICAL CO LLC,152975665
2000,77093STXFR5429H,EASTEX FOREST PRODUCTS,5429 HARTWICK RD,HOUSTON,HARRIS,TX,77093,29.884981,-95.310219,2491,,,,,,321114,,,,,,1300140227467,ARSENIC COMPOUNDS,N020,YES,NON-PBT,YES,1,NO,R,Pounds,5,5,0,0,0,0,0,0,0,0,0,0,10,0,0,0,0,0,0,0,0,0,750,0,0,0,0,0,0,0,0,0,0,750,0,0,0,0,0,0,0,0,0,0,0,0,0,0,0,0,760,841,0,0,0,0,0,0,33,0,0,0,874,0,1.07,NA,NA
2000,79086WTCCRHCR1B,CONTINENTAL CARBON CO SUNRAY,11702 CARBON BLACK RD,SUNRAY,MOORE,TX,79086,35.985163,-101.891247,2895,,,,,,325182,,,,,,1300140154941,CARBON DISULFIDE,000075150,YES,NON-PBT,NO,0,NO,R,Pounds,0,32794,0,0,0,0,0,0,0,0,0,0,32794,0,0,0,0,0,0,0,0,0,0,0,0,0,0,0,0,0,0,0,0,0,0,0,0,0,0,0,0,0,0,0,0,0,0,0,0,0,32794,30794,0,0,0,0,0,0,0,0,1508906,0,1539700,0,1.1,CONTINENTAL CARBON CO,008076697
2000,75110JTCCHEASTH,CORSICANA TECHNOLOGIES INC,2733 E HWY 31,CORSICANA,NAVARRO,TX,75109,32.1,-96.421667,2869,,,,,,325110,,,,,,1300140155019,ACRYLONITRILE,000107131,YES,NON-PBT,NO,0,YES,R,Pounds,0,3,0,0,0,0,0,0,0,0,0,0,3,0,5,5,0,0,0,3468,0,0,0,0,0,0,0,0,0,0,0,500,0,3968,0,0,0,0,0,0,0,0,0,0,0,0,0,0,0,0,3971,3472,0,0,0,0,0,0,0,0,0,0,3472,0,6.87,PERMIAN MUD SERVICE,NA
2000,78403CSTLR1300C,VALERO REFINING TEXAS LP CORPUS CHRISTI EAST PLANT,1300 CANTWELL LN,CORPUS CHRISTI,NUECES,TX,78407,27.806111,-97.461111,2911,,,,,,324110,,,,,,1300140180454,CHLORINE,007782505,YES,NON-PBT,NO,0,NO,R,Pounds,0,0,0,0,0,0,0,0,0,0,0,0,0,0,0,0,0,0,0,0,0,0,0,0,0,0,0,0,0,0,0,0,0,0,0,0,0,0,0,0,0,0,0,0,0,0,0,0,0,0,0,0,0,0,0,0,0,0,0,0,132000,0,132000,0,1.1,VALERO ENERGY CORP,082686916
2000,78403CSTLR1300C,VALERO REFINING TEXAS LP CORPUS CHRISTI EAST PLANT,1300 CANTWELL LN,CORPUS CHRISTI,NUECES,TX,78407,27.806111,-97.461111,2911,,,,,,324110,,,,,,1300140180542,"SULFURIC ACID (1994 AND AFTER ""ACID AEROSOLS"" ONLY)",007664939,NO,NON-PBT,NO,0,NO,R,Pounds,0,42477,0,0,0,0,0,0,0,0,0,0,42477,0,0,0,0,0,0,0,0,0,0,0,0,0,0,0,0,0,0,0,0,0,0,0,0,0,0,0,0,0,0,0,0,0,0,0,0,0,42477,42477,0,0,0,0,0,0,0,0,0,0,42477,0,1.1,VALERO ENERGY CORP,082686916
2000,78403CSTLR1300C,VALERO REFINING TEXAS LP CORPUS CHRISTI EAST PLANT,1300 CANTWELL LN,CORPUS CHRISTI,NUECES,TX,78407,27.806111,-97.461111,2911,,,,,,324110,,,,,,1300140180581,MOLYBDENUM TRIOXIDE,001313275,NO,NON-PBT,YES,2,NO,R,Pounds,0,0,0,0,0,0,0,0,0,0,0,0,0,0,0,0,0,0,0,0,0,0,0,0,0,0,0,0,0,0,0,0,0,0,0,0,0,0,0,0,0,0,0,0,61911,0,0,0,0,61911,0,0,0,0,0,0,0,0,0,0,0,61911,61911,0,1.1,VALERO ENERGY CORP,082686916
2000,78403CSTLR1300C,VALERO REFINING TEXAS LP CORPUS CHRISTI EAST PLANT,1300 CANTWELL LN,CORPUS CHRISTI,NUECES,TX,78407,27.806111,-97.461111,2911,,,,,,324110,,,,,,1300140180656,MERCURY,007439976,YES,PBT,YES,1,NO,R,Pounds,0,3.7,0,0,0,0,0,.2,0,0,0,0,3.9,0,0,0,0,0,0,0,0,0,.14,0,0,0,0,0,0,0,0,0,0,.14,0,0,0,0,0,0,0,0,0,0,0,0,0,0,0,0,4.04,4.1,0,0,0,0,0,0,0,0,0,0,4.1,0,1.1,VALERO ENERGY CORP,082686916
2000,78221SNNTN10619,SAN ANTONIO SOUTH REFINED PRODUCTS TERMINAL,10619 US HWY 281 S,SAN ANTONIO,BEXAR,TX,78221,29.308331,-98.474442,5171,,,,,,424710,,,,,,1300140206766,ETHYLBENZENE,000100414,YES,NON-PBT,NO,0,NO,R,Pounds,250,250,0,0,0,0,0,0,0,0,0,0,500,0,0,0,0,0,0,0,0,0,250,0,0,0,0,0,0,0,0,0,0,250,0,0,0,0,0,0,0,0,0,0,250,0,0,0,0,250,750,634,0,0,0,0,0,0,0,0,866,539,2039,0,.96,"VALERO, LP",848110701
2000,76092STHLK1700S,SOUTHLAKE REFINED PRODUCTS TERMINAL,1700 STATE HWY 26,SOUTHLAKE,TARRANT,TX,76092,32.917712,-97.124503,5171,,,,,,424710,,,,,,1300140206830,N-HEXANE,000110543,YES,NON-PBT,NO,0,NO,R,Pounds,250,1107,5,0,0,0,0,0,0,0,0,0,1362,0,0,0,0,0,0,0,0,0,0,0,0,0,0,0,0,0,250,0,0,250,0,0,0,0,0,0,0,0,0,0,250,0,0,0,0,250,1612,1543,0,0,0,0,0,0,0,0,23162,121,24826,0,13.11,"VALERO, LP",848110701
2000,75006SGSTH1310E,ST MICROELECTRONICS INC,1310 ELECTRONICS DR,CARROLLTON,DALLAS,TX,750065039,32.943889,-96.915556,3674,,,,,,334413,,,,,,1300140246707,"SULFURIC ACID (1994 AND AFTER ""ACID AEROSOLS"" ONLY)",007664939,NO,NON-PBT,NO,0,NO,R,Pounds,0,6075,0,0,0,0,0,0,0,0,0,0,6075,0,0,0,0,0,0,0,0,0,0,0,0,0,0,0,0,0,0,0,0,0,0,0,0,0,0,0,0,0,0,0,0,0,0,0,0,0,6075,6075,0,0,0,0,0,0,0,0,1112706,0,1118781,0,1.47,ST MICROELECTRONICS NV,NA
2000,79766CSTLC2222S,COASTAL CHEMICAL CO LLC,2222 S GRANDVIEW,ODESSA,ECTOR,TX,79766,31.832032,-102.332225,5169,,,,,,424690,,,,,,1300140155716,ETHYLENE GLYCOL,000107211,YES,NON-PBT,NO,0,NO,R,Pounds,20,1,0,0,0,0,0,0,0,0,0,0,21,0,0,0,0,0,0,0,0,0,0,0,0,0,0,0,0,0,0,0,0,0,0,0,0,0,0,0,0,0,0,0,0,0,0,0,0,0,21,21,0,0,0,0,0,0,0,0,0,0,21,0,0,BRENNTAG NA INC,NA
2000,77571PPGND1901A,PPG INDUSTRIES INC,1901 AVE H & 16TH ST,LA PORTE,HARRIS,TX,77571,29.654833,-95.036528,2869,,,,,,325199,,,,,,1300140155971,PHOSGENE,000075445,YES,NON-PBT,NO,0,NO,R,Pounds,1,15,0,0,0,0,0,0,0,0,0,0,16,0,0,0,0,0,0,0,0,0,0,0,0,0,0,0,0,0,0,0,0,0,0,0,0,0,0,0,0,0,0,0,0,0,0,0,0,0,16,15,0,0,0,0,0,0,4950000,0,1240000,0,6190015,0,.87,PPG INDUSTRIES INC,001344803
2000,78550HRLNGHWY10,HARLINGEN REFINED PRODUCTS TER MINAL,26306 F.M. 106,HARLINGEN,CAMERON,TX,78550,26.202777,-97.595833,5171,,,,,,424710,,,,,,1300140206576,CYCLOHEXANE,000110827,NO,NON-PBT,NO,0,NO,R,Pounds,250,250,0,0,0,0,0,0,0,0,0,0,500,0,0,0,0,0,0,0,0,0,0,0,0,0,0,0,0,0,5,0,0,5,0,0,0,0,0,0,0,0,0,0,0,0,0,0,0,0,505,230,0,0,0,0,0,0,0,0,1162,5,1397,0,.74,VALERO LP,848110701
2000,78221SNNTN10619,SAN ANTONIO SOUTH REFINED PRODUCTS TERMINAL,10619 US HWY 281 S,SAN ANTONIO,BEXAR,TX,78221,29.308331,-98.474442,5171,,,,,,424710,,,,,,1300140206653,"1,2,4-TRIMETHYLBENZENE",000095636,NO,NON-PBT,NO,0,NO,R,Pounds,250,250,5,0,0,0,0,0,0,0,0,0,505,0,0,0,0,0,0,0,0,0,750,0,0,0,0,0,0,0,0,0,0,750,0,0,0,0,0,0,0,0,0,0,250,0,0,0,0,250,1255,1216,0,0,0,0,0,0,0,0,346,1158,2720,0,.96,"VALERO, LP",848110701
2000,77507CMRCS5757U,SYNGENTA CROP PROTECTION BAY PORT SITE,5757 UNDERWOOD RD,PASADENA,HARRIS,TX,77507,29.629402,-95.086935,2879,,,,,,325320,,,,,,1300140239841,METHANOL,000067561,YES,NON-PBT,NO,0,NO,R,Pounds,0,2,0,0,0,0,0,0,0,0,0,0,2,0,0,0,0,0,0,0,0,0,0,0,0,0,0,0,0,0,0,0,0,0,0,0,0,0,0,0,0,0,0,0,0,0,0,0,0,0,2,2,0,0,0,0,0,0,0,0,16283,0,16285,0,1.24,SYNGENTA AG,966616633
2000,77503CSTLC3205P,COASTAL CHEMICAL CO LLC,3205 PASADENA BLVD,PASADENA,HARRIS,TX,77503,29.681351,-95.166124,5169,,,,,,424690,,,,,,1300140155401,TOLUENE,000108883,YES,NON-PBT,NO,0,NO,R,Pounds,18,0,0,0,0,0,0,0,0,0,0,0,18,0,0,0,0,0,0,0,0,0,0,0,0,0,0,0,0,0,0,0,0,0,0,0,0,0,0,0,792,0,792,0,0,0,0,0,0,0,18,18,0,0,0,0,0,792,0,0,0,0,810,0,0,BRENNTAG NA INC,NA
2000,76240MLDDF3333N,MOLDED FIBER GLASS COS /TEXAS,3333 N I-35 BLDG 5,GAINESVILLE,COOKE,TX,76240,33.665762,-97.15122,3089,,,,,,326199,,,,,,1300140177700,STYRENE,000100425,YES,NON-PBT,NO,0,YES,R,Pounds,0,4927,0,0,0,0,0,0,0,0,0,0,4927,0,0,0,0,0,0,0,0,0,0,0,0,0,0,0,0,0,0,0,0,0,0,0,0,0,0,0,0,0,0,0,0,0,0,0,0,0,4927,4927,0,0,0,0,0,0,0,0,0,0,4927,0,.54,MOLDED FIBER GLASS CO,048414098
2000,77656KRBYFPOBOX,LOUISIANA PACIFIC CORP. SILSBEE TX,735 FM 92N,SILSBEE,HARDIN,TX,77656,30.368188,-94.17298,2493,,,,,,321219,,,,,,1300140187853,FORMALDEHYDE,000050000,YES,NON-PBT,NO,0,YES,R,Pounds,399,7195,0,0,0,0,0,0,0,0,0,0,7594,0,0,0,0,0,0,0,0,0,0,0,0,0,0,0,0,0,0,0,0,0,0,0,0,0,0,0,0,0,0,0,0,0,0,0,0,0,7594,7594,0,0,0,0,0,0,0,0,143895,0,151489,0,.93,LOUISIANA PACIFIC CORP,061500534
2000,77041HSTNS11235,UNIVAR USA INC HOUSTON FM 529,11235 FM 529,HOUSTON,HARRIS,TX,77041,29.880272,-95.577232,5169,,,,,,424690,,,,,,1300140239930,M-XYLENE,000108383,YES,NON-PBT,NO,0,NO,R,Pounds,168,239,0,0,0,0,0,0,0,0,0,0,407,0,0,0,0,0,0,0,0,0,0,0,0,0,0,0,0,0,0,0,0,0,0,0,0,0,0,0,0,0,0,0,0,0,0,0,0,0,407,407,0,0,0,0,0,0,0,0,0,0,407,0,1.13,UNIVAR USA INC,102971785
2000,77041HSTNS11235,UNIVAR USA INC HOUSTON FM 529,11235 FM 529,HOUSTON,HARRIS,TX,77041,29.880272,-95.577232,5169,,,,,,424690,,,,,,1300140239993,METHYL ETHYL KETONE,000078933,NO,NON-PBT,NO,0,NO,R,Pounds,438,969,0,0,0,0,0,0,0,0,0,0,1407,0,0,0,0,0,0,0,0,0,0,0,0,0,0,0,0,0,0,0,0,0,0,0,0,0,0,0,0,0,0,0,0,0,0,0,0,0,1407,1407,0,0,0,0,0,0,0,0,0,0,1407,0,.93,UNIVAR USA INC,102971785
2000,77902DPNTVOLDBL,DUPONT VICTORIA PLANT,2697 OLD BLOOMINGTON RD N,VICTORIA,VICTORIA,TX,77905,28.678138,-96.970861,2869,,,,,,325188,,,,,,1300140167646,BENZENE,000071432,YES,NON-PBT,NO,0,YES,R,Pounds,219,4107,27,3981,0,43,0,0,0,0,0,0,8377,0,0,0,0,0,0,0,0,0,0,0,0,0,0,0,0,0,0,0,0,0,0,0,0,0,0,0,0,0,0,0,0,162567,0,0,0,162567,8377,8377,0,0,0,0,1192320,0,0,0,198090,162567,1561354,0,1.08,E I DU PONT DE NEMOURS & CO INC,001315704
2000,77024STHLNPOBOX,SOUTHLINE METAL PRODUCTS CO,3777 W 12TH ST,HOUSTON,HARRIS,TX,77055,29.791186,-95.450026,3412,,,,,,332439,,,,,,1300140174501,N-BUTYL ALCOHOL,000071363,NO,NON-PBT,NO,0,NO,R,Pounds,729,11388,0,0,0,0,0,0,0,0,0,0,12117,0,0,0,0,0,0,0,0,0,0,0,0,0,0,0,0,0,0,0,0,0,0,0,0,0,0,0,4613,0,4613,0,0,0,0,0,0,0,12117,16731,0,0,0,0,0,4613,0,0,0,0,21344,0,1.03,GREIF INC,NA
2000,77902DPNTVOLDBL,DUPONT VICTORIA PLANT,2697 OLD BLOOMINGTON RD N,VICTORIA,VICTORIA,TX,77905,28.678138,-96.970861,2869,,,,,,325188,,,,,,1300140167812,N-HEXANE,000110543,YES,NON-PBT,NO,0,NO,R,Pounds,140,14424,2,160,0,0,0,0,0,0,0,0,14726,0,0,0,0,0,0,0,0,0,0,0,0,0,0,0,0,0,0,0,0,0,0,0,0,0,0,0,0,0,0,0,0,0,0,0,0,0,14726,14726,0,0,0,0,921970,0,0,0,1971,0,938667,0,1.08,E I DU PONT DE NEMOURS & CO INC,001315704
2000,77902DPNTVOLDBL,DUPONT VICTORIA PLANT,2697 OLD BLOOMINGTON RD N,VICTORIA,VICTORIA,TX,77905,28.678138,-96.970861,2869,,,,,,325211,,,,,,1300140167887,PROPYLENE,000115071,NO,NON-PBT,NO,0,NO,R,Pounds,100,844,0,0,0,0,0,0,0,0,0,0,944,0,0,0,0,0,0,0,0,0,0,0,0,0,0,0,0,0,0,0,0,0,0,0,0,0,0,0,0,0,0,0,0,0,0,0,0,0,944,944,0,0,0,0,0,0,0,0,0,0,944,0,1.01,E I DU PONT DE NEMOURS & CO INC,001315704
2000,77507QSTSP12500,SSI CHUSEI INC,12500 BAY AREA BLVD,PASADENA,HARRIS,TX,775071308,29.630162,-95.04601,2869,,,,,,325199,,,,,,1300140181557,ALLYL ALCOHOL,000107186,NO,NON-PBT,NO,0,NO,R,Pounds,296,491,0,0,0,0,0,0,0,0,0,0,787,0,587,587,0,0,0,0,0,0,0,0,0,0,0,0,0,0,0,0,0,0,0,0,0,0,0,0,469242,0,469242,0,304425,0,0,0,0,304425,787,787,0,0,0,0,0,469242,0,0,24538,304425,798992,0,1.91,SSI CHUSEI INC,858728389
2000,77507QSTSP12500,SSI CHUSEI INC,12500 BAY AREA BLVD,PASADENA,HARRIS,TX,775071308,29.630162,-95.04601,2869,,,,,,325199,,,,,,1300140181660,METHYL ETHYL KETONE,000078933,NO,NON-PBT,NO,0,NO,R,Pounds,0,9,0,0,0,0,0,0,0,0,0,0,9,0,0,0,0,0,0,0,0,0,0,0,0,0,0,0,0,0,0,0,0,0,0,0,0,0,0,0,5130,0,5130,0,0,0,0,0,0,0,9,9,0,0,0,0,0,5130,0,0,457,0,5596,0,0,SSI CHUSEI INC,858728389
2000,79187BPNC FARMR,TYSON FRESH MEATS INC,5000 N FM 1912,AMARILLO,POTTER,TX,79108,35.258611,-101.642222,2011,2077,3111,,,,311611,,,,,,1300140178474,CHROMIUM COMPOUNDS(EXCEPT CHROMITE ORE MINED IN THE TRANSVAAL REGION),N090,YES,NON-PBT,YES,1,NO,R,Pounds,0,5,0,250,0,0,0,4600,0,0,0,0,4855,0,0,0,0,0,0,0,0,0,500,0,0,0,0,0,0,0,500,0,0,1000,0,0,0,0,9600,9600,0,0,0,0,0,0,0,0,0,0,5855,5100,0,0,0,0,0,0,0,17000,0,0,22100,0,1.03,TYSON FOODS INC,006903702
2000,76112RSPCT7445E,AEROSPACE TECHNOLOGIES INC,7445 E. LANCASTER AVE.,FORT WORTH,TARRANT,TX,76112,32.728676,-97.196328,3728,,,,,,336413,,,,,,1300140178930,METHYL ETHYL KETONE,000078933,NO,NON-PBT,NO,0,NO,R,Pounds,7320,214,0,0,0,0,0,0,0,0,0,0,7534,0,0,0,0,0,0,0,0,0,0,0,0,0,0,0,0,0,0,0,0,0,0,0,0,0,0,0,250,0,250,0,0,0,0,0,0,0,7534,7600,0,0,0,0,0,0,0,0,0,12,7612,0,0,TRIUMPH GROUP INC,807636451
2000,77205GDNVT2050F,ALLIED AVIATION FUELING CO OF HOUSTON INC,2050 FUEL STORAGE RD,HOUSTON,HARRIS,TX,77205,29.984531,-95.365738,5171,,,,,,424710,,,,,,1300140213873,NAPHTHALENE,000091203,YES,NON-PBT,NO,0,NO,R,Pounds,141,16,0,0,0,0,0,0,0,0,0,0,157,0,0,0,0,0,0,0,0,0,0,0,0,0,0,0,0,0,0,0,0,0,0,0,30750,0,0,30750,74,0,74,0,0,0,0,0,0,0,157,157,0,0,0,0,0,74,0,30750,0,0,30981,0,1,ALLIED AVIATION HOLDINGS CORP,NA
2000,77536RHMND6600L,ROHM & HAAS TEXAS INC,1900 TIDAL RD,DEER PARK,HARRIS,TX,77536,29.726389,-95.102778,2869,,,,,,325110,,,,,,1300140214166,BUTYL ACRYLATE,000141322,NO,NON-PBT,NO,0,NO,R,Pounds,6083,24449,0,0,0,0,0,0,0,0,0,0,30532,0,0,0,0,0,0,0,0,0,0,0,0,0,0,0,0,0,0,0,0,0,0,0,0,0,0,0,0,0,0,0,0,0,0,0,0,0,30532,30407,0,0,0,0,0,0,0,0,41689,0,72096,125,1.03,THE DOW CHEMICAL CO,001381581
2000,77536RHMND6600L,ROHM & HAAS TEXAS INC,1900 TIDAL RD,DEER PARK,HARRIS,TX,77536,29.726389,-95.102778,2869,,,,,,325110,,,,,,1300140214230,HYDROQUINONE,000123319,YES,NON-PBT,NO,0,NO,R,Pounds,0,0,0,0,0,0,0,0,0,0,0,0,0,0,0,0,0,0,0,0,0,0,0,0,0,0,0,0,0,0,0,0,0,0,0,0,0,0,0,0,0,0,0,0,0,0,0,0,0,0,0,0,0,0,0,0,0,0,0,0,0,0,0,0,0,THE DOW CHEMICAL CO,001381581
2000,76208NTDCP2727G,UNITED COPPER INDUSTRIES,2727 GEESLING RD,DENTON,DENTON,TX,76208,33.237416,-97.072805,3351,,,,,,331421,,,,,,1300140240540,ANTIMONY COMPOUNDS,N010,YES,NON-PBT,YES,1,NO,R,Pounds,0,0,0,0,0,0,0,0,0,0,0,0,0,0,0,0,0,0,0,0,0,0,0,0,0,0,0,0,0,0,0,250,0,250,0,0,0,0,5979,5979,0,0,0,0,0,0,0,0,0,0,250,22,0,0,0,0,0,0,0,5979,0,0,6001,0,1.1,INDUSTRIAS UNIDAS SA DE CV,NA
2000,77536QNTMC1515M,INEOS USA LLC,1230 MILLER CUT-OFF RD GATE 10,LA PORTE,HARRIS,TX,77571,29.708767,-95.066979,2869,,,,,,325199,,,,,,1300140171240,AMMONIA,007664417,NO,NON-PBT,NO,0,NO,R,Pounds,1593,5680,0,0,0,0,0,0,0,0,0,0,7273,0,0,0,0,0,0,59979,0,0,0,0,0,0,0,0,0,0,0,0,0,59979,0,0,0,0,0,0,0,0,0,0,0,0,0,0,0,0,67252,67252,0,0,0,0,0,0,0,0,0,0,67252,0,1.21,INEOS USA LLC,NA
2000,77024STHLNPOBOX,SOUTHLINE METAL PRODUCTS CO,3777 W 12TH ST,HOUSTON,HARRIS,TX,77055,29.791186,-95.450026,3412,,,,,,332439,,,,,,1300140174537,CHROMIUM,007440473,YES,NON-PBT,YES,1,YES,R,Pounds,0,0,0,0,0,0,0,0,0,0,0,0,0,0,0,0,0,0,0,0,0,0,0,0,0,0,0,0,0,0,0,0,0,0,0,9116,0,0,0,9116,0,0,0,0,0,0,0,0,0,0,0,0,0,0,0,0,0,0,0,9116,0,0,9116,0,1.03,GREIF INC,NA
2000,77590SLNCH5700J,SEA LION TECHNOLOGY INC,5700 CENTURY BLVD,TEXAS CITY,GALVESTON,TX,77590,29.424167,-95.01972,2869,,,,,,325199,,,,,,1300140174881,STYRENE,000100425,YES,NON-PBT,NO,0,YES,R,Pounds,2256,1890,0,0,0,0,0,0,0,0,0,0,4146,0,0,0,0,0,0,0,0,0,0,0,0,0,0,0,0,0,0,0,0,0,0,0,0,0,0,0,4220,0,4220,1554,1552,0,0,0,0,3106,4146,4146,0,0,0,0,0,4220,0,0,0,3106,11472,0,.94,NA,NA
2000,77536RHMND6600L,ROHM & HAAS TEXAS INC,1900 TIDAL RD,DEER PARK,HARRIS,TX,77536,29.726389,-95.102778,2869,,,,,,325110,,,,,,1300140214305,PROPYLENE,000115071,NO,NON-PBT,NO,0,NO,R,Pounds,13,1482,0,0,0,0,0,0,0,0,0,0,1495,0,0,0,0,0,0,0,0,0,0,0,0,0,0,0,0,0,0,0,0,0,0,0,0,0,0,0,0,0,0,0,0,0,0,0,0,0,1495,1482,0,0,0,0,9600000,0,0,0,120,0,9601602,13,1.02,THE DOW CHEMICAL CO,001381581
2000,77536RHMND6600L,ROHM & HAAS TEXAS INC,1900 TIDAL RD,DEER PARK,HARRIS,TX,77536,29.726389,-95.102778,2869,,,,,,325110,,,,,,1300140214394,ACETALDEHYDE,000075070,YES,NON-PBT,NO,0,YES,R,Pounds,0,107,0,0,0,0,0,0,0,0,0,0,107,0,0,0,0,0,0,0,0,0,0,0,0,0,0,0,0,0,0,0,0,0,0,0,0,0,0,0,0,0,0,0,0,0,0,0,0,0,107,107,0,0,0,0,333333,0,0,0,340,0,333780,0,1.02,THE DOW CHEMICAL CO,001381581
2000,78418BRNYM4301W,AMERICAN ELECTRIC POWER BARNEY M. DAVIS,4301 WALDRON RD,CORPUS CHRISTI,NUECES,TX,78418,27.602588,-97.311605,4911,,,,,,221122,,,,,,1300140374315,"BENZO(G,H,I)PERYLENE",000191242,YES,PBT,NO,0,YES,R,Pounds,0,0,0,0,0,0,0,0,0,0,0,0,0,0,0,0,0,0,0,0,0,0,0,0,0,0,0,0,0,0,0,0,0,0,0,0,0,0,0,0,0,0,0,0,0,0,0,0,0,0,0,0,0,0,0,0,0,0,0,0,0,0,0,0,0,AMERICAN ELECTRIC POWER,006979868
2000,77012STFFR8615M,RHODIA INC,8615 MANCHESTER ST,HOUSTON,HARRIS,TX,77012,29.718139,-95.26875,2819,,,,,,325188,,,,,,1300140273564,METHANOL,000067561,YES,NON-PBT,NO,0,NO,R,Pounds,1057,404,0,0,0,0,0,0,0,0,0,0,1461,0,0,0,0,0,0,0,0,0,0,0,0,0,0,0,0,0,0,0,0,0,0,0,0,0,0,0,0,0,0,0,0,0,0,0,0,0,1461,1461,0,0,0,0,4577178,0,0,0,0,0,4578639,0,1.12,RHODIA INC,002959810
2000,77012STFFR8615M,RHODIA INC,8615 MANCHESTER ST,HOUSTON,HARRIS,TX,77012,29.718139,-95.26875,2819,,,,,,325188,,,,,,1300140273638,ANILINE,000062533,YES,NON-PBT,NO,0,NO,R,Pounds,0,0,0,0,0,0,0,0,0,0,0,0,0,0,0,0,0,0,0,0,0,0,0,0,0,0,0,0,0,0,0,0,0,0,0,0,0,0,0,0,0,0,0,0,0,0,0,0,0,0,0,0,0,0,0,0,124999,0,0,0,0,0,124999,0,1.12,RHODIA INC,002959810
2000,77012STFFR8615M,RHODIA INC,8615 MANCHESTER ST,HOUSTON,HARRIS,TX,77012,29.718139,-95.26875,2819,,,,,,325188,,,,,,1300140273766,"2,6-DINITROTOLUENE",000606202,NO,NON-PBT,NO,0,NO,R,Pounds,0,0,0,0,0,0,0,0,0,0,0,0,0,0,0,0,0,0,0,0,0,0,0,0,0,0,0,0,0,0,0,0,0,0,0,0,0,0,0,0,0,0,0,0,0,0,0,0,0,0,0,0,0,0,0,0,15208,0,0,0,0,0,15208,0,1.12,RHODIA INC,002959810
2000,77064FLNDS8700F,THOMAS & BETTS CORP,8700 FAIRBANKS - N HOUSTON RD,HOUSTON,HARRIS,TX,77064,29.906048,-95.524896,3441,,,,,,332312,,,,,,1300140346913,MANGANESE,007439965,YES,NON-PBT,YES,1,NO,R,Pounds,5,0,0,0,0,0,0,0,0,0,0,0,5,0,0,0,0,0,0,0,0,0,0,0,0,0,0,0,0,0,0,0,0,0,0,149383,0,0,0,149383,0,0,0,0,0,0,0,0,0,0,5,5,0,0,0,0,0,0,0,149383,0,0,149388,0,.93,THOMAS & BETTS CORP,002154433
2000,77520STFFR3439P,RHODIA INC,3439 PARK ST,BAYTOWN,HARRIS,TX,77520,29.748056,-95.003556,2819,,,,,,325188,,,,,,1300140273160,"HYDROCHLORIC ACID (1995 AND AFTER ""ACID AEROSOLS"" ONLY)",007647010,YES,NON-PBT,NO,0,NO,R,Pounds,0,333,0,0,0,0,0,0,0,0,0,0,333,0,0,0,0,0,0,0,0,0,0,0,0,0,0,0,0,0,0,0,0,0,0,0,0,0,0,0,0,0,0,0,0,0,0,0,0,0,333,333,0,0,0,0,0,0,0,0,0,207914,208247,0,1.11,RHODIA INC,002959810
2000,77012STFFR8615M,RHODIA INC,8615 MANCHESTER ST,HOUSTON,HARRIS,TX,77012,29.718139,-95.26875,2819,,,,,,325188,,,,,,1300140273487,VINYL ACETATE,000108054,YES,NON-PBT,NO,0,YES,R,Pounds,62,24,0,0,0,0,0,0,0,0,0,0,86,0,0,0,0,0,0,0,0,0,0,0,0,0,0,0,0,0,0,0,0,0,0,0,0,0,0,0,0,0,0,0,0,0,0,0,0,0,86,86,0,0,0,0,794436,0,0,0,0,0,794522,0,1.12,RHODIA INC,002959810
2000,79549RF   16THA,REEF CHEMICAL CORP INC,1600 AVE Q,SNYDER,SCURRY,TX,79549,32.726138,-100.915799,2899,,,,,,325998,,,,,,1300140302720,TOLUENE,000108883,YES,NON-PBT,NO,0,NO,R,Pounds,31,17,0,0,0,0,0,0,0,0,0,0,48,0,0,0,0,0,0,0,0,0,0,0,0,0,0,0,0,0,0,0,0,0,0,0,0,0,0,0,0,0,0,0,0,0,0,0,0,0,48,48,0,0,0,0,0,0,0,0,0,0,48,0,0,NA,NA
2000,79766RFCHM2559W,REEF SERVICES LLC,2559 W I-20,ODESSA,ECTOR,TX,79766,31.815979,-102.392145,2899,,,,,,325998,,,,,,1300140302821,N-HEXANE,000110543,YES,NON-PBT,NO,0,NO,R,Pounds,339,0,0,0,0,0,0,0,0,0,0,0,339,0,0,0,0,0,0,0,0,0,0,0,0,0,0,0,0,0,0,0,0,0,0,0,0,0,0,0,0,0,0,0,0,0,0,0,0,0,339,339,0,0,0,0,0,0,0,0,0,0,339,0,.97,REEF SERVICES LLC,020327276
2000,76825BRDNCACFRA,MOMENTIVE SPECIALTY CHEMICALS INC,45 ACFRAC RD,BRADY,MCCULLOCH,TX,76825,31.1075,-99.3227,2899,,,,,,325199,,,,,,1300140325871,DIISOCYANATES,N120,YES,NON-PBT,NO,0,NO,R,Pounds,5,250,0,0,0,0,0,0,0,0,0,0,255,0,0,0,6993,0,0,0,0,0,0,0,0,0,0,0,0,0,0,0,0,6993,0,0,0,0,0,0,0,0,0,0,0,0,0,0,0,0,7248,231,0,0,0,0,0,0,0,0,0,6993,7224,0,1.37,MOMENTIVE PERFORMANCE MATERIALS HOLDINGS LLC,965214146
2000,78666PRKVW400BA,PARKVIEW METAL PRODUCTS INC,400 BARNES DR,SAN MARCOS,HAYS,TX,78666,29.853733,-97.95943,3469,,,,,,332116,,,,,,1300140334525,TRICHLOROETHYLENE,000079016,YES,NON-PBT,NO,0,YES,R,Pounds,46093,0,0,0,0,0,0,0,0,0,0,0,46093,0,0,0,0,0,0,0,0,0,0,0,0,0,0,0,0,0,0,0,0,0,0,0,0,0,0,0,0,250,250,0,0,0,0,0,0,0,46093,46093,0,0,0,0,0,106,1202084,0,0,0,1248283,0,.81,PARKVIEW METAL PRODUCTS INC,005098454
2000,77012STFFR8615M,RHODIA INC,8615 MANCHESTER ST,HOUSTON,HARRIS,TX,77012,29.718139,-95.26875,2819,,,,,,325188,,,,,,1300140273867,FORMIC ACID,000064186,NO,NON-PBT,NO,0,NO,R,Pounds,1,0,0,0,0,0,0,0,0,0,0,0,1,0,0,0,0,0,0,0,0,0,0,0,0,0,0,0,0,0,0,0,0,0,0,0,0,0,0,0,0,0,0,0,0,0,0,0,0,0,1,1,0,0,0,0,0,0,0,0,13296,0,13297,0,1.12,RHODIA INC,002959810
2000,77017TXSPT8600P,TPC GROUP LLC,8600 PARK PL BLVD,HOUSTON,HARRIS,TX,77017,29.678783,-95.254961,2869,,,,,,325199,,,,,,1300140300322,ACRYLONITRILE,000107131,YES,NON-PBT,NO,0,YES,R,Pounds,7,0,100,0,0,0,0,0,0,0,0,0,107,0,0,0,0,0,0,0,0,0,0,0,0,0,0,0,0,0,0,0,0,0,0,0,0,0,0,0,0,0,0,0,0,0,0,0,0,0,107,107,0,0,0,0,0,0,0,0,100548,0,100655,0,1.04,NA,NA
2000,77586STHWS5306H,POLY ONE CORP,5306 HWY 146,SEABROOK,HARRIS,TX,77586,29.593435,-95.02542,3087,,,,,,325991,,,,,,1300140334855,ZINC COMPOUNDS,N982,NO,NON-PBT,YES,1,NO,R,Pounds,0,0,250,0,0,0,0,0,0,0,0,0,250,0,0,0,0,250,0,0,0,0,0,0,0,0,0,0,0,0,0,0,0,250,0,0,0,0,0,0,0,0,0,0,0,0,0,0,0,0,500,80,0,0,0,0,0,0,0,0,0,0,80,0,1.5,POLYONE CORP,800967705
2000,75601MRTHN2400S,LETOURNEAU TECHNOLOGIES INC,2400 S MCARTHUR BLVD,LONGVIEW,GREGG,TX,75601,32.452278,-94.746278,3531,,,,,,333120,,,,,,1300140367400,ZINC COMPOUNDS,N982,NO,NON-PBT,YES,1,NO,R,Pounds,2880,1298,250,0,0,0,0,0,0,0,0,0,4428,0,0,0,0,0,0,0,0,0,0,0,0,0,0,0,0,0,0,0,0,0,0,24541,0,0,518,25059,0,0,0,0,0,0,0,0,0,0,4428,4248,0,0,0,0,0,0,0,25577,0,0,29825,0,1.27,ROWAN COS,007930050
2000,77375MRCNC10625,AMERICAN COATINGS LLC,10625 MAHAFFEY RD,TOMBALL,HARRIS,TX,77375,30.091914,-95.578126,2851,,,,,,325510,,,,,,1300140280138,XYLENE (MIXED ISOMERS),001330207,YES,NON-PBT,NO,0,NO,R,Pounds,623,28126,0,0,0,0,0,0,0,0,0,0,28749,0,0,0,0,0,0,0,0,0,0,0,0,0,0,0,0,0,0,0,0,0,0,0,0,0,0,0,99898,0,99898,0,0,0,0,0,0,0,28749,28748,0,0,0,0,0,99808,0,0,100000,0,228556,0,1,AMERICAN COATINGS LLC,NA
2000,78219KCHPT498PO,FLINT HILLS RESOURCES CORPUS CHRISTI LLC SAN ANTONIO,498 POP GUNN DR,SAN ANTONIO,BEXAR,TX,78219,29.429452,-98.39426,5171,,,,,,424710,,,,,,1300140283211,NAPHTHALENE,000091203,YES,NON-PBT,NO,0,NO,R,Pounds,250,5,0,0,0,0,0,0,0,0,0,0,255,0,0,0,0,0,0,0,0,0,0,0,0,0,0,0,0,0,0,0,0,0,0,0,0,0,0,0,0,0,0,0,0,0,0,0,0,0,255,17,0,0,0,0,0,0,24,0,1,0,42,0,1.06,KOCH INDUSTRIES INC,006944334
2000,77017TXSPT8600P,TPC GROUP LLC,8600 PARK PL BLVD,HOUSTON,HARRIS,TX,77017,29.678783,-95.254961,2869,,,,,,325110,,,,,,1300140300411,SODIUM NITRITE,007632000,NO,NON-PBT,YES,2,NO,R,Pounds,0,0,0,0,0,0,0,0,0,0,0,0,0,0,0,0,0,0,0,0,0,0,0,0,0,0,0,0,0,0,0,0,0,0,0,0,0,0,0,0,0,0,0,0,0,0,0,0,0,0,0,0,0,0,0,0,0,0,0,0,94620,0,94620,0,1.04,NA,NA
2000,78717SLZRR9900S,ZIMMER AUSTIN INC,9900 SPECTRUM DR,AUSTIN,WILLIAMSON,TX,78717,30.480766,-97.774664,3842,,,,,,339113,,,,,,1300140327279,COBALT,007440484,YES,NON-PBT,YES,1,YES,R,Pounds,0,0,0,0,0,0,0,0,0,0,0,0,0,0,0,0,0,0,0,0,0,0,139,0,0,0,0,0,0,0,0,0,0,139,0,0,0,0,7925,7925,0,0,0,0,0,0,0,0,0,0,139,81,0,0,0,0,0,0,0,7925,0,0,8006,0,1,ZIMMER HOLDINGS INC,021599365
2000,77704MBLC2GULFS,EXXONMOBIL OIL CORP BCSP (DBA MOBIL CHEMICAL CO),2775 GULF STATES RD,BEAUMONT,JEFFERSON,TX,77704,30.060855,-94.073833,2869,2819,,,,,325110,,,,,,1300140331404,N-BUTYL ALCOHOL,000071363,NO,NON-PBT,NO,0,NO,R,Pounds,1318,0,0,0,0,0,0,0,0,0,0,0,1318,0,0,0,0,0,0,0,0,0,0,0,0,0,0,0,0,0,0,0,431,431,0,0,0,0,0,0,0,0,0,0,0,0,0,0,0,0,1749,1749,0,0,0,0,0,0,0,0,20,0,1769,1,1.06,EXXON MOBIL CORP,001213214
2000,77704MBLC2GULFS,EXXONMOBIL OIL CORP BCSP (DBA MOBIL CHEMICAL CO),2775 GULF STATES RD,BEAUMONT,JEFFERSON,TX,77704,30.060855,-94.073833,2869,2819,,,,,325110,,,,,,1300140331479,ETHYLENE,000074851,NO,NON-PBT,NO,0,NO,R,Pounds,73,106,0,0,0,0,0,0,0,0,0,0,179,0,0,0,0,0,0,0,0,0,0,0,0,0,0,0,0,0,0,0,0,0,0,0,0,0,0,0,0,0,0,0,0,0,0,0,0,0,179,179,0,0,0,0,0,0,0,0,4779,0,4958,0,2.26,EXXON MOBIL CORP,001213214
2000,77640CHVRN2001S,CHEVRON PHILLIPS CHEMICAL CO,2001 S GULFWAY DR,PORT ARTHUR,JEFFERSON,TX,77640,29.851798,-93.97674,2869,,,,,,325199,,,,,,1300140254184,N-HEXANE,000110543,YES,NON-PBT,NO,0,NO,R,Pounds,290,1600,0,0,0,0,0,0,0,0,0,0,1890,0,0,0,0,0,0,0,0,0,0,0,0,0,0,0,0,0,0,0,0,0,5,0,0,0,0,5,0,0,0,0,0,0,0,0,0,0,1890,1900,0,0,0,0,0,0,0,1,3900,0,5801,0,1,CHEVRON CORP,NA
2000,77640CHVRN2001S,CHEVRON PHILLIPS CHEMICAL CO,2001 S GULFWAY DR,PORT ARTHUR,JEFFERSON,TX,77640,29.851798,-93.97674,2869,,,,,,325199,,,,,,1300140254234,TOLUENE,000108883,YES,NON-PBT,NO,0,NO,R,Pounds,1800,4400,0,0,0,0,0,0,0,0,0,0,6200,0,0,0,5,0,0,0,0,0,250,0,0,0,0,0,0,0,0,0,0,255,920000,0,0,0,0,920000,0,0,0,0,1405,0,43000,0,0,44405,6455,6200,0,0,0,0,0,0,0,920000,7800,45000,979000,0,1,CHEVRON CORP,NA
2000,78219KCHPT498PO,FLINT HILLS RESOURCES CORPUS CHRISTI LLC SAN ANTONIO,498 POP GUNN DR,SAN ANTONIO,BEXAR,TX,78219,29.429452,-98.39426,5171,,,,,,424710,,,,,,1300140283274,POLYCYCLIC AROMATIC COMPOUNDS,N590,YES,PBT,NO,0,YES,R,Pounds,0,.1,0,0,0,0,0,0,0,0,0,0,.1,0,0,0,0,0,0,0,0,0,0,0,0,0,0,0,0,0,0,0,0,0,0,0,0,0,0,0,0,0,0,0,0,0,0,0,0,0,.1,.1,0,0,0,0,0,0,0,0,0,0,.1,0,0,KOCH INDUSTRIES INC,006944334
2000,77590MRTHNFOOTO,MARATHON PETROLEUM CO LP,502 10TH ST S,TEXAS CITY,GALVESTON,TX,77590,29.371194,-94.911389,2911,,,,,,324110,,,,,,1300140289707,ETHYLENE,000074851,NO,NON-PBT,NO,0,NO,R,Pounds,120,6900,0,0,0,0,0,0,0,0,0,0,7020,0,0,0,0,0,0,0,0,0,0,0,0,0,0,0,0,0,0,0,0,0,0,0,0,0,0,0,0,0,0,0,0,0,0,0,0,0,7020,6980,0,0,0,0,0,0,0,0,97500,0,104480,0,1,MARATHON OIL CORP,002028801
2000,77590MRTHNFOOTO,MARATHON PETROLEUM CO LP,502 10TH ST S,TEXAS CITY,GALVESTON,TX,77590,29.371194,-94.911389,2911,,,,,,324110,,,,,,1300140289810,"BENZO(G,H,I)PERYLENE",000191242,YES,PBT,NO,0,YES,R,Pounds,0,.01,0,0,0,0,0,0,0,0,0,0,.01,0,0,0,0,0,0,.0023,0,0,0,0,0,0,0,0,0,0,0,0,0,.0023,0,0,.8401,0,0,.8401,0,0,0,0,.04,0,0,0,0,.04,.0123,1,0,0,0,0,0,0,0,0,0,0,1,0,1,MARATHON OIL CORP,002028801
2000,77704MBLC2GULFS,EXXONMOBIL OIL CORP BCSP (DBA MOBIL CHEMICAL CO),2775 GULF STATES RD,BEAUMONT,JEFFERSON,TX,77704,30.060855,-94.073833,2869,2819,,,,,325110,,,,,,1300140331657,ZINC COMPOUNDS,N982,NO,NON-PBT,YES,1,NO,R,Pounds,0,0,0,0,0,0,0,0,0,0,0,0,0,0,0,0,0,0,0,0,0,0,0,0,0,0,0,0,0,0,0,0,0,0,0,0,0,0,0,0,0,0,0,0,0,0,0,0,0,0,0,0,0,0,0,0,0,0,0,0,0,0,0,0,1.13,EXXON MOBIL CORP,001213214
2000,77547LBRPC780CL,SOPUS PRODUCTS,780 CLINTON DR,GALENA PARK,HARRIS,TX,77547,29.732527,-95.222957,2992,,,,,,324191,,,,,,1300140337027,XYLENE (MIXED ISOMERS),001330207,YES,NON-PBT,NO,0,NO,R,Pounds,0,0,0,0,0,0,0,0,0,0,0,0,0,0,0,0,0,0,0,0,0,0,0,0,0,0,0,0,0,0,0,0,0,0,0,0,0,0,0,0,0,0,0,0,0,0,0,0,0,0,0,0,0,0,0,0,0,0,0,0,0,0,0,0,.82,PENNZOIL-QUAKER STATE CO,161809744
2000,75146MRPNC945EA,AMREP INC LANCASTER,945 E PLEASANT RUN RD,LANCASTER,DALLAS,TX,75146,32.603971,-96.739072,2841,2842,2879,,,,325611,,,,,,1300140342763,METHANOL,000067561,YES,NON-PBT,NO,0,NO,R,Pounds,250,0,0,0,0,0,0,0,0,0,0,0,250,0,0,0,250,0,0,0,0,0,0,0,0,0,0,0,0,0,0,0,0,250,0,0,0,0,0,0,0,0,0,0,0,0,0,0,0,0,500,49,0,0,0,0,0,97,0,0,0,0,146,0,1.63,AMREP INC,NA
2000,77830GBBNS25MIL,GIBBONS CREEK STEAM STATION,12824 FM 244,ANDERSON,GRIMES,TX,77830,30.571333,-96.080444,4911,,,,,,221112,,,,,,1300140254323,MANGANESE COMPOUNDS,N450,YES,NON-PBT,YES,1,NO,R,Pounds,5,132,0,0,0,0,13967,0,0,0,0,0,14104,0,0,0,0,0,0,0,0,0,0,0,0,0,0,0,0,0,0,0,0,0,0,0,0,0,0,0,0,0,0,0,0,0,0,0,0,0,14104,132,0,0,0,0,0,0,0,117800,0,0,117932,0,0,NA,NA
2000,77705CLNLT15651,COLONIAL TANK FARM,14713 W PORT ARTHUR RD,BEAUMONT,JEFFERSON,TX,77705,29.972336,-94.053349,5171,,,,,,424710,,,,,,1300140257674,XYLENE (MIXED ISOMERS),001330207,YES,NON-PBT,NO,0,NO,R,Pounds,0,1900,0,0,0,0,0,0,0,0,0,0,1900,0,0,0,0,0,0,0,0,0,0,0,0,0,0,0,0,0,0,0,0,0,0,0,0,0,0,0,0,0,0,0,0,0,0,0,0,0,1900,1900,0,0,0,0,0,0,0,0,0,0,1900,0,0,EXXON MOBIL CORP,001213214
2000,77662HRSHDOLDHW,HORSEHEAD CORP,OLD HWY 90,ROSE CITY,ORANGE,TX,77662,30.110774,-94.047495,2816,,,,,,331492,,,,,,1300140331935,MERCURY COMPOUNDS,N458,YES,PBT,YES,1,NO,R,Pounds,0,33,0,0,0,0,0,0,0,0,0,0,33,0,0,0,0,0,0,0,0,0,0,0,0,0,0,0,0,0,0,0,0,0,0,0,0,0,0,0,0,0,0,0,0,0,0,0,0,0,33,33,0,0,0,0,0,0,0,0,0,0,33,0,1.3,HORSEHEAD HOLDING CORP,NA
2000,77704MBLCHGULFS,EXXONMOBIL OIL CORP (DBA MOBIL CHEMICAL CO),2775 GULF STATES RD,BEAUMONT,JEFFERSON,TX,77701,30.060855,-94.073833,2869,,,,,,325110,,,,,,1300140332279,DIOXIN AND DIOXIN-LIKE COMPOUNDS,N150,YES,DIOXIN,NO,0,NO,R,Grams,0,0,0,0,0,0,0,0,0,0,0,0,0,0,0,0,0,0,0,0,0,0,0,0,0,0,0,0,0,0,0,0,0,0,0,0,0,0,0,0,0,0,0,0,0,0,0,0,0,0,0,0,0,0,0,0,0,0,0,0,0,0,0,0,0,EXXON MOBIL CORP,001213214
2000,77704MBLCHGULFS,EXXONMOBIL OIL CORP (DBA MOBIL CHEMICAL CO),2775 GULF STATES RD,BEAUMONT,JEFFERSON,TX,77701,30.060855,-94.073833,2869,,,,,,325110,,,,,,1300140332343,METHANOL,000067561,YES,NON-PBT,NO,0,NO,R,Pounds,775,323,0,0,0,0,0,0,0,0,0,0,1098,0,0,0,5308,0,0,0,0,0,0,0,0,0,0,0,0,0,0,0,0,5308,0,0,0,0,0,0,0,0,0,0,0,0,0,0,0,0,6406,6406,0,0,0,0,0,0,0,0,0,0,6406,0,1.51,EXXON MOBIL CORP,001213214
2000,77704MBLCHGULFS,EXXONMOBIL OIL CORP (DBA MOBIL CHEMICAL CO),2775 GULF STATES RD,BEAUMONT,JEFFERSON,TX,77701,30.060855,-94.073833,2869,,,,,,325110,,,,,,1300140332406,POLYCYCLIC AROMATIC COMPOUNDS,N590,YES,PBT,NO,0,YES,R,Pounds,16,0,0,0,0,0,0,0,0,0,0,0,16,0,0,0,0,0,0,0,0,0,0,0,0,0,0,0,0,0,0,0,0,0,0,0,0,0,0,0,0,0,0,0,0,0,0,0,0,0,16,16,0,0,0,0,0,0,0,0,0,0,16,0,1.27,EXXON MOBIL CORP,001213214
2000,78226BNGRS601CR,BOEING AEROSPACE SUPPORT CENTER,375 AIRLIFT DR 2ND FLOOR COLUMN 43,SAN ANTONIO,BEXAR,TX,782261804,29.370417,-98.565535,3721,,,,,,336411,,,,,,1300140337635,TOLUENE,000108883,YES,NON-PBT,NO,0,NO,R,Pounds,0,1370,0,0,0,0,0,0,0,0,0,0,1370,0,0,0,0,0,0,0,0,0,0,0,0,0,0,0,0,0,0,0,0,0,0,0,0,0,0,0,820,0,820,0,70,0,0,0,0,70,1370,1370,0,0,0,0,0,820,0,0,0,70,2260,0,0,BOEING CO,009256819
2000,77630LLDSGFM100,HONEYWELL INC (FORMERLY ALLI ED-SIGNAL),3927 FARM RD 1006,ORANGE,ORANGE,TX,77630,30.037361,-93.757167,2821,,,,,,325211,,,,,,1300140258144,ACRYLIC ACID,000079107,YES,NON-PBT,NO,0,NO,R,Pounds,1200,2,0,0,0,0,0,0,0,0,0,0,1202,0,0,0,0,0,0,0,0,0,0,0,0,0,0,0,0,0,0,0,0,0,0,0,0,0,0,0,0,0,0,0,0,0,0,0,0,0,1202,1200,0,0,0,0,0,0,0,0,85000,0,86200,0,.87,HONEYWELL INTERNATIONAL INC,139691877
2000,77651TXCRFCORNE,MOTIVA ENTERPRISES LLC,CORNER SPUR 136 & GRIGSBY DR,PORT NECHES,JEFFERSON,TX,77651,29.973553,-93.939461,2911,5171,,,,,324110,,,,,,1300140277498,N-HEXANE,000110543,YES,NON-PBT,NO,0,NO,R,Pounds,70,1200,0,0,0,0,0,0,0,0,0,0,1270,0,0,0,0,0,0,0,0,0,0,0,0,0,0,0,0,0,0,0,0,0,0,0,0,0,0,0,0,0,0,0,0,0,0,0,0,0,1270,1270,0,0,0,0,0,0,0,0,0,0,1270,0,.79,MOTIVA ENTERPRISES LLC,NA
2000,78419NVLRS11001,US NAVY NAVAL AIR STATION CORPUS CHRISTI,8851 OCEAN DR,CORPUS CHRISTI,NUECES,TX,78419,27.704833,-97.285639,9711,,,,,,928110,,,,,,1300140307137,TRICHLOROETHYLENE,000079016,YES,NON-PBT,NO,0,YES,R,Pounds,15000,0,0,0,0,0,0,0,0,0,0,0,15000,0,0,0,0,0,0,0,0,0,0,0,0,0,0,0,0,0,0,0,0,0,0,0,0,0,0,0,0,0,0,0,0,0,0,0,0,0,15000,15000,0,0,0,0,0,0,0,0,0,0,15000,0,0,US DEPARTMENT OF DEFENSE,NA
2000,77701BMNTREASTE,EXXONMOBIL OIL BEAUMONT REFINERY,E END OF BURT ST,BEAUMONT,JEFFERSON,TX,77701,30.063889,-94.070278,2911,,,,,,324110,,,,,,1300140255959,XYLENE (MIXED ISOMERS),001330207,YES,NON-PBT,NO,0,NO,R,Pounds,37000,73000,0,0,0,0,0,0,0,0,0,0,110000,0,0,0,0,0,0,0,0,0,17,0,0,0,0,0,0,0,0,0,0,17,0,0,0,0,0,0,49,0,49,0,27,0,0,0,0,27,110017,110017,0,0,0,0,0,49,21000,0,65995,13,197074,0,.98,EXXON MOBIL CORP,001213214
2000,77511SLTNCFM291,ASCEND PERFORMANCE MATERIALS - CHOCOLATE BAYOU FACILITY,FM 2917,ALVIN,BRAZORIA,TX,775120000,29.30242,-95.23441,2869,2819,,,,,325188,,,,,,1300140278577,BENZENE,000071432,YES,NON-PBT,NO,0,YES,R,Pounds,0,50,0,70,0,0,0,0,0,0,0,0,120,0,0,0,0,0,0,0,0,0,0,0,0,0,0,0,0,0,0,0,0,0,0,0,0,0,0,0,0,0,0,0,0,0,0,0,0,0,120,120,0,0,0,0,0,0,0,0,47000,0,47120,0,.82,SK CAPITAL PARTNERS,NA
2000,77511NVSNTFM291,NOVUS INTERNATIONAL LLLP,FM 2917,ALVIN,BRAZORIA,TX,77512,29.30242,-95.23441,2869,,,,,,325199,,,,,,1300140363348,FORMIC ACID,000064186,NO,NON-PBT,NO,0,NO,R,Pounds,0,0,0,2300000,0,0,0,0,0,0,0,0,2300000,0,0,0,0,0,0,0,0,0,0,0,0,0,0,0,0,0,0,0,0,0,0,0,0,0,0,0,0,0,0,0,0,0,0,0,0,0,2300000,2300000,0,0,0,0,0,0,0,0,0,0,2300000,0,1.01,NOVUS INTERNATIONAL LLLP,626521264
2000,77087STNVR5743C,SET ENVIRONMENTAL INC,5743 CHESWOOD ST,HOUSTON,HARRIS,TX,770874002,29.682032,-95.31818,4953,,,,,,562211,,,,,,1300140364783,CHROMIUM COMPOUNDS(EXCEPT CHROMITE ORE MINED IN THE TRANSVAAL REGION),N090,YES,NON-PBT,YES,1,NO,R,Pounds,0,0,5,0,0,0,0,0,0,0,0,0,5,0,0,0,0,63900,0,3443,0,0,0,0,0,0,0,0,0,0,0,3062,0,70405,0,0,0,0,0,0,0,0,0,0,0,0,0,0,0,0,70410,6510,0,0,0,0,0,0,0,0,0,63900,70410,0,0,NA,NA
2000,77701BMNTREASTE,EXXONMOBIL OIL BEAUMONT REFINERY,E END OF BURT ST,BEAUMONT,JEFFERSON,TX,77701,30.063889,-94.070278,2911,,,,,,324110,,,,,,1300140255656,AMMONIA,007664417,NO,NON-PBT,NO,0,NO,R,Pounds,210000,2400,0,0,0,0,0,0,0,0,0,0,212400,0,0,0,0,0,0,0,0,0,0,0,0,0,0,0,0,0,0,0,0,0,0,0,0,0,0,0,0,0,0,0,0,0,0,0,0,0,212400,212400,0,0,0,0,0,0,0,0,170000,0,382400,0,.98,EXXON MOBIL CORP,001213214
2000,77701BMNTREASTE,EXXONMOBIL OIL BEAUMONT REFINERY,E END OF BURT ST,BEAUMONT,JEFFERSON,TX,77701,30.063889,-94.070278,2911,,,,,,324110,,,,,,1300140255694,CHLORINE,007782505,YES,NON-PBT,NO,0,NO,R,Pounds,0,5,0,0,0,0,0,0,0,0,0,0,5,0,0,0,0,0,0,0,0,0,0,0,0,0,0,0,0,0,0,0,0,0,0,0,0,0,0,0,0,0,0,0,0,0,0,0,0,0,5,5,0,0,0,0,0,0,0,0,500,0,505,0,.98,EXXON MOBIL CORP,001213214
2000,77701BMNTREASTE,EXXONMOBIL OIL BEAUMONT REFINERY,E END OF BURT ST,BEAUMONT,JEFFERSON,TX,77701,30.063889,-94.070278,2911,,,,,,324110,,,,,,1300140255833,METHANOL,000067561,YES,NON-PBT,NO,0,NO,R,Pounds,14000,8300,0,0,0,0,0,0,0,0,0,0,22300,0,0,0,0,0,0,0,0,0,0,0,0,0,0,0,0,0,0,0,0,0,0,0,0,0,0,0,0,0,0,0,0,0,0,0,0,0,22300,22300,0,0,0,0,0,0,0,0,120000,0,142300,0,.98,EXXON MOBIL CORP,001213214
2000,77511SLTNCFM291,ASCEND PERFORMANCE MATERIALS - CHOCOLATE BAYOU FACILITY,FM 2917,ALVIN,BRAZORIA,TX,775120000,29.30242,-95.23441,2869,2819,,,,,325188,,,,,,1300140278692,HYDROGEN CYANIDE,000074908,NO,NON-PBT,NO,0,NO,R,Pounds,740,1400,0,520000,0,50,0,0,0,0,0,0,522190,0,0,0,0,0,0,0,0,0,0,0,0,0,0,0,0,0,0,0,0,0,0,0,0,0,0,0,0,0,0,0,0,0,0,0,0,0,522190,520000,0,0,0,0,0,0,0,0,780000,0,1300000,0,1.14,SK CAPITAL PARTNERS,NA
2000,77511SLTNCFM291,ASCEND PERFORMANCE MATERIALS - CHOCOLATE BAYOU FACILITY,FM 2917,ALVIN,BRAZORIA,TX,775120000,29.30242,-95.23441,2869,2819,,,,,325188,,,,,,1300140278793,AMMONIA,007664417,NO,NON-PBT,NO,0,NO,R,Pounds,1400,8900,0,4800000,0,0,0,0,0,0,0,0,4810300,0,0,0,0,0,0,0,0,0,0,0,0,0,0,0,0,0,0,0,0,0,0,0,0,0,0,0,0,0,0,0,0,0,0,0,0,0,4810300,4800000,0,0,0,0,0,0,920000,0,270000,0,5990000,0,1.14,SK CAPITAL PARTNERS,NA
2000,77536DLTCH334TI,DELTA DEER PARK,334 TIDAL RD,DEER PARK,HARRIS,TX,77536,29.714578,-95.112355,5169,,,,,,424690,,,,,,1300140282068,METHANOL,000067561,YES,NON-PBT,NO,0,NO,R,Pounds,0,0,0,0,0,0,0,0,0,0,0,0,0,0,0,0,0,0,0,0,0,0,0,0,0,0,0,0,0,0,0,0,0,0,0,0,0,0,0,0,0,0,0,0,0,0,0,0,0,0,0,0,0,0,0,0,0,0,0,0,0,0,0,0,0,DELTA PETROLEUM CO INC,008176364
2000,78210NDSTR434RI,WARREN INDUSTRIAL LUBRICANTS CO,434 RIVERSIDE DR,SAN ANTONIO,BEXAR,TX,78210,29.375607,-98.478025,5093,5171,,,,,424710,,,,,,1300140365444,ETHYLENE GLYCOL,000107211,YES,NON-PBT,NO,0,NO,R,Pounds,5,0,0,0,0,0,0,0,0,0,0,250,255,0,0,0,73100,0,0,0,0,0,0,0,0,0,0,0,0,0,0,0,0,73100,250400,0,0,0,0,250400,0,0,0,0,0,0,0,0,0,0,73355,0,0,0,0,0,0,0,0,250400,0,0,250400,0,.5,WARREN OIL CO,NA
2000,75050SRGRD23501,ENGINEERED POLYMER SOLUTIONS INC D/B/A VALSPAR COATINGS,2350 114TH ST,GRAND PRAIRIE,TARRANT,TX,75050,32.789167,-97.0375,2851,,,,,,325510,,,,,,1300140355734,METHYL ETHYL KETONE,000078933,NO,NON-PBT,NO,0,NO,R,Pounds,757,0,0,0,0,0,0,0,0,0,0,0,757,0,0,0,0,0,0,0,0,0,0,0,0,0,0,0,0,0,0,0,0,0,0,0,0,0,0,0,32737,0,32737,0,0,0,0,0,0,0,757,757,0,0,0,0,0,32767,4000,0,0,0,37524,0,1.04,THE VALSPAR CORP,050736453
2000,79760CNTNN100IN,CONTINENTAL PRODUCTS OF TEXAS,100 INDUSTRIAL AVE,ODESSA,ECTOR,TX,79761,31.85728,-102.34147,2899,,,,,,424690,,,,,,1300140360102,METHANOL,000067561,YES,NON-PBT,NO,0,NO,R,Pounds,0,0,0,0,0,0,0,0,0,0,0,0,0,0,0,0,0,0,0,0,0,0,0,0,0,0,0,0,0,0,0,0,0,0,0,0,0,0,0,0,0,0,0,0,0,0,0,0,0,0,0,0,0,0,0,0,0,0,375,0,0,0,375,0,0,CONTINENTAL PRODUCTS OF TEXAS INC,NA
2000,77511SLTNCFM291,ASCEND PERFORMANCE MATERIALS - CHOCOLATE BAYOU FACILITY,FM 2917,ALVIN,BRAZORIA,TX,775120000,29.30242,-95.23441,2869,2819,,,,,325188,,,,,,1300140278906,TOLUENE,000108883,YES,NON-PBT,NO,0,NO,R,Pounds,25,38,0,0,0,0,0,0,0,0,0,0,63,0,0,0,0,0,0,0,0,0,0,0,0,0,0,0,0,0,0,0,0,0,0,0,0,0,0,0,0,0,0,0,0,0,0,0,0,0,63,63,0,0,0,0,0,0,0,0,38000,0,38063,0,1.52,SK CAPITAL PARTNERS,NA
2000,75671FCLTY1400W,REPUBLIC INDUSTRIES INC,1400 WARREN DR,MARSHALL,HARRISON,TX,75672,32.521801,-94.312165,2434,,,,,,337110,,,,,,1300140267939,ETHYLBENZENE,000100414,YES,NON-PBT,NO,0,NO,R,Pounds,795,23696,0,0,0,0,0,0,0,0,0,0,24491,0,0,0,0,0,0,0,0,0,0,0,0,0,0,0,0,0,0,0,0,0,0,0,0,0,0,0,0,0,0,0,0,0,0,0,0,0,24491,24487,0,0,0,0,0,0,0,0,0,0,24487,0,1,REPUBLIC INDUSTRIES INC,196820104
2000,77536LBRZL41TID,LUBRIZOL CORP DEER PARK FACILITY,41 TIDAL RD,DEER PARK,HARRIS,TX,775360158,29.715067,-95.112007,2869,,,,,,325000,,,,,,1300140285949,"HYDROCHLORIC ACID (1995 AND AFTER ""ACID AEROSOLS"" ONLY)",007647010,YES,NON-PBT,NO,0,NO,R,Pounds,6700,23648,0,0,0,0,0,0,0,0,0,0,30348,0,0,0,0,0,0,0,0,0,0,0,0,0,0,0,0,0,0,0,0,0,0,0,0,0,0,0,0,0,0,0,0,0,0,0,0,0,30348,30348,0,0,0,0,0,0,0,0,1955136,0,1985484,0,1,THE LUBRIZOL CORP,004172565
2000,76040MCKLN10950,MOMENTIVE PERFORMANCE MATERIALS USA INC,10950 S PIPELINE RD,EULESS,TARRANT,TX,76040,32.814735,-97.134149,2891,,,,,,325520,,,,,,1300140289149,TOLUENE,000108883,YES,NON-PBT,NO,0,NO,R,Pounds,0,1471,0,0,0,0,0,0,0,0,0,0,1471,0,0,0,0,0,0,0,0,0,0,0,0,0,0,0,0,0,0,0,0,0,0,0,0,0,0,0,0,24319,24319,0,0,0,1679,0,0,1679,1471,3150,0,0,0,0,0,24319,5217,0,0,0,32686,0,.92,MOMENTIVE PERFORMANCE MATERIALS USA INC,NA
2000,77536LBRZL41TID,LUBRIZOL CORP DEER PARK FACILITY,41 TIDAL RD,DEER PARK,HARRIS,TX,775360158,29.715067,-95.112007,2869,,,,,,325199,,,,,,1300140286016,BARIUM COMPOUNDS,N040,NO,NON-PBT,YES,3,NO,R,Pounds,4,14,997,0,0,0,0,0,0,0,0,0,1015,0,0,0,0,0,0,0,0,0,68612,0,0,0,0,0,474,0,3991,0,0,73077,0,0,0,0,0,0,0,0,0,0,0,0,0,0,0,0,74092,70101,0,0,0,0,0,0,0,0,126,3991,74218,0,.7,THE LUBRIZOL CORP,004172565
2000,76040MCKLN10950,MOMENTIVE PERFORMANCE MATERIALS USA INC,10950 S PIPELINE RD,EULESS,TARRANT,TX,76040,32.814735,-97.134149,2891,,,,,,325520,,,,,,1300140289240,DIISOCYANATES,N120,YES,NON-PBT,NO,0,NO,R,Pounds,0,0,0,0,0,0,0,0,0,0,0,0,0,0,0,0,0,0,0,0,0,0,0,0,0,0,0,0,0,0,0,0,0,0,0,0,0,0,0,0,0,0,0,0,0,0,0,0,0,0,0,0,0,0,0,0,0,0,0,0,0,0,0,0,.92,MOMENTIVE PERFORMANCE MATERIALS USA INC,NA
2000,75104WSTRN1001C,WESTERN CABINETS INC,1001 CEDARVIEW DR,CEDAR HILL,DALLAS,TX,75104,32.579868,-96.960785,2434,,,,,,337110,,,,,,1300140279732,XYLENE (MIXED ISOMERS),001330207,YES,NON-PBT,NO,0,NO,R,Pounds,1200,10700,0,0,0,0,0,0,0,0,0,0,11900,0,0,0,0,0,0,0,0,0,0,0,0,0,0,0,0,0,0,0,0,0,0,0,0,0,0,0,0,0,0,0,0,0,0,0,0,0,11900,11900,0,0,0,0,0,0,670,0,0,0,12570,0,.7,NA,NA
2000,78219KCHPT498PO,FLINT HILLS RESOURCES CORPUS CHRISTI LLC SAN ANTONIO,498 POP GUNN DR,SAN ANTONIO,BEXAR,TX,78219,29.429452,-98.39426,5171,,,,,,424710,,,,,,1300140283161,BENZENE,000071432,YES,NON-PBT,NO,0,YES,R,Pounds,250,750,0,0,0,0,0,0,0,0,0,0,1000,0,0,0,0,0,0,0,0,0,0,0,0,0,0,0,0,0,0,0,0,0,0,0,0,0,0,0,0,0,0,0,0,0,5,0,0,5,1000,890,0,0,0,0,0,0,55657,0,12009,0,68556,0,1.06,KOCH INDUSTRIES INC,006944334
2000,77541RHNPL6213H,PERSTORP COATINGS INC,6213 HWY 332 E,FREEPORT,BRAZORIA,TX,77541,28.945556,-95.423333,2869,2819,,,,,325188,,,,,,1300140289531,N-BUTYL ALCOHOL,000071363,NO,NON-PBT,NO,0,NO,R,Pounds,4000,0,0,0,0,0,0,0,0,0,0,0,4000,0,0,0,0,0,0,0,0,0,0,0,0,0,0,0,0,0,0,0,0,0,0,0,0,0,0,0,0,0,0,0,0,0,0,0,0,0,4000,4000,0,0,0,0,0,0,0,0,0,0,4000,0,1.04,PERSTORP AB,353972060
2000,76448BBRNNR2LAK,EBAA IRON INC EASTLAND PLANT,37 MILES SE OF EASTLAND ON CR 442,EASTLAND,EASTLAND,TX,76448,32.383333,-98.766667,3321,,,,,,331511,,,,,,1300140309257,"1,2,4-TRIMETHYLBENZENE",000095636,NO,NON-PBT,NO,0,NO,R,Pounds,114,1023,0,0,0,0,0,0,0,0,0,0,1137,0,0,0,0,0,0,0,0,0,0,0,0,0,0,0,0,0,0,0,0,0,0,0,3,0,0,3,0,0,0,0,0,0,0,0,0,0,1137,1137,0,0,0,0,0,0,0,4,0,0,1141,0,1.16,EBAA IRON INC,NA
