Year,TRI Facility ID,Facility Name,Street Address,City,County,ST,ZIP,Latitude,Longitude,Primary SIC,SIC 2,SIC 3,SIC 4,SIC 5,SIC 6,Primary NAICS,NAICS 2,NAICS 3,NAICS 4,NAICS 5,NAICS 6,Doc_Ctrl_Num,Chemical,CAS #/Compound ID,Clean Air Act Chemical,Classification,Metal,Metal Category,Carcinogen,Form Type,Unit of Measure,5.1 Fugitive Air,5.2 Stack Air,5.3 Water,5.4.1 Underground Class I,5.4.2 Underground Class II-V,5.5.1A RCRA C Landfills,5.5.1B Other Landfills,5.5.2 Land Treatment,5.5.3 Surface Impoundment,5.5.3A RCRA C Surface Impoundment,5.5.3B Other Surface Impoundment,5.5.4 Other Disposal,On-site Release Total,6.1 POTW - Metals and Metal Compounds,6.1 POTW - Non-Metals,6.1 POTW - Total Transfers,6.2 M10,6.2 M41,6.2 M62,6.2 M71,6.2 M81,6.2 M82,6.2 M72,6.2 M63,6.2 M66,6.2 M67,6.2 M64,6.2 M65,6.2 M73,6.2 M79,6.2 M90,6.2 M94,6.2 M99,Off-Site Release Total,6.2 M20,6.2 M24,6.2 M26,6.2 M28,6.2 M93,Off-Site Recycled Total,6.2 M56,6.2 M92,Off-Site Recovery Total,6.2 M40,6.2 M50,6.2 M54,6.2 M61,6.2 M69,6.2 M95,Off-Site Treated Total,Total Releases,8.1 Releases,8.1a On-site Contained Releases,8.1b On-site Other Releases,8.1c Off-site Contained Releases,8.1d Off-site Other Releases,8.2 Energy Recovery On-site,8.3 Energy Recovery Off-site,8.4 Recycling On-Site,8.5 Recycling Off-Site,8.6 Treatment On-site,8.7 Treatement Off-site,Production Waste (8.1 thru 8.7),8.8 One-time Release,8.9 Production Ratio,Parent Company Name,Parent Company DB Number,3/3/2012 v10
1990,30083CRWND1669L,CROWE INDL. COATINGS,1669 LITTON DR.,STONE MOUNTAIN,DEKALB,GA,30083,33.830265,-84.1936,2851,,,,,,325510,,,,,,1390040029985,METHYL ETHYL KETONE,000078933,NO,NON-PBT,NO,0,NO,R,Pounds,1159,0,0,0,0,0,0,0,0,0,0,0,1159,0,0,0,0,0,0,0,0,0,0,0,0,0,0,0,0,0,0,0,0,0,0,0,0,0,0,0,0,0,0,0,0,0,0,0,0,0,1159,0,0,0,0,0,0,0,0,0,0,0,0,0,,NA,NA
1990,30906RTGRS3750C,WEYLCHEM CORP,3750 CLANTON RD,AUGUSTA,RICHMOND,GA,30906,33.368333,-82.014444,2869,,,,,,325411,,,,,,1390040093748,"HYDROCHLORIC ACID (1995 AND AFTER ""ACID AEROSOLS"" ONLY)",007647010,YES,NON-PBT,NO,0,NO,R,Pounds,0,0,0,0,0,0,0,0,0,0,0,0,0,0,0,0,0,0,0,0,0,0,0,0,0,0,0,0,0,0,0,0,0,0,0,0,0,0,0,0,0,0,0,0,0,0,0,0,0,0,0,0,0,0,0,0,0,0,0,0,0,0,0,0,,NA,NA
1990,31717MRCNL213AI,THOMAS & BETTS CORP.,213 AIRPORT RD.,BAINBRIDGE,DECATUR,GA,317171610,30.919263,-84.603487,3699,,,,,,335931,,,,,,1390040098574,XYLENE (MIXED ISOMERS),001330207,YES,NON-PBT,NO,0,NO,R,Pounds,0,150574,0,0,0,0,0,0,0,0,0,0,150574,0,0,0,0,0,0,0,0,0,0,0,0,0,0,0,0,0,0,0,0,0,0,0,0,0,0,0,0,0,0,0,0,0,0,0,0,0,150574,0,0,0,0,0,0,0,0,0,0,0,0,0,,THOMAS & BETTS CORP,002154433
1990,30318NGRNT2160C,NIAGARA NATIONAL LLC,2160-C HILLS AVE NW,ATLANTA,FULTON,GA,30318,33.817942,-84.433582,2841,3589,,,,,325611,,,,,,1390040110239,METHANOL,000067561,YES,NON-PBT,NO,0,NO,R,Pounds,5,0,0,0,0,0,0,0,0,0,0,0,5,0,250,250,0,0,0,0,0,0,0,0,0,0,0,0,0,0,0,0,0,0,0,0,0,0,0,0,0,0,0,0,0,0,0,0,0,0,5,0,0,0,0,0,0,0,0,0,0,0,0,0,,NIAGARA NATIONAL LLC,040677957
1990,30722STNDR1010V,PARA-CHEM STANDARD DIV,1010 VISTA DR,DALTON,WHITFIELD,GA,30722,34.79903,-84.949265,2899,2869,2821,,,,325199,,,,,,1390040106763,AMMONIA,007664417,NO,NON-PBT,NO,0,NO,R,Pounds,672,3362,0,0,0,0,0,0,0,0,0,0,4034,0,269,269,0,0,0,0,0,0,0,0,0,0,0,0,0,0,0,0,0,0,0,0,0,0,0,0,0,0,0,0,0,0,0,0,0,0,4034,0,0,0,0,0,0,0,0,0,0,0,0,0,,PARACHEM SOUTHERN INC,002601656
1990,30318MDPCK1105H,MEADWESTVACO PACKAGING SYSTEMS LLC,1105 HERNDON ST NW,ATLANTA,FULTON,GA,30318,33.784421,-84.422665,2679,,,,,,322212,,,,,,1390045119219,METHYL ISOBUTYL KETONE,000108101,YES,NON-PBT,NO,0,NO,R,Pounds,2200,3810,0,0,0,0,0,0,0,0,0,0,6010,0,0,0,0,0,0,0,0,0,0,0,0,0,0,0,0,0,0,0,0,0,0,0,0,0,0,0,0,0,0,0,0,0,0,0,0,0,6010,0,0,0,0,0,0,0,0,0,0,0,0,0,,MEADWESTVACO CORP,102235004
1990,30224BRDNC1201P,AEP INDUSTRIES  INC,1201 S PINE HILL RD,GRIFFIN,SPALDING,GA,30224,33.224843,-84.30759,3081,,,,,,326113,,,,,,1390045151812,BIS(2-ETHYLHEXYL) ADIPATE,000103231,NO,NON-PBT,NO,0,NO,R,Pounds,250,250,0,0,0,0,0,0,0,0,0,0,500,0,0,0,0,0,0,0,0,0,0,0,0,0,0,0,0,0,0,0,0,0,0,0,0,0,0,0,0,0,0,0,0,0,0,0,0,0,500,0,0,0,0,0,0,0,0,0,0,0,0,0,,AEP INDUSTRIES INC,001338797
1990,31069CNTNN240HI,CROWN BEVERAGE PACKAGING INC.,240 HWY. 247 SPUR,PERRY,HOUSTON,GA,31069,32.440795,-83.635241,3411,,,,,,332431,,,,,,1390045261688,N-BUTYL ALCOHOL,000071363,NO,NON-PBT,NO,0,NO,R,Pounds,17000,69000,0,0,0,0,0,0,0,0,0,0,86000,0,0,0,0,0,0,0,0,0,0,0,0,0,0,0,0,0,0,0,0,0,0,0,0,0,0,0,0,0,0,0,0,0,0,0,0,0,86000,0,0,0,0,0,0,0,0,0,0,0,0,0,,CROWN CORK & SEAL CO INC,002282341
1990,30269GSRFN200SI,GS ROOFING PRODUCTS CO INC,200 SIERRA DR,PEACHTREE CITY,FAYETTE,GA,30269,33.353995,-84.55969,2952,,,,,,324122,,,,,,1390040011621,ZINC (FUME OR DUST),007440666,NO,NON-PBT,YES,4,NO,R,Pounds,0,0,0,0,0,0,5000,0,0,0,0,0,5000,0,0,0,0,0,0,0,0,0,4998,0,0,0,0,0,0,0,0,0,0,4998,0,0,0,0,0,0,0,0,0,0,0,0,0,0,0,0,9998,0,0,0,0,0,0,0,0,0,0,0,0,0,,SAINT-GOBAIN CORP,001008515
1990,30601RLNCLCOLLI,BALDOR ELECTRIC CO,197 COLLINS INDUSTRIAL BLVD,ATHENS,CLARKE,GA,30601,33.98139,-83.349655,3621,3622,,,,,335312,,,,,,1390045003872,NICKEL,007440020,YES,NON-PBT,YES,1,YES,R,Pounds,0,0,0,0,0,0,0,0,0,0,0,0,0,0,0,0,0,0,0,0,0,0,0,0,0,0,0,0,0,0,0,0,0,0,0,0,0,0,0,0,0,0,0,0,0,0,0,0,0,0,0,0,0,0,0,0,0,0,0,0,0,0,0,0,,BALDOR ELECTRIC CO,006338537
1990,30809KRGRR4301E,WORLDCOLOR PRINTING (USA),4301 EVANS TO LOCKS RD,EVANS,COLUMBIA,GA,30809,33.539642,-82.119954,2754,,,,,,323111,,,,,,1390045008303,XYLENE (MIXED ISOMERS),001330207,YES,NON-PBT,NO,0,NO,R,Pounds,12848,1588,0,0,0,0,0,0,0,0,0,0,14436,0,0,0,0,0,0,0,0,0,1470,0,0,0,0,0,0,0,0,0,0,1470,0,0,0,0,0,0,0,0,0,0,0,0,0,0,0,0,15906,0,0,0,0,0,0,0,0,0,0,0,0,0,,WORLD COLOR (USA) CORP,006265649
1990,30901SRLMN1750L,G.D. SEARLE LLC,1736 LOVERS LN,AUGUSTA,RICHMOND,GA,30901,33.427222,-81.943333,2834,,,,,,325412,,,,,,1390040067340,ACETONE,000067641,NO,NON-PBT,NO,0,NO,R,Pounds,4500,4600,0,0,0,0,0,0,0,0,0,0,9100,0,69000,69000,0,0,0,0,0,0,0,0,0,0,0,0,0,0,0,0,0,0,0,0,0,0,0,0,0,0,0,0,10,0,0,0,0,10,9100,0,0,0,0,0,0,0,0,0,0,0,0,0,,PFIZER INC,001326495
1990,30901SRLMN1750L,G.D. SEARLE LLC,1736 LOVERS LN,AUGUSTA,RICHMOND,GA,30901,33.427222,-81.943333,2834,,,,,,325412,,,,,,1390040067403,"SULFURIC ACID (1994 AND AFTER ""ACID AEROSOLS"" ONLY)",007664939,NO,NON-PBT,NO,0,NO,R,Pounds,10,10,0,0,0,0,0,0,0,0,0,0,20,0,0,0,0,0,0,0,0,0,0,0,0,0,0,0,0,0,0,0,0,0,0,0,0,0,0,0,0,0,0,0,0,0,0,0,0,0,20,0,0,0,0,0,0,0,0,0,0,0,0,0,,PFIZER INC,001326495
1990,30720FRMND134PH,HARCROS CHEMICALS INC,3452 CORPORATE DR,DALTON,WHITFIELD,GA,30720,34.696746,-84.984612,2819,,,,,,325188,,,,,,1390040090932,METHANOL,000067561,YES,NON-PBT,NO,0,NO,R,Pounds,250,0,0,0,0,0,0,0,0,0,0,0,250,0,0,0,0,0,0,0,0,0,0,0,0,0,0,0,0,0,0,0,0,0,0,0,0,0,0,0,0,0,0,0,0,0,0,0,0,0,250,0,0,0,0,0,0,0,0,0,0,0,0,0,,HARCROS CHEMICALS INC,194128765
1990,30269PHTCR350DI,PHOTOCIRCUITS CORP,350 DIVIDEND DR,PEACHTREE CITY,FAYETTE,GA,30269,33.380278,-84.581667,3672,,,,,,334412,,,,,,1390040100339,"SULFURIC ACID (1994 AND AFTER ""ACID AEROSOLS"" ONLY)",007664939,NO,NON-PBT,NO,0,NO,R,Pounds,0,0,0,0,0,0,0,0,0,0,0,0,0,0,5,5,0,0,0,0,0,0,0,0,0,0,0,0,0,0,0,0,0,0,0,0,0,0,0,0,0,0,0,0,0,0,0,0,0,0,0,0,0,0,0,0,0,0,0,0,0,0,0,0,,PHOTOCIRCUITS CORP,152087847
1990,31402GRTDNEASTL,GREAT DANE TRAILERS,600 E LATHROP AVE,SAVANNAH,CHATHAM,GA,31415,32.079465,-81.112461,3715,,,,,,336212,,,,,,1390045052305,METHYLENEBIS(PHENYLISOCYANATE),000101688,NO,NON-PBT,NO,0,NO,R,Pounds,0,5,0,0,0,0,0,0,0,0,0,0,5,0,0,0,0,0,0,0,0,0,0,0,0,0,0,0,0,0,0,0,0,0,0,0,0,0,0,0,0,0,0,0,0,0,0,0,0,0,5,0,0,0,0,0,0,0,0,0,0,0,0,0,,GREAT DANE LP,964822860
1990,30308KRFTD593GL,KRAFT GENERAL FOODS INC. NDPC,593 GLEN IRIS DR.,ATLANTA,FULTON,GA,30308,33.770494,-84.367679,2022,,,,,,311513,,,,,,1390045144476,PHOSPHORIC ACID,007664382,NO,NON-PBT,NO,0,NO,R,Pounds,0,0,0,0,0,0,0,0,0,0,0,0,0,0,0,0,0,0,0,0,0,0,0,0,0,0,0,0,0,0,0,0,0,0,0,0,0,0,0,0,0,0,0,0,0,0,0,0,0,0,0,0,0,0,0,0,0,0,0,0,0,0,0,0,,PHILIP MORRIS COS INC,144628310
1990,30245GDWNC601OL,GOODWIN CO.,601 OLD NORCROLL PL.,LAWRENCEVILLE,GWINNETT,GA,30245,33.9436,-83.9644,2841,2842,,,,,325611,,,,,,1390045085521,CERTAIN GLYCOL ETHERS,N230,YES,NON-PBT,NO,0,NO,R,Pounds,0,0,0,0,0,0,0,0,0,0,0,0,0,0,697,697,0,0,0,0,0,0,0,0,0,0,0,0,0,0,0,0,0,0,0,0,0,0,0,0,0,0,0,0,0,0,0,0,0,0,0,0,0,0,0,0,0,0,0,0,0,0,0,0,,GOODWIN CO,008291445
1990,30066VNNGS1650C,KEMIRA CHEMICALS INC.,1654 W OAK DR,MARIETTA,COBB,GA,30062,33.991485,-84.528197,2819,2879,2869,,,,325199,,,,,,1390045085747,METHANOL,000067561,YES,NON-PBT,NO,0,NO,R,Pounds,250,250,0,0,0,0,0,0,0,0,0,0,500,0,250,250,0,0,0,41900,0,0,0,0,0,0,0,0,0,0,0,0,0,41900,0,0,0,0,0,0,0,0,0,0,0,0,0,0,0,0,42400,0,0,0,0,0,0,0,0,0,0,0,0,0,,KEMIRA CHEMICALS INC,033870585
1990,31407STNCN1BONN,WEYERHAEUSER NR PORT WENTWORTH,1 BONNYBRIDGE RD,PORT WENTWORTH,CHATHAM,GA,31407,32.1576,-81.16258,2631,,,,,,322130,,,,,,1390045189723,ACETONE,000067641,NO,NON-PBT,NO,0,NO,R,Pounds,750,320000,4100,0,0,0,0,0,0,0,0,0,324850,0,0,0,0,0,0,0,0,0,250,0,0,0,0,0,0,0,0,0,0,250,0,0,0,0,0,0,0,0,0,0,0,0,0,0,0,0,325100,0,0,0,0,0,0,0,0,0,0,0,0,0,,WEYERHAEUSER CO,001306992
1990,30680THRLLHIGHW,THRALL CAR MANUFACTURING CO.,880 AIRPORT RD.,WINDER,BARROW,GA,306800648,33.976257,-83.667511,3743,,,,,,336510,,,,,,1390045120413,ZINC COMPOUNDS,N982,NO,NON-PBT,YES,1,NO,R,Pounds,250,750,0,0,0,0,0,0,0,0,0,0,1000,0,0,0,0,0,0,0,0,0,2970,0,0,0,0,0,0,0,0,0,0,2970,0,0,0,0,0,0,0,0,0,0,750,0,0,0,0,750,3970,0,0,0,0,0,0,0,0,0,0,0,0,0,,DUCHOSSIS INDUSTRIES INC,NA
1990,31601GRFFNROCKY,DUPONT VALDOSTA MANUFACTURING,2509 ROCKY FORD RD,VALDOSTA,LOWNDES,GA,31601,30.803234,-83.345082,2879,,,,,,325320,,,,,,1390045106794,CHLOROTHALONIL,001897456,NO,NON-PBT,NO,0,NO,R,Pounds,5,5,0,0,0,0,0,0,0,0,0,0,10,0,0,0,0,0,0,750,0,0,500,0,0,0,0,0,0,0,0,0,0,1250,0,0,0,0,0,0,0,0,0,0,0,0,0,0,0,0,1260,0,0,0,0,0,0,0,0,0,0,0,0,0,,E I DU PONT DE NEMOURS & CO INC,NA
1990,30208LCHMN2145E,LIOCHEM INC,2145 E PARK DR,CONYERS,ROCKDALE,GA,30013,33.66321,-83.97655,2893,2821,2891,,,,325910,,,,,,1390045187073,TOLUENE,000108883,YES,NON-PBT,NO,0,NO,R,Pounds,250,750,0,0,0,0,0,0,0,0,0,0,1000,0,0,0,0,0,0,0,0,0,0,0,0,0,0,0,0,0,0,0,0,0,0,0,0,0,0,0,0,0,0,0,0,0,0,0,0,0,1000,0,0,0,0,0,0,0,0,0,0,0,0,0,,NA,NA
1990,31742YLDWS1734I,DAWSON MANUFACTURING CO,300 INDUSTRIAL BLVD SE,DAWSON,TERRELL,GA,31742,31.770283,-84.422704,3069,,,,,,326291,,,,,,1390040103715,ZINC COMPOUNDS,N982,NO,NON-PBT,YES,1,NO,R,Pounds,0,250,0,0,0,0,0,0,0,0,0,0,250,0,0,0,0,0,0,0,0,0,0,0,0,0,0,0,0,0,0,0,0,0,0,0,0,0,0,0,0,0,0,0,0,0,0,0,0,0,250,0,0,0,0,0,0,0,0,0,0,0,0,0,,NA,NA
1990,31079MRTNRHWY28,MARTIN RESOURCES INC.,HWY. 280 W.,ROCHELLE,WILCOX,GA,31079,31.951944,-83.475556,2875,5169,,,,,325314,,,,,,1390040120180,PHOSPHORIC ACID,007664382,NO,NON-PBT,NO,0,NO,R,Pounds,0,0,0,0,0,0,0,0,0,0,0,0,0,0,0,0,0,0,0,0,0,0,0,0,0,0,0,0,0,0,0,0,0,0,0,0,0,0,0,0,0,0,0,0,0,0,0,0,0,0,0,0,0,0,0,0,0,0,0,0,0,0,0,0,.87,MARTIN RESOURCE MANAGEMENT INC,147111751
1990,30906DRFLDOLDSA,DEERFIELD SPECIALTY PAPERS INC,4302 MIKES PADGETT HWY,AUGUSTA,RICHMOND,GA,30906,33.318937,-81.955323,2621,,,,,,322120,,,,,,1390045029891,ACETONE,000067641,NO,NON-PBT,NO,0,NO,R,Pounds,23774,0,0,0,0,0,0,0,0,0,0,0,23774,0,0,0,0,0,0,0,0,0,0,0,0,0,0,0,0,0,0,0,0,0,0,0,0,0,0,0,0,0,0,0,0,0,2642,0,0,2642,23774,0,0,0,0,0,0,0,0,0,0,0,0,0,,SIMIKINS INDUSTRIES INC,NA
1990,31401BTRCHLATHR,HUNT-WESSON INC,LATHROP AVE,SAVANNAH,CHATHAM,GA,31401,32.096421,-81.115786,2079,,,,,,311421,,,,,,1390045042785,PHOSPHORIC ACID,007664382,NO,NON-PBT,NO,0,NO,R,Pounds,0,0,0,0,0,0,0,0,0,0,0,0,0,0,0,0,0,0,0,0,0,0,0,0,0,0,0,0,0,0,0,0,0,0,0,0,0,0,0,0,0,0,0,0,0,0,0,0,0,0,0,0,0,0,0,0,0,0,0,0,0,0,0,0,,CONAGRA FOODS INC,007258908
1990,30577SNYDR419AV,SNYDER BROS. CO. INC.,419 AVON ST.,TOCCOA,STEPHENS,GA,30577,34.567274,-83.338692,2851,,,,,,325510,,,,,,1390045140365,TOLUENE,000108883,YES,NON-PBT,NO,0,NO,R,Pounds,22153,0,0,0,0,0,0,0,0,0,0,0,22153,0,0,0,0,0,0,0,0,0,0,0,0,0,0,0,0,0,0,0,0,0,0,0,0,0,0,0,0,0,0,0,0,0,0,0,0,0,22153,0,0,0,0,0,0,0,0,0,0,0,0,0,,NA,NA
1990,30642LCNNGWILLO,NOVELIS CORP - GREENSBORO,1261 WILLOW RUN RD,GREENSBORO,GREENE,GA,30642,33.554256,-83.198698,3341,,,,,,331314,,,,,,1390045173299,COPPER,007440508,NO,NON-PBT,YES,1,NO,R,Pounds,250,250,5,0,0,0,0,0,0,0,0,0,505,5,0,5,0,0,0,0,0,0,0,0,0,0,0,0,250,0,0,0,0,250,0,0,0,0,0,0,0,0,0,0,0,0,0,0,0,0,760,0,0,0,0,0,0,0,0,0,0,0,0,0,,NOVELIS CORP,206984655
1990,31709HCKRYSOUTH,HICKORY SPRINGS MANUFACTURING CO,122 BASKET FACTORY DR,AMERICUS,SUMTER,GA,31709,32.11092,-84.20039,3086,,,,,,326150,,,,,,1390040095705,DICHLOROMETHANE,000075092,YES,NON-PBT,NO,0,YES,R,Pounds,0,412737,0,0,0,0,0,0,0,0,0,0,412737,0,0,0,0,0,0,0,0,0,0,0,0,0,0,0,0,0,0,0,0,0,0,0,0,0,0,0,0,0,0,0,0,0,0,0,0,0,412737,0,0,0,0,0,0,0,0,0,0,0,0,0,,HICKORY SPRINGS MANUFACTURING CO,003216850
1990,30130HVRGR2200P,HOOVER PRECISION PRODUCTS INC,2200 PENDLEY RD,CUMMING,FORSYTH,GA,30041,34.16424,-84.162049,3562,,,,,,332991,,,,,,1390045068804,"HYDROCHLORIC ACID (1995 AND AFTER ""ACID AEROSOLS"" ONLY)",007647010,YES,NON-PBT,NO,0,NO,R,Pounds,0,250,0,0,0,0,0,0,0,0,0,0,250,0,0,0,0,0,0,0,0,0,0,0,0,0,0,0,0,0,0,0,0,0,0,0,0,0,0,0,0,0,0,0,0,0,0,0,0,0,250,0,0,0,0,0,0,0,0,0,0,0,0,0,,NA,NA
1990,31082PRNTSKAOLI,PRENTISS LLC,511 KAOLIN RD,SANDERSVILLE,WASHINGTON,GA,31082,32.967583,-82.81168,2879,,,,,,325320,,,,,,1390045061052,"1,2,4-TRIMETHYLBENZENE",000095636,NO,NON-PBT,NO,0,NO,R,Pounds,0,0,0,0,0,0,0,0,0,0,0,0,0,0,0,0,0,0,0,0,0,0,0,0,0,0,0,0,0,0,0,0,0,0,0,0,0,0,0,0,0,0,0,0,0,0,0,0,0,0,0,0,0,0,0,0,0,0,0,0,0,0,0,0,,SANTOLUBES LLC,NA
1990,31750DLCRMPERRY,DELPHI AUTOMOTIVE SYSTEMS LLC FITZGERALD,342 PERRY HOUSE RD,FITZGERALD,BEN HILL,GA,31750,31.694678,-83.260905,3691,,,,,,335911,,,,,,1390045107962,PHOSPHORIC ACID,007664382,NO,NON-PBT,NO,0,NO,R,Pounds,0,250,0,0,0,0,0,0,0,0,0,0,250,0,0,0,0,0,0,0,0,0,0,0,0,0,0,0,0,0,0,0,0,0,0,0,0,0,0,0,0,0,0,0,0,0,0,0,0,0,250,0,0,0,0,0,0,0,0,0,0,0,0,0,,DELPHI CORP,043898092
1990,30315GNRLM510SA,GENERAL MOTORS CORP CPC LAKEWOOD,510 SAWTELL AVE. S.E.,ATLANTA,FULTON,GA,30315,33.71035,-84.37371,3711,,,,,,336000,,,,,,1390045125008,TOLUENE,000108883,YES,NON-PBT,NO,0,NO,R,Pounds,17500,7800,0,0,0,0,0,0,0,0,0,0,25300,0,250,250,0,0,0,0,0,0,0,0,0,0,0,0,0,0,0,0,0,0,0,0,0,0,0,0,0,0,0,0,97000,0,0,0,0,97000,25300,0,0,0,0,0,0,0,0,0,0,0,0,0,,GENERAL MOTORS CORP,005356613
1990,30066VNNGS1650C,KEMIRA CHEMICALS INC.,1654 W OAK DR,MARIETTA,COBB,GA,30062,33.991485,-84.528197,2819,2879,2869,,,,325199,,,,,,1390045085786,CHLORINE,007782505,YES,NON-PBT,NO,0,NO,R,Pounds,250,0,0,0,0,0,0,0,0,0,0,0,250,0,0,0,0,0,0,0,0,0,0,0,0,0,0,0,0,0,0,0,0,0,0,0,0,0,0,0,0,0,0,0,0,0,0,0,0,0,250,0,0,0,0,0,0,0,0,0,0,0,0,0,,KEMIRA CHEMICALS INC,033870585
1990,30080LYMPC3051O,FOCAL POINT INC.,3051 OLYMPIC INDL. DR.,SMYRNA,COBB,GA,30080,33.832017,-84.466248,3086,,,,,,326100,,,,,,1390045085990,METHYLENEBIS(PHENYLISOCYANATE),000101688,NO,NON-PBT,NO,0,NO,R,Pounds,0,0,0,0,0,0,0,0,0,0,0,0,0,0,0,0,0,0,0,0,0,0,0,0,0,0,0,0,0,0,0,0,0,0,0,0,0,0,0,0,0,0,0,0,1100,0,0,0,0,1100,0,0,0,0,0,0,0,0,0,0,0,0,0,0,,NOMACO INC,095225983
1990,30501NDLXT2905O,SAPA EXTRUDER INC,2905 OLD OAKWOOD RD,GAINESVILLE,HALL,GA,30504,34.253052,-83.857047,3354,,,,,,331316,,,,,,1390045090103,XYLENE (MIXED ISOMERS),001330207,YES,NON-PBT,NO,0,NO,R,Pounds,17000,25500,0,0,0,0,0,0,0,0,0,0,42500,0,0,0,0,0,0,0,0,0,0,0,0,0,0,0,0,0,0,0,0,0,0,0,0,0,0,0,0,0,0,0,0,0,0,0,0,0,42500,0,0,0,0,0,0,0,0,0,0,0,0,0,,SAPA INC,NA
1990,30913FDRLPHIGHW,INTERNATIONAL PAPER - AUGUSTA MILL,4278 MIKE PADGETT HWY,AUGUSTA,RICHMOND,GA,309069784,33.328222,-81.91175,2631,,,,,,322130,,,,,,1390045192604,CHLORINE,007782505,YES,NON-PBT,NO,0,NO,R,Pounds,250,44000,0,0,0,0,0,0,0,0,0,0,44250,0,0,0,0,0,0,0,0,0,0,0,0,0,0,0,0,0,0,0,0,0,0,0,0,0,0,0,0,0,0,0,0,0,0,0,0,0,44250,0,0,0,0,0,0,0,0,0,0,0,0,0,,INTERNATIONAL PAPER CO,001316561
1990,30913FDRLPHIGHW,INTERNATIONAL PAPER - AUGUSTA MILL,4278 MIKE PADGETT HWY,AUGUSTA,RICHMOND,GA,309069784,33.328222,-81.91175,2631,,,,,,322130,,,,,,1390045192655,PHOSPHORIC ACID,007664382,NO,NON-PBT,NO,0,NO,R,Pounds,0,0,0,0,0,0,0,0,0,0,0,0,0,0,0,0,0,0,0,0,0,0,0,0,0,0,0,0,0,0,0,0,0,0,0,0,0,0,0,0,0,0,0,0,0,0,0,0,0,0,0,0,0,0,0,0,0,0,0,0,0,0,0,0,,INTERNATIONAL PAPER CO,001316561
1990,30720TXTLR1300T,TEXTILE RUBBER & CHEMICAL CO,1350 TIARCO DR,DALTON,WHITFIELD,GA,30720,34.68971,-84.9947,2273,,,,,,326000,,,,,,1390045201023,ZINC COMPOUNDS,N982,NO,NON-PBT,YES,1,NO,R,Pounds,0,0,0,0,0,0,0,0,0,0,0,0,0,0,0,0,0,0,0,0,0,0,1500,0,0,0,0,0,0,0,0,0,0,2250,0,0,0,0,0,0,0,0,0,0,0,0,750,0,0,0,2250,0,0,0,0,0,0,0,0,0,0,0,0,0,,TEXTILE RUBBER & CHEMICAL CO,001023621
1990,30577RCCHMINDUS,GEMINI COATINGS INC. OF GEORGIA,163 COLLIER RD.,TOCCOA,STEPHENS,GA,30577,34.558133,-83.306462,2851,,,,,,325510,,,,,,1390045185725,METHYL ETHYL KETONE,000078933,NO,NON-PBT,NO,0,NO,R,Pounds,8220,0,0,0,0,0,0,0,0,0,0,0,8220,0,0,0,0,0,0,0,0,0,0,0,0,0,0,0,0,0,0,0,0,0,0,0,0,0,0,0,0,0,0,0,0,0,0,4631,0,4631,8220,0,0,0,0,0,0,0,0,0,0,0,0,0,,GEMINI INDUSTRIES,007207129
1990,31407STNCN1BONN,WEYERHAEUSER NR PORT WENTWORTH,1 BONNYBRIDGE RD,PORT WENTWORTH,CHATHAM,GA,31407,32.1576,-81.16258,2631,,,,,,322130,,,,,,1390045189786,"SULFURIC ACID (1994 AND AFTER ""ACID AEROSOLS"" ONLY)",007664939,NO,NON-PBT,NO,0,NO,R,Pounds,5,130000,0,0,0,0,0,0,0,0,0,0,130005,0,0,0,0,0,0,0,0,0,0,0,0,0,0,0,0,0,0,0,0,0,0,0,0,0,0,0,0,0,0,0,0,0,0,0,0,0,130005,0,0,0,0,0,0,0,0,0,0,0,0,0,,WEYERHAEUSER CO,001306992
1990,30336MRLTR4785F,AMARLITE ARCHITECTURAL PRODS.,4785 FULTON INDUSTRIAL BLVD.,ATLANTA,FULTON,GA,303362017,33.75617,-84.544594,3354,,,,,,331316,,,,,,1390040056804,XYLENE (MIXED ISOMERS),001330207,YES,NON-PBT,NO,0,NO,R,Pounds,551,8699,0,0,0,0,0,0,0,0,0,0,9250,0,0,0,0,0,0,0,0,0,0,0,0,0,0,0,0,0,0,0,0,0,0,0,0,0,0,0,0,0,0,0,0,0,0,0,0,0,9250,0,0,0,0,0,0,0,0,0,0,0,0,0,,NA,NA
1990,30720DWCHM1468P,DOW CHEMICAL CO DALTON PLANT,1467 PROSSER DR SE,DALTON,WHITFIELD,GA,30721,34.633056,-84.929167,2821,3086,,,,,325212,,,,,,1390040094171,ETHYLBENZENE,000100414,YES,NON-PBT,NO,0,NO,R,Pounds,400,5,0,0,0,0,400,0,0,0,0,0,805,0,0,0,0,0,0,0,0,0,0,0,0,0,0,0,0,0,0,0,0,0,0,0,0,0,0,0,0,0,0,0,73600,0,0,0,0,73600,805,0,0,0,0,0,0,0,0,0,0,0,0,0,,THE DOW CHEMICAL CO,001381581
1990,30913MRRYBARTHE,BORAL BRICKS INC- AUGUSTA PL ANTS 3 4 5,1630 ARTHERN RD,AUGUSTA,RICHMOND,GA,309013072,33.457301,-81.958849,3251,,,,,,327121,,,,,,1390045037138,MANGANESE,007439965,YES,NON-PBT,YES,1,NO,R,Pounds,250,0,0,0,0,0,0,0,0,0,0,0,250,0,0,0,0,0,0,0,0,0,0,0,0,0,0,0,0,0,0,0,0,0,0,0,0,0,0,0,0,0,0,0,0,0,0,0,0,0,250,0,0,0,0,0,0,0,0,0,0,0,0,0,,BORAL USA,026389254
1990,31402GLFSTPOBOX,GULFSTREAM AEROSPACE CORP,500 GULFSTREAM RD,SAVANNAH,CHATHAM,GA,31407,32.14211,-81.192,3721,,,,,,336411,,,,,,1390045013291,CHROMIUM COMPOUNDS(EXCEPT CHROMITE ORE MINED IN THE TRANSVAAL REGION),N090,YES,NON-PBT,YES,1,NO,R,Pounds,0,0,0,0,0,0,0,0,0,0,0,0,0,5,0,5,0,0,0,0,0,0,2838,0,0,0,0,0,0,0,0,0,0,2838,0,0,0,0,0,0,0,0,0,0,3262,0,0,0,0,3262,2843,0,0,0,0,0,0,0,0,0,0,0,0,0,,GENERAL DYNAMICS CORP,001381284
1990,31402GLFSTPOBOX,GULFSTREAM AEROSPACE CORP,500 GULFSTREAM RD,SAVANNAH,CHATHAM,GA,31407,32.14211,-81.192,3721,,,,,,336411,,,,,,1390045013354,FREON 113,000076131,NO,NON-PBT,NO,0,NO,R,Pounds,44637,0,0,0,0,0,0,0,0,0,0,0,44637,0,0,0,0,0,0,0,0,0,0,0,0,0,0,0,0,0,0,0,0,0,0,0,0,0,0,0,0,0,0,0,0,0,0,0,0,0,44637,0,0,0,0,0,0,0,0,0,0,0,0,0,,GENERAL DYNAMICS CORP,001381284
1990,30117FHGHT421GA,HOUGHTON INTENATIONAL,421 GARRETT ST,CARROLLTON,CARROLL,GA,30117,33.56984,-85.068544,2992,,,,,,324191,,,,,,1390045075126,MALEIC ANHYDRIDE,000108316,YES,NON-PBT,NO,0,NO,R,Pounds,0,0,0,0,0,0,0,0,0,0,0,0,0,0,100,100,0,0,0,0,0,0,0,0,0,0,0,0,0,0,0,0,0,0,0,0,0,0,0,0,0,0,0,0,0,0,0,0,0,0,0,0,0,0,0,0,0,0,0,0,0,0,0,0,,HOUGHTON INTERNATIONAL INC,002261535
1990,30318SNCHM1357S,SUN CHEMICAL CORP,1357 SEABOARD INDUSTRIAL BLVD NW,ATLANTA,FULTON,GA,30318,33.80868,-84.430908,2893,,,,,,325910,,,,,,1390045078767,METHANOL,000067561,YES,NON-PBT,NO,0,NO,R,Pounds,250,250,0,0,0,0,0,0,0,0,0,0,500,0,0,0,0,0,0,0,0,0,0,0,0,0,0,0,0,0,0,0,0,0,0,0,0,0,0,0,0,0,0,0,0,0,0,0,0,0,500,0,0,0,0,0,0,0,0,0,0,0,0,0,,SUN CHEMICAL CORP,144638558
1990,30265YMHMT1000H,YAMAHA MOTOR MANUFACTURING CORP OF AMERICA,1000 GA HWY 34 E,NEWNAN,COWETA,GA,30265,33.398894,-84.741189,3799,,,,,,336999,,,,,,1390045113988,"SULFURIC ACID (1994 AND AFTER ""ACID AEROSOLS"" ONLY)",007664939,NO,NON-PBT,NO,0,NO,R,Pounds,0,0,0,0,0,0,0,0,0,0,0,0,0,0,0,0,0,0,0,0,0,0,0,0,0,0,0,0,0,0,0,0,0,0,0,0,0,0,0,0,0,0,0,0,0,0,0,0,0,0,0,0,0,0,0,0,0,0,0,0,0,0,0,0,,YAMAHA MOTOR CORP USA,098008586
1990,30066LCHMY646OW,ALCHEMY-SOUTH LTD,1345 OWENBY DR,MARIETTA,COBB,GA,30066,33.983838,-84.530525,2869,,,,,,325000,,,,,,1390045111438,ACETONE,000067641,NO,NON-PBT,NO,0,NO,R,Pounds,1600,0,0,0,0,0,0,0,0,0,0,5,1605,0,0,0,0,0,0,0,0,0,0,0,0,0,0,0,0,0,0,0,0,0,0,0,0,0,0,0,0,0,0,0,0,0,0,0,0,0,1605,0,0,0,0,0,0,0,0,0,0,0,0,0,,NA,NA
1990,30467TRRNGBOX16,KOYO BEARINGS USA LLC,400 FRIENDSHIP RD,SYLVANIA,SCREVEN,GA,30467,32.756842,-81.622731,3562,,,,,,332991,,,,,,1390045159290,CYANIDE COMPOUNDS,N106,YES,NON-PBT,NO,0,NO,R,Pounds,750,250,0,0,0,0,0,0,0,0,0,0,1000,0,250,250,0,0,0,0,0,0,1000,0,0,0,0,0,0,0,0,0,0,1000,0,0,0,0,0,0,0,0,0,0,0,0,0,0,0,0,2000,0,0,0,0,0,0,0,0,0,0,0,0,0,,KOYO BEARINGS USA LLC,004465100
1990,30336WRGRC5210P,MACDERMID GRAPHIC ARTS,5210 PHILLIP LEE DRIVE,ATLANTA,FULTON,GA,303362293,33.752777,-84.557796,2821,,,,,,325211,,,,,,1390040039556,"1,1,1-TRICHLOROETHANE",000071556,YES,NON-PBT,NO,0,NO,R,Pounds,4600,7100,0,0,0,0,0,0,0,0,0,0,11700,0,0,0,0,0,0,0,0,0,0,0,0,0,0,0,0,0,0,0,0,0,0,0,0,0,0,0,0,0,0,0,0,0,0,0,0,0,11700,0,0,0,0,0,0,0,0,0,0,0,0,0,,MACDERMID INC,NA
1990,30336NVRSL5780T,UNIVERSAL BLUEPRINT PAPER CO.,5780 TULANE DR. S.W.,ATLANTA,FULTON,GA,30336,33.74391,-84.56798,3861,5049,,,,,325992,,,,,,1390040043919,ZINC COMPOUNDS,N982,NO,NON-PBT,YES,1,NO,R,Pounds,0,0,0,0,0,0,0,0,0,0,0,0,0,0,0,0,0,0,0,0,0,0,0,0,0,0,0,0,0,0,0,0,0,0,0,0,0,0,0,0,0,0,0,0,0,0,0,0,0,0,0,0,0,0,0,0,0,0,0,0,0,0,0,0,,SOUTHWESTERN REPROGRAPHICS INC,612996926
1990,31717STHSTSPRIN,SOUTHEASTERN MINERALS INC,801 SPRING CREEK RD,BAINBRIDGE,DECATUR,GA,39817,30.90904,-84.59582,2048,,,,,,311119,,,,,,1390040007965,COBALT COMPOUNDS,N096,YES,NON-PBT,YES,1,YES,R,Pounds,250,0,0,0,0,0,0,0,0,0,0,0,250,0,0,0,0,0,0,0,0,0,0,0,0,0,0,0,0,0,0,0,0,0,0,0,0,0,0,0,0,0,0,0,0,0,0,0,0,0,250,0,0,0,0,0,0,0,0,0,0,0,0,0,,NA,NA
1990,31549MRCRDINDUS,AMERCORD INC.,INDUSTRIAL BLVD.,LUMBER CITY,TELFAIR,GA,31549,31.924167,-82.683889,3496,,,,,,331222,,,,,,1390045077967,"1,1,1-TRICHLOROETHANE",000071556,YES,NON-PBT,NO,0,NO,R,Pounds,250,129,0,0,0,0,0,0,0,0,0,0,379,0,0,0,0,0,0,0,0,0,0,0,0,0,0,0,0,0,0,0,0,0,0,0,0,0,0,0,0,0,0,0,0,0,0,0,0,0,379,0,0,0,0,0,0,0,0,0,0,0,0,0,,GOTHAM INDL GROUP LLC,NA
1990,31708MRCKC3517R,MERCK & CO INC,3517 RADIUM SPRINGS RD,ALBANY,DOUGHERTY,GA,317059596,31.500833,-84.12833,2833,,,,,,325411,,,,,,1390045162524,"SULFURIC ACID (1994 AND AFTER ""ACID AEROSOLS"" ONLY)",007664939,NO,NON-PBT,NO,0,NO,R,Pounds,0,0,0,0,0,0,0,0,0,0,0,0,0,0,0,0,0,0,0,0,0,0,0,0,0,0,0,0,0,0,0,0,0,0,0,0,0,0,0,0,0,0,0,0,0,0,0,0,0,0,0,0,0,0,0,0,0,0,0,0,0,0,0,0,,MERCK & CO INC,001317064
1990,30601RNCKL1750O,HILTON ENTERPRISES INC. RANICK LTD.,1750 OLYMPIC DR.,ATHENS,CLARKE,GA,30601,33.987148,-83.330642,2389,,,,,,315000,,,,,,1390045015892,DICHLOROMETHANE,000075092,YES,NON-PBT,NO,0,YES,R,Pounds,3900,1953,0,0,0,0,0,0,0,0,0,750,6603,0,0,0,0,0,0,0,0,0,0,0,0,0,0,0,0,0,0,0,0,0,0,0,0,0,0,0,0,0,0,0,0,0,0,0,0,0,6603,0,0,0,0,0,0,0,0,0,0,0,0,0,,HILTON ENTERPRISES INC,056298193
1990,31701SSCFG827PI,SASCO CHEMICAL GROUP INC,827 PINE AVE PO BOX 45,ALBANY,DOUGHERTY,GA,31701,31.578574,-84.169106,2812,2819,2841,2842,2843,2851,325181,,,,,,1390045175116,CERTAIN GLYCOL ETHERS,N230,YES,NON-PBT,NO,0,NO,R,Pounds,5,5,0,5,0,0,5,5,5,0,0,5,35,0,0,0,0,0,0,0,0,0,0,0,0,0,0,0,0,0,0,0,0,0,0,0,0,0,0,0,0,0,0,0,0,0,0,0,0,0,35,0,0,0,0,0,0,0,0,0,0,0,0,0,,NA,NA
1990,31709STNRTSOUTH,AUSTIN URETHANE INC,SOUTHERFIELD RD,AMERICUS,SUMTER,GA,31709,32.096525,-84.219051,3079,2821,,,,,326150,,,,,,1390045045794,DICHLOROMETHANE,000075092,YES,NON-PBT,NO,0,YES,R,Pounds,0,177115,0,0,0,0,0,0,0,0,0,0,177115,0,0,0,0,0,0,0,0,0,0,0,0,0,0,0,0,0,0,0,0,0,0,0,0,0,0,0,0,0,0,0,0,0,0,0,0,0,177115,0,0,0,0,0,0,0,0,0,0,0,0,0,,NA,NA
1990,30916MCPRF3702C,SOLVAY ADVANCED POLYMERS LL C,3702 CLANTON RD,AUGUSTA,RICHMOND,GA,30906,33.37,-82.014167,2821,,,,,,325211,,,,,,1390045049994,ETHYLBENZENE,000100414,YES,NON-PBT,NO,0,NO,R,Pounds,4767,250,0,0,0,0,0,0,0,0,0,0,5017,0,250,250,0,0,0,0,0,0,0,0,0,0,0,0,0,0,0,0,0,0,0,0,0,0,0,0,0,0,0,0,3346,0,0,0,0,3346,5017,0,0,0,0,0,0,0,0,0,0,0,0,0,,SOLVAY AMERICA INC,151734506
1990,30240KMBRL1300O,KIMBERLY-CLARK CORP.,1300 ORCHARD HILL RD.,LAGRANGE,TROUP,GA,30240,32.997794,-85.047201,2297,,,,,,313230,,,,,,1390045075482,"SULFURIC ACID (1994 AND AFTER ""ACID AEROSOLS"" ONLY)",007664939,NO,NON-PBT,NO,0,NO,R,Pounds,250,0,0,0,0,0,0,0,0,0,0,0,250,0,250,250,0,0,0,0,0,0,0,0,0,0,0,0,0,0,0,0,0,0,0,0,0,0,0,0,0,0,0,0,0,0,0,0,0,0,250,0,0,0,0,0,0,0,0,0,0,0,0,0,,KIMBERLY-CLARK CORP,006072136
1990,30474TLNTCATLAN,ATLANTIC WOOD INDUSTRIES INC,704 ATLANTIC AVE,VIDALIA,TOOMBS,GA,30474,32.23334,-82.40567,2491,,,,,,321114,,,,,,1390045019116,ARSENIC COMPOUNDS,N020,YES,NON-PBT,YES,1,NO,R,Pounds,0,0,0,0,0,0,0,0,0,0,0,0,0,0,0,0,370,0,0,0,0,0,2300,0,0,0,0,0,0,0,0,0,0,2670,0,0,0,0,0,0,0,0,0,0,0,0,0,0,0,0,2670,0,0,0,0,0,0,0,0,0,0,0,0,0,,ATLANTIC WOOD INDUSTRIES INC,NA
1990,30310STVNS713RD,STEVENS GRAPHICS INC.,"713 RALPH D. ABERNATHY BLVD., S.W.",ATLANTA,FULTON,GA,303102064,33.738202,-84.411391,2752,,,,,,323110,,,,,,1390045122583,"1,2,4-TRIMETHYLBENZENE",000095636,NO,NON-PBT,NO,0,NO,R,Pounds,10200,0,0,0,0,0,0,0,0,0,0,0,10200,0,0,0,0,0,0,0,0,0,0,0,0,0,0,0,0,0,220,0,0,220,0,0,0,0,0,0,0,0,0,0,0,0,0,0,0,0,10420,0,0,0,0,0,0,0,0,0,0,0,0,0,,BELLSOUTH CORP,106678006
1990,30318STHRN1581H,SOUTHERN ALUMINUM FINISHING CO.,1581 HUBER ST. N.W.,ATLANTA,FULTON,GA,30318,33.798371,-84.424373,3471,,,,,,332813,,,,,,1390045150075,"SULFURIC ACID (1994 AND AFTER ""ACID AEROSOLS"" ONLY)",007664939,NO,NON-PBT,NO,0,NO,R,Pounds,0,0,0,0,0,0,0,0,0,0,0,0,0,0,5,5,0,0,0,0,0,0,0,0,0,0,0,0,0,0,0,0,0,0,0,0,0,0,0,0,0,0,0,0,0,0,0,0,0,0,0,0,0,0,0,0,0,0,0,0,0,0,0,0,,NA,NA
1990,31569RHNPLEASTE,BAYER CROPSCIENCE WOODBINE PLANT,5954 UNION CARBIDE RD,WOODBINE,CAMDEN,GA,31569,30.871237,-81.609452,2879,,,,,,325320,,,,,,1390045252576,LINDANE,000058899,YES,NON-PBT,NO,0,YES,R,Pounds,0,6,0,0,0,0,0,0,0,0,0,0,6,0,0,0,0,0,0,0,0,0,0,0,0,0,0,0,0,0,0,0,0,0,0,0,0,0,0,0,0,0,0,0,192,0,0,0,0,192,6,0,0,0,0,0,0,0,0,0,0,0,0,0,,BAYER GROUP,001350263
1990,30315HLLMN1500J,HILL MANUFACTURING CO INC,"1500 JONESBORO RD, SE",ATLANTA,FULTON,GA,30315,33.71328,-84.38263,2842,,,,,,325612,,,,,,1390045237094,DICHLOROMETHANE,000075092,YES,NON-PBT,NO,0,YES,R,Pounds,250,250,0,0,0,0,0,0,0,0,0,0,500,0,5,5,0,0,0,0,0,0,0,0,0,0,0,0,0,0,0,0,0,0,0,0,0,0,0,0,0,0,0,0,0,0,0,0,0,0,500,0,0,0,0,0,0,0,0,0,0,0,0,0,,NA,NA
1990,30613WSTNGNEWTO,POWER PARTNERS INC,200 NEWTON BRIDGE RD,ATHENS,CLARKE,GA,306071180,33.97888,-83.39496,3612,,,,,,335311,,,,,,1390040111510,NICKEL,007440020,YES,NON-PBT,YES,1,YES,R,Pounds,250,0,0,0,0,0,0,0,0,0,0,0,250,5,0,5,0,0,0,0,0,0,250,0,0,0,0,0,0,0,0,0,0,250,0,0,0,0,0,0,0,0,0,0,0,0,0,0,0,0,505,0,0,0,0,0,0,0,0,0,0,0,0,0,,POWER PARTNERS INC,131780202
1990,30179DBSTH580CA,QUALITY FURNITURE CO. SOUTHERN FURNITURE MANUFACTURING (DBA),580 CARROLLTON ST.,TEMPLE,CARROLL,GA,30179,33.721251,-85.028624,2511,,,,,,337000,,,,,,1390045043142,XYLENE (MIXED ISOMERS),001330207,YES,NON-PBT,NO,0,NO,R,Pounds,0,14614,0,0,0,0,0,0,0,0,0,0,14614,0,0,0,0,0,0,0,0,0,0,0,0,0,0,0,0,0,0,0,0,0,0,0,0,0,0,0,0,0,0,0,0,0,0,0,0,0,14614,0,0,0,0,0,0,0,0,0,0,0,0,0,,NA,NA
1990,30130GRGPRROUTE,GEORGIA PROTEINS CO,4990 LELAND DR,CUMMING,FORSYTH,GA,30041,34.282153,-84.056615,2048,,,,,,311000,,,,,,1390045091725,CHLORINE,007782505,YES,NON-PBT,NO,0,NO,R,Pounds,0,5,0,0,0,0,0,0,0,0,0,0,5,0,0,0,0,0,0,0,0,0,0,0,0,0,0,0,0,0,0,0,0,0,0,0,0,0,0,0,0,0,0,0,0,0,0,0,0,0,5,0,0,0,0,0,0,0,0,0,0,0,0,0,,AMERICAN PROTEINS INC,194912952
1990,31404KMRNCEASTP,SAVANNAH ACID PLANT LLC,1 KERR MCGEE RD,SAVANNAH,CHATHAM,GA,31404,32.078889,-81.030556,2816,2819,,,,,325100,,,,,,1390045093453,AMMONIUM SULFATE (SOLUTION),007783202,NO,NON-PBT,NO,0,NO,R,Pounds,750,0,36000,0,0,0,0,0,0,0,0,0,36750,0,0,0,0,0,0,0,0,0,0,0,0,0,0,0,0,0,0,0,0,0,0,0,0,0,0,0,0,0,0,0,0,0,0,0,0,0,36750,0,0,0,0,0,0,0,0,0,0,0,0,0,,NA,NA
1990,30213GNRLX7385G,ALCOA EXTRUSIONS INC. FAIRBURN GA OPERATIONS,7385 GRAHAM RD.,FAIRBURN,FULTON,GA,30213,33.557445,-84.544616,3354,,,,,,331316,,,,,,1390045197290,NITRIC ACID,007697372,NO,NON-PBT,NO,0,NO,R,Pounds,0,250,0,0,0,0,0,0,0,0,0,0,250,0,0,0,0,0,0,0,0,0,0,0,0,0,0,0,0,0,0,0,0,0,0,0,0,0,0,0,0,0,0,0,0,0,0,0,0,0,250,0,0,0,0,0,0,0,0,0,0,0,0,0,,ALCOA INC,001339472
1990,30523SCVLLRT441,SCOVILL FASTENERS INC,1802 SCOVILL DR,CLARKESVILLE,HABERSHAM,GA,30523,34.598889,-83.52583,3965,,,,,,339993,,,,,,1390045221342,NITRIC ACID,007697372,NO,NON-PBT,NO,0,NO,R,Pounds,250,5,0,0,0,0,0,0,0,0,0,0,255,0,0,0,0,0,0,0,0,0,0,0,0,0,0,0,0,0,0,0,0,0,0,0,0,0,0,0,0,0,0,0,0,0,0,0,0,0,255,0,0,0,0,0,0,0,0,0,0,0,0,0,,NA,NA
1990,30315MNGMM400GR,PROLIANCE INTERNATIONAL INC,400 GRANT CIRCLE SE,ATLANTA,FULTON,GA,30315,33.725536,-84.375795,3714,,,,,,336399,,,,,,1390045225810,COPPER,007440508,NO,NON-PBT,YES,1,NO,R,Pounds,0,0,0,0,0,0,0,0,0,0,0,0,0,0,0,0,0,0,0,0,0,0,0,0,0,0,0,0,0,0,0,0,0,0,0,0,0,0,0,0,0,0,0,0,0,0,0,0,0,0,0,0,0,0,0,0,0,0,0,0,0,0,0,0,,PROLIANCE INTERNATIONAL INC,928467166
1990,31647MCRFLROUTE,BASF CORP,14284 HWY 41 N,SPARKS,COOK,GA,31647,31.16326,-83.44864,2879,,,,,,325320,,,,,,1390040037828,N-BUTYL ALCOHOL,000071363,NO,NON-PBT,NO,0,NO,R,Pounds,5,5,0,0,0,0,0,0,0,0,0,0,10,0,0,0,0,0,0,0,0,0,0,0,0,0,0,0,0,0,0,0,0,0,0,0,0,0,0,0,0,0,0,0,0,0,0,0,0,0,10,0,0,0,0,0,0,0,0,0,0,0,0,0,,BASF CORP,001307032
1990,30753MNTVROLDUS,MOUNT VERNON MILLS INC APPAREL FABRICS DIV,OLD US HWY 27,TRION,CHATTOOGA,GA,307530007,34.581771,-85.288108,2211,2221,2261,,,,313210,,,,,,1390040088724,"SULFURIC ACID (1994 AND AFTER ""ACID AEROSOLS"" ONLY)",007664939,NO,NON-PBT,NO,0,NO,R,Pounds,0,0,0,0,0,0,0,0,0,0,0,0,0,0,0,0,0,0,0,0,0,0,0,0,0,0,0,0,0,0,0,0,0,0,0,0,0,0,0,0,0,0,0,0,0,0,0,0,0,0,0,0,0,0,0,0,0,0,0,0,0,0,0,0,,R B PAMPLIN CORP,047081674
1990,30318SPCLT1615J,HENKEL SURFACE TECHNOLOGIES,1615 JOHNSON RD. N.W.,ATLANTA,FULTON,GA,303188937,33.78544,-84.441329,2899,2841,,,,,325998,,,,,,1390040088813,NITRIC ACID,007697372,NO,NON-PBT,NO,0,NO,R,Pounds,0,0,0,0,0,0,0,0,0,0,0,0,0,0,0,0,0,0,0,0,0,0,0,0,0,0,0,0,0,0,0,0,0,0,0,0,0,0,0,0,0,0,0,0,0,0,0,0,0,0,0,0,0,0,0,0,0,0,0,0,0,0,0,0,,HENKEL CORP,051441731
1990,31061GRMMNHIGHW,VOUGHT AIRCRAFT INDUSTRIES INC.,90 HWY 22 W,MILLEDGEVILLE,BALDWIN,GA,310619699,33.096202,-83.262446,3728,,,,,,336411,,,,,,1390045121199,"1,1,1-TRICHLOROETHANE",000071556,YES,NON-PBT,NO,0,NO,R,Pounds,13200,250,0,0,0,0,0,0,0,0,0,0,13450,0,0,0,0,0,0,0,0,0,0,0,0,0,0,0,0,0,0,0,0,0,0,0,0,0,0,0,0,0,0,0,0,0,0,0,0,0,13450,0,0,0,0,0,0,0,0,0,0,0,0,0,,VOUGHT AIRCRAFT INDUSTRIES INC,003616091
1990,30240NNCMP1603O,UNION CAMP CORP.,1603 ORCHARD HILL RD.,LA GRANGE,TROUP,GA,30240,33.010759,-85.057559,2673,,,,,,322223,,,,,,1390045101793,"1,1,1-TRICHLOROETHANE",000071556,YES,NON-PBT,NO,0,NO,R,Pounds,28742,0,0,0,0,0,0,0,0,0,0,0,28742,0,0,0,0,0,0,0,0,0,0,0,0,0,0,0,0,0,0,0,0,0,0,0,0,0,0,0,0,0,0,0,0,0,0,0,0,0,28742,0,0,0,0,0,0,0,0,0,0,0,0,0,,UNION CAMP CORP,001306935
1990,30903CLMBN23COL,PCS NITROGEN FERTILIZER LP,733 1/2 LANEY WALKER BLVD EXT,AUGUSTA,RICHMOND,GA,30901,33.440306,-81.932361,2873,,,,,,325311,,,,,,1390045205770,AMMONIUM SULFATE (SOLUTION),007783202,NO,NON-PBT,NO,0,NO,R,Pounds,0,0,0,0,0,0,0,0,0,0,0,0,0,0,0,0,0,0,0,0,0,0,0,0,0,0,0,0,0,0,0,0,0,0,0,0,0,0,0,0,0,0,0,0,0,0,0,0,0,0,0,0,0,0,0,0,0,0,0,0,0,0,0,0,,PCS NITROGEN FERTILIZER LP,858404015
1990,30903CLMBN23COL,PCS NITROGEN FERTILIZER LP,733 1/2 LANEY WALKER BLVD EXT,AUGUSTA,RICHMOND,GA,30901,33.440306,-81.932361,2873,,,,,,325311,,,,,,1390045205820,DIETHANOLAMINE,000111422,YES,NON-PBT,NO,0,NO,R,Pounds,0,0,1100,0,0,0,0,0,0,0,0,0,1100,0,0,0,0,0,0,0,0,0,0,0,0,0,0,0,0,0,0,0,0,0,0,0,0,0,0,0,0,0,0,0,0,0,0,0,0,0,1100,0,0,0,0,0,0,0,0,0,0,0,0,0,,PCS NITROGEN FERTILIZER LP,858404015
1990,30176SCNCM100ST,BALL AEROSOL & SPECIALTY CONTAINER INC,100 STOFFEL DR,TALLAPOOSA,HARALSON,GA,30176,33.736569,-85.276879,3411,,,,,,332431,,,,,,1390045207329,METHYL ETHYL KETONE,000078933,NO,NON-PBT,NO,0,NO,R,Pounds,4560,250,0,0,0,0,0,0,0,0,0,0,4810,0,0,0,0,0,0,0,0,0,0,0,0,0,0,0,0,0,0,0,0,0,0,0,0,0,0,0,0,0,0,0,0,0,0,0,0,0,4810,0,0,0,0,0,0,0,0,0,0,0,0,0,,BALL CORP,006419147
1990,30204GNRLT1GENE,CONTINENTAL TIRE THE AMERICAS LLC / ALDORA PLANT,160 ALDORA ST,BARNESVILLE,LAMAR,GA,30204,33.054073,-84.175693,2296,,,,,,314992,,,,,,1390040040178,STYRENE,000100425,YES,NON-PBT,NO,0,YES,R,Pounds,250,1600,0,0,0,0,0,0,0,0,0,0,1850,0,250,250,0,0,0,0,0,0,0,0,0,0,0,0,0,0,0,0,0,0,0,0,0,0,0,0,0,0,0,0,0,0,5,0,0,5,1850,0,0,0,0,0,0,0,0,0,0,0,0,0,,CONTINENTAL TIRE THE AMERICAS LLC,121793137
1990,30084SMNSN2037W,SIEMENS ENERGY & AUTOMATION INC,2037 WEEMS RD,TUCKER,DEKALB,GA,30084,33.84231,-84.251224,3643,,,,,,335931,,,,,,1390040050965,"HYDROCHLORIC ACID (1995 AND AFTER ""ACID AEROSOLS"" ONLY)",007647010,YES,NON-PBT,NO,0,NO,R,Pounds,0,0,0,0,0,0,0,0,0,0,0,0,0,0,0,0,0,0,0,0,0,0,0,0,0,0,0,0,0,0,0,0,0,0,0,0,0,0,0,0,0,0,0,0,0,0,0,0,0,0,0,0,0,0,0,0,0,0,0,0,0,0,0,0,,SIEMENS AG,316067164
1990,31408LBFST550GA,L. B. FOSTER CO. INC.,"C/O GA. PORT AUTHORITY, GARDEN CITY TERMINAL",GARDEN CITY,CHATHAM,GA,31408,32.116667,-81.146667,3498,,,,,,332996,,,,,,1390045054424,NICKEL COMPOUNDS,N495,YES,NON-PBT,YES,1,NO,R,Pounds,0,0,0,0,0,0,0,0,0,0,0,0,0,0,0,0,0,0,0,0,0,0,0,0,0,0,0,0,0,0,0,0,0,0,0,0,0,0,0,0,0,0,0,0,0,0,0,0,0,0,0,0,0,0,0,0,0,0,0,0,0,0,0,0,,L B FOSTER CO,004392619
1990,30824HVRTRWIRER,HOOVER TREATED WOOD PRODUCTS INC,"266 WIRE RD, NW",THOMSON,MCDUFFIE,GA,30824,33.45077,-82.536071,2491,,,,,,321999,,,,,,1390045058765,ARSENIC COMPOUNDS,N020,YES,NON-PBT,YES,1,NO,R,Pounds,0,0,0,0,0,0,0,0,0,0,0,0,0,0,0,0,0,0,0,0,0,0,0,0,0,0,0,0,0,0,0,0,0,0,0,0,0,0,0,0,0,0,0,0,0,0,0,0,0,0,0,0,0,0,0,0,0,0,0,0,0,0,0,0,,HOOVER WOOD PRODUCTS HOLDING INC,NA
1990,30279STNDR832EA,STANDRIDGE COLOR CORP. PLANT #1,832 E. HIGHTOWER TRAIL,SOCIAL CIRCLE,WALTON,GA,30279,33.651853,-83.704177,2816,,,,,,325132,,,,,,1390045126986,ZINC COMPOUNDS,N982,NO,NON-PBT,YES,1,NO,R,Pounds,39,0,0,0,0,0,0,0,0,0,0,0,39,0,0,0,0,0,0,0,0,0,20,0,0,0,0,0,0,0,0,0,0,20,0,0,0,0,0,0,0,0,0,0,0,0,0,0,0,0,59,0,0,0,0,0,0,0,0,0,0,0,0,0,,STANDRIDGE COLOR CORP,088602917
1990,30310MCGNR1314M,MCGEAN-ROHCO INC.,1314 MURPHY AVE.,ATLANTA,FULTON,GA,303103010,33.718015,-84.424318,2899,,,,,,325612,,,,,,1390045139627,"SULFURIC ACID (1994 AND AFTER ""ACID AEROSOLS"" ONLY)",007664939,NO,NON-PBT,NO,0,NO,R,Pounds,0,0,0,0,0,0,0,0,0,0,0,0,0,0,0,0,0,0,0,0,0,0,0,0,0,0,0,0,0,0,0,0,0,0,0,0,0,0,0,0,0,0,0,0,0,0,0,0,0,0,0,0,0,0,0,0,0,0,0,0,0,0,0,0,,MCGEAN-ROHCO INC,071112593
1990,30324TRCRP740LA,METALICO EVANS INC,740 LAMBERT DR NE,ATLANTA,FULTON,GA,30324,33.812604,-84.364329,3356,,,,,,331491,,,,,,1390045144110,LEAD COMPOUNDS,N420,YES,PBT,YES,1,NO,R,Pounds,116,0,0,0,0,0,0,0,0,0,0,0,116,0,0,0,0,0,0,0,0,0,5,0,0,0,0,0,0,0,0,0,0,5,0,0,0,0,0,0,0,0,0,0,0,0,0,0,0,0,121,0,0,0,0,0,0,0,0,0,0,0,0,0,,METALICO INC,090331737
1990,30263CRNND374CO,PREMIER FOAM INC,374 CORINTH RD,NEWNAN,COWETA,GA,30263,33.334167,-84.78333,3086,,,,,,325211,,,,,,1390045168376,"TOLUENE-2,4-DIISOCYANATE",000584849,YES,NON-PBT,NO,0,YES,R,Pounds,0,106,0,0,0,0,0,0,0,0,0,0,106,0,0,0,0,0,0,0,0,0,0,0,0,0,0,0,0,0,0,0,0,0,0,0,0,0,0,0,0,0,0,0,0,0,0,0,0,0,106,0,0,0,0,0,0,0,0,0,0,0,0,0,,NA,NA
1990,30736RC   RTE83,BOC GROUP INC BOC GASES AMERICAS,54 BIGGS RD.,RINGGOLD,CATOOSA,GA,30736,34.978056,-85.1925,2813,,,,,,325120,,,,,,1390045241561,ACETONE,000067641,NO,NON-PBT,NO,0,NO,R,Pounds,750,0,0,0,0,0,0,0,0,0,0,0,750,0,0,0,0,0,0,0,0,0,0,0,0,0,0,0,0,0,0,0,0,0,0,0,0,0,0,0,0,0,0,0,0,0,0,0,0,0,750,0,0,0,0,0,0,0,0,0,0,0,0,0,,BOC GROUP INC,001368141
1990,30601DLMRW1555O,DEL MAR WINDOW COVERINGS,1555 OLYMPIC DR.,ATHENS,CLARKE,GA,30601,33.984482,-83.332446,2591,,,,,,337920,,,,,,1390040008981,TOLUENE,000108883,YES,NON-PBT,NO,0,NO,R,Pounds,759,0,0,0,0,0,0,0,0,0,0,0,759,0,0,0,0,0,0,0,0,0,0,0,0,0,0,0,0,0,0,0,0,0,0,0,0,0,0,0,0,0,0,0,0,0,0,0,0,0,759,0,0,0,0,0,0,0,0,0,0,0,0,0,,HOME FASHION INC,182737866
1990,30903DSMCHNO1CO,DSM CHEMICALS NORTH AMERICA INC,1 COLUMBIA NITROGEN RD,AUGUSTA,RICHMOND,GA,30901,33.436944,-81.93388,2869,2873,,,,,325199,,,,,,1390040067009,NITRIC ACID,007697372,NO,NON-PBT,NO,0,NO,R,Pounds,0,524,0,0,0,0,0,0,0,0,0,0,524,0,0,0,0,0,0,0,0,0,0,0,0,0,0,0,0,0,0,0,0,0,0,0,0,0,0,0,0,0,0,0,0,0,0,0,0,0,524,0,0,0,0,0,0,0,0,0,0,0,0,0,,DSM HOLDING CO INC,622750990
1990,30903THNTR1750L,NUTRASWEET CO,1762 LOVERS LN,AUGUSTA,RICHMOND,GA,30901,33.392583,-81.943139,2869,,,,,,325199,,,,,,1390040104756,CHLORINE,007782505,YES,NON-PBT,NO,0,NO,R,Pounds,340,4500,0,0,0,0,0,0,0,0,0,0,4840,0,0,0,0,0,0,0,0,0,0,0,0,0,0,0,0,0,0,0,0,0,0,0,0,0,0,0,0,0,0,0,0,0,0,0,0,0,4840,0,0,0,0,0,0,0,0,0,0,0,0,0,,J W CHILDS EQUITY PARTNERS II LP,NA
1990,31206RCHRD1265S,ADM,1265 6TH ST.,MACON,BIBB,GA,31206,32.822933,-83.631567,2079,,,,,,311225,,,,,,1390045100397,PHOSPHORIC ACID,007664382,NO,NON-PBT,NO,0,NO,R,Pounds,0,0,0,0,0,0,0,0,0,0,0,0,0,0,0,0,0,0,0,0,0,0,0,0,0,0,0,0,0,0,0,0,0,0,0,0,0,0,0,0,0,0,0,0,0,0,0,0,0,0,0,0,0,0,0,0,0,0,0,0,0,0,0,0,,ADM,001307586
1990,30071KZCTN6369O,AKZO COATINGS INC,6369 OLD PEACHTREE RD,NORCROSS,GWINNETT,GA,300711780,33.929194,-84.237608,2851,,,,,,325510,,,,,,1390045104623,TOLUENE,000108883,YES,NON-PBT,NO,0,NO,R,Pounds,6400,250,0,0,0,0,0,0,0,0,0,0,6650,0,0,0,0,0,0,0,0,0,0,0,0,0,0,0,0,0,0,0,0,0,0,0,0,0,0,0,0,0,0,0,250,0,0,0,0,250,6650,0,0,0,0,0,0,0,0,0,0,0,0,0,,AKZO NOBEL INC,062999347
1990,31404KMRNCEASTP,SAVANNAH ACID PLANT LLC,1 KERR MCGEE RD,SAVANNAH,CHATHAM,GA,31404,32.078889,-81.030556,2816,2819,,,,,325131,,,,,,1390045093491,CARBONYL SULFIDE,000463581,YES,NON-PBT,NO,0,NO,R,Pounds,0,247000,0,0,0,0,0,0,0,0,0,0,247000,0,0,0,0,0,0,0,0,0,0,0,0,0,0,0,0,0,0,0,0,0,0,0,0,0,0,0,0,0,0,0,0,0,0,0,0,0,247000,0,0,0,0,0,0,0,0,0,0,0,0,0,,NA,NA
1990,30120MRPNC63IND,AMREP INC.,63 INDUSTRIAL DR.,CARTERSVILLE,BARTOW,GA,30120,34.154619,-84.792909,2841,2842,,,,,325611,,,,,,1390045273808,"2,4-D",000094757,YES,NON-PBT,NO,0,YES,R,Pounds,0,0,0,0,0,0,0,0,0,0,0,0,0,0,0,0,0,0,0,0,0,0,0,0,0,0,0,0,0,0,0,0,0,0,0,0,0,0,0,0,0,0,0,0,75,0,0,0,0,75,0,0,0,0,0,0,0,0,0,0,0,0,0,0,,DAWN CHEMICAL INC,147608129
1990,30120MRPNC63IND,AMREP INC.,63 INDUSTRIAL DR.,CARTERSVILLE,BARTOW,GA,30120,34.154619,-84.792909,2841,2842,,,,,325611,,,,,,1390045273859,PHOSPHORIC ACID,007664382,NO,NON-PBT,NO,0,NO,R,Pounds,0,0,0,0,0,0,0,0,0,0,0,0,0,0,0,0,0,0,0,0,0,0,0,0,0,0,0,0,0,0,0,0,0,0,0,0,0,0,0,0,0,0,0,0,0,0,0,0,0,0,0,0,0,0,0,0,0,0,0,0,0,0,0,0,,DAWN CHEMICAL INC,147608129
1990,30207LRNCD139NO,LAURENCE-DAVID INC.,139 N. SALEM RD.,CONYERS,ROCKDALE,GA,30208,33.639945,-83.976359,2851,,,,,,325510,,,,,,1390045214374,ACETONE,000067641,NO,NON-PBT,NO,0,NO,R,Pounds,19739,250,0,0,0,0,0,0,0,0,0,0,19989,0,0,0,0,0,0,0,0,0,0,0,0,0,0,0,0,0,0,0,0,0,0,0,0,0,0,0,0,0,0,0,0,0,0,0,0,0,19989,0,0,0,0,0,0,0,0,0,0,0,0,0,,CUTLER CORP,057560914
1990,31015DRXLCHIGHW,DREXEL CHEMICAL CO,HWY 280 E CAPE RD,CORDELE,CRISP,GA,31015,31.9549,-83.7271,2879,,,,,,325320,,,,,,1390045275322,METHOXYCHLOR,000072435,YES,PBT,NO,0,NO,R,Pounds,250,250,250,0,0,0,0,0,0,0,0,250,1000,0,0,0,0,0,0,0,0,0,250,0,0,0,0,0,0,0,0,0,0,250,0,0,0,0,0,0,0,0,0,0,0,0,0,0,0,0,1250,0,0,0,0,0,0,0,0,0,0,0,0,0,,DREXEL CHEMICAL CO,073524555
1990,30092LCTRM125TE,EMS TECHNOLOGIES INC.,125 TECHNOLOGY PARK ATLANTA,NORCROSS,GWINNETT,GA,30092,33.96473,-84.21786,3669,,,,,,334290,,,,,,1390040027245,FREON 113,000076131,NO,NON-PBT,NO,0,NO,R,Pounds,13273,0,0,0,0,0,0,0,0,0,0,0,13273,0,0,0,0,0,0,0,0,0,0,0,0,0,0,0,0,0,0,0,0,0,0,0,0,0,0,0,0,0,0,0,0,0,0,0,0,0,13273,0,0,0,0,0,0,0,0,0,0,0,0,0,,ELECTROMAGNETIC SCIENCES INC,047949979
1990,30084SMNSN2037W,SIEMENS ENERGY & AUTOMATION INC,2037 WEEMS RD,TUCKER,DEKALB,GA,30084,33.84231,-84.251224,3643,,,,,,335931,,,,,,1390040050977,NITRIC ACID,007697372,NO,NON-PBT,NO,0,NO,R,Pounds,0,0,0,0,0,0,0,0,0,0,0,0,0,0,0,0,0,0,0,0,0,0,0,0,0,0,0,0,0,0,0,0,0,0,0,0,0,0,0,0,0,0,0,0,0,0,0,0,0,0,0,0,0,0,0,0,0,0,0,0,0,0,0,0,,SIEMENS AG,316067164
1990,30180PRNTP297AN,PRINTPACK INC.,297 ANDREW WAY,VILLA RICA,CARROLL,GA,30180,33.745556,-84.951385,2751,,,,,,323110,,,,,,1390040093421,CERTAIN GLYCOL ETHERS,N230,YES,NON-PBT,NO,0,NO,R,Pounds,3499,992,0,0,0,0,0,0,0,0,0,0,4491,0,0,0,0,0,0,0,0,0,0,0,0,0,0,0,0,0,0,0,0,0,0,0,0,0,0,0,0,0,0,0,192,0,0,207,0,399,4491,0,0,0,0,0,0,0,0,0,0,0,0,0,,PRINTPACK INC,003274545
1990,30378PRNTP4335W,PRINTPACK INC.,4335 WENDELL DR.,ATLANTA,FULTON,GA,303361622,33.769709,-84.52905,2751,,,,,,322223,,,,,,1390040093585,CERTAIN GLYCOL ETHERS,N230,YES,NON-PBT,NO,0,NO,R,Pounds,20051,1203,0,0,0,0,0,0,0,0,0,0,21254,0,0,0,0,0,0,0,0,0,0,0,0,0,0,0,0,0,0,0,0,0,0,0,0,0,0,0,0,0,0,0,0,0,0,14430,0,14430,21254,0,0,0,0,0,0,0,0,0,0,0,0,0,,PRINTPACK INC,003274545
1990,30341VDCMR5414N,VADCO MARBLE OF GEORGIA INC.,5414 NEW PEACHTREE RD.,CHAMBLEE,DEKALB,GA,303412821,33.891354,-84.299671,3079,3088,,,,,326199,,,,,,1390040087658,ACETONE,000067641,NO,NON-PBT,NO,0,NO,R,Pounds,1963,0,0,0,0,0,0,0,0,0,0,0,1963,0,0,0,0,0,0,0,0,0,0,0,0,0,0,0,0,0,0,0,0,0,0,0,0,0,0,0,0,0,0,0,0,0,0,0,0,0,1963,0,0,0,0,0,0,0,0,0,0,0,0,0,,NA,NA
1990,31709DVDSNRT6BO,COLLINS & AIKMAN PRODUCTS CO.,100 BRADY RD,AMERICUS,SUMTER,GA,31709,32.0552,-84.20208,3714,,,,,,336000,,,,,,1390045022439,METHYL ETHYL KETONE,000078933,NO,NON-PBT,NO,0,NO,R,Pounds,3037,824136,0,0,0,0,0,0,0,0,0,0,827173,0,0,0,0,0,0,0,0,0,0,0,0,0,0,0,0,0,0,0,0,0,0,0,0,0,0,0,0,0,0,0,0,0,0,0,0,0,827173,0,0,0,0,0,0,0,0,0,0,0,0,0,,COLLINS & AIKMAN PRODUCTS CO,620407064
1990,31709DVDSNRT6BO,COLLINS & AIKMAN PRODUCTS CO.,100 BRADY RD,AMERICUS,SUMTER,GA,31709,32.0552,-84.20208,3714,,,,,,336000,,,,,,1390045022478,METHYLENEBIS(PHENYLISOCYANATE),000101688,NO,NON-PBT,NO,0,NO,R,Pounds,0,0,0,0,0,0,0,0,0,0,0,0,0,0,0,0,0,0,0,0,0,0,0,0,0,0,0,0,0,0,0,0,0,0,0,0,0,0,0,0,0,0,0,0,0,0,0,0,0,0,0,0,0,0,0,0,0,0,0,0,0,0,0,0,,COLLINS & AIKMAN PRODUCTS CO,620407064
1990,31521THBRN2700G,O'BRIEN CORP.,2700 GLYNN AVE.,BRUNSWICK,GLYNN,GA,31521,31.166504,-81.474748,2851,,,,,,325510,,,,,,1390045179518,XYLENE (MIXED ISOMERS),001330207,YES,NON-PBT,NO,0,NO,R,Pounds,750,8929,0,0,0,0,0,0,0,0,0,0,9679,0,0,0,0,0,0,0,0,0,0,0,0,0,0,0,0,0,0,0,0,0,0,0,0,0,0,0,0,0,0,0,0,0,0,0,0,0,9679,0,0,0,0,0,0,0,0,0,0,0,0,0,,O'BRIEN CORP,005130455
1990,30120PNDLN21RIV,PANDEL INC,21 RIVER DR,CARTERSVILLE,BARTOW,GA,30120,34.14922,-84.79712,3089,,,,,,326199,,,,,,1390045146899,ANTIMONY COMPOUNDS,N010,YES,NON-PBT,YES,1,NO,R,Pounds,0,0,0,0,0,0,0,0,0,0,0,0,0,0,0,0,0,0,0,0,0,0,250,0,0,0,0,0,0,0,0,0,0,500,0,0,0,0,0,0,0,0,0,0,0,0,250,0,0,0,500,0,0,0,0,0,0,0,0,0,0,0,0,0,,PANDEL HOLDINGS INC,NA
1990,30207KYSRW1600I,KYSOR/WARREN,1600 INDUSTRIAL BLVD.,CONYERS,ROCKDALE,GA,30012,33.674355,-84.039798,3585,,,,,,333415,,,,,,1390045207560,METHYL ETHYL KETONE,000078933,NO,NON-PBT,NO,0,NO,R,Pounds,0,1695,0,0,0,0,0,0,0,0,0,0,1695,0,0,0,0,0,0,0,0,0,0,0,0,0,0,0,0,0,0,0,0,0,0,0,0,0,0,0,0,0,0,0,0,0,0,0,0,0,1695,0,0,0,0,0,0,0,0,0,0,0,0,0,,WELBELT,364466284
1990,31908KYSRW5201T,KYSOR WARREN CASE PLANT,5201 TRANSPORT BLVD,COLUMBUS,MUSCOGEE,GA,31907,32.515822,-84.872728,3585,,,,,,333415,,,,,,1390045207634,N-BUTYL ALCOHOL,000071363,NO,NON-PBT,NO,0,NO,R,Pounds,0,1200,0,0,0,0,0,0,0,0,0,0,1200,0,0,0,0,0,0,0,0,0,0,0,0,0,0,0,0,0,0,0,0,0,0,0,0,0,0,0,0,0,0,0,0,0,0,0,0,0,1200,0,0,0,0,0,0,0,0,0,0,0,0,0,,LENNOX INTERNATIONAL INC,NA
1990,31902CLMBS1412F,FIELDCREST CANNON INC. COLUMBUS TOWEL,1412 FRONT AVE.,COLUMBUS,MUSCOGEE,GA,31901,32.46858,-84.99461,2211,,,,,,313210,,,,,,1390045220744,"HYDROCHLORIC ACID (1995 AND AFTER ""ACID AEROSOLS"" ONLY)",007647010,YES,NON-PBT,NO,0,NO,R,Pounds,0,0,0,0,0,0,0,0,0,0,0,0,0,0,0,0,0,0,0,0,0,0,0,0,0,0,0,0,0,0,0,0,0,0,0,0,0,0,0,0,0,0,0,0,0,0,0,0,0,0,0,0,0,0,0,0,0,0,0,0,0,0,0,0,,FIELDCREST CANNON INC,003218203
1990,31901GNBNCJOYRO,EXIDE TECHNOLOGIES,3639 JOY RD,COLUMBUS,MUSCOGEE,GA,31906,32.436186,-84.933862,3341,3399,,,,,331000,,,,,,1390045237587,LEAD,007439921,YES,PBT,YES,1,YES,R,Pounds,3315,2139,0,0,0,0,0,0,0,0,0,0,5454,0,0,0,0,0,0,0,0,0,144616,0,0,0,0,0,0,0,0,0,0,144616,0,0,0,0,0,0,0,0,0,0,0,0,0,0,0,0,150070,0,0,0,0,0,0,0,0,0,0,0,0,0,,EXIDE TECHNOLOGIES,038009866
1990,30903DSMCHNO1CO,DSM CHEMICALS NORTH AMERICA INC,1 COLUMBIA NITROGEN RD,AUGUSTA,RICHMOND,GA,30901,33.436944,-81.93388,2869,2873,,,,,325199,,,,,,1390040067047,ZINC COMPOUNDS,N982,NO,NON-PBT,YES,1,NO,R,Pounds,0,0,133,0,0,0,0,0,0,0,0,0,133,0,0,0,0,0,0,0,0,0,0,0,0,0,0,0,0,0,0,0,0,0,0,0,0,0,0,0,0,0,0,0,0,0,0,0,0,0,133,0,0,0,0,0,0,0,0,0,0,0,0,0,,DSM HOLDING CO INC,622750990
1990,30260BCCMP6970J,ABC COMPOUNDING CO INC,6970 JONESBORO RD,MORROW,CLAYTON,GA,30260,33.564907,-84.344264,2842,,,,,,325612,,,,,,1390045042215,DICHLOROMETHANE,000075092,YES,NON-PBT,NO,0,YES,R,Pounds,5,4000,0,0,0,0,0,0,0,0,0,0,4005,0,0,0,0,0,0,0,0,0,5,0,0,0,0,0,0,0,10,0,0,15,0,0,0,0,0,0,0,0,0,0,0,0,0,0,0,0,4020,0,0,0,0,0,0,0,0,0,0,0,0,0,,ABC COMPOUNDING CO INC,NA
1990,30260BCCMP6970J,ABC COMPOUNDING CO INC,6970 JONESBORO RD,MORROW,CLAYTON,GA,30260,33.564907,-84.344264,2842,,,,,,325612,,,,,,1390045042278,XYLENE (MIXED ISOMERS),001330207,YES,NON-PBT,NO,0,NO,R,Pounds,5,250,0,0,0,0,0,0,0,0,0,0,255,0,0,0,0,0,0,0,0,0,250,0,0,0,0,0,0,0,1655,0,0,1905,0,0,0,0,0,0,0,0,0,0,0,0,0,0,0,0,2160,0,0,0,0,0,0,0,0,0,0,0,0,0,,ABC COMPOUNDING CO INC,NA
1990,30260SHRWN6795S,SHERWIN-WILLIAMS CO,6795 S MAIN ST,MORROW,CLAYTON,GA,30260,33.571361,-84.342589,2851,,,,,,325510,,,,,,1390040027423,METHYL ISOBUTYL KETONE,000108101,YES,NON-PBT,NO,0,NO,R,Pounds,5,410,0,0,0,0,0,0,0,0,0,0,415,0,0,0,0,0,0,0,0,0,0,0,0,0,0,0,0,0,200,0,0,200,0,0,0,0,0,0,0,0,0,0,0,0,0,0,0,0,615,0,0,0,0,0,0,0,0,0,0,0,0,0,,THE SHERWIN WILLIAMS CO,004206397
1990,30260SHRWN6795S,SHERWIN-WILLIAMS CO,6795 S MAIN ST,MORROW,CLAYTON,GA,30260,33.571361,-84.342589,2851,,,,,,325510,,,,,,1390040027474,ANTIMONY COMPOUNDS,N010,YES,NON-PBT,YES,1,NO,R,Pounds,0,0,0,0,0,0,0,0,0,0,0,0,0,1,0,1,0,0,0,0,0,0,17,0,0,0,0,0,0,0,0,0,0,37,0,0,0,0,0,0,0,0,0,0,7,0,20,0,0,7,38,0,0,0,0,0,0,0,0,0,0,0,0,0,,THE SHERWIN WILLIAMS CO,004206397
1990,30903THNTR1750L,NUTRASWEET CO,1762 LOVERS LN,AUGUSTA,RICHMOND,GA,30901,33.392583,-81.943139,2869,,,,,,325199,,,,,,1390040104770,"SULFURIC ACID (1994 AND AFTER ""ACID AEROSOLS"" ONLY)",007664939,NO,NON-PBT,NO,0,NO,R,Pounds,820,100,0,0,0,0,0,0,0,0,0,0,920,0,0,0,0,0,0,0,0,0,0,0,0,0,0,0,0,0,0,0,0,0,0,0,0,0,0,0,0,0,0,0,0,0,0,0,0,0,920,0,0,0,0,0,0,0,0,0,0,0,0,0,,J W CHILDS EQUITY PARTNERS II LP,NA
1990,31407SVNNHOXNAR,SAVANNAH SUGAR REFINERY,OXNARD DR.,PORT WENTWORTH,CHATHAM,GA,31407,32.14389,-81.146667,2062,,,,,,311312,,,,,,1390045100676,PHOSPHORIC ACID,007664382,NO,NON-PBT,NO,0,NO,R,Pounds,0,0,0,0,0,0,0,0,0,0,0,0,0,0,0,0,0,0,0,0,0,0,0,0,0,0,0,0,0,0,0,0,0,0,0,0,0,0,0,0,0,0,0,0,0,0,0,0,0,0,0,0,0,0,0,0,0,0,0,0,0,0,0,0,,SAVANNAH FOODS & INDUSTRIES INC,003289444
1990,30655NVRSLVINES,UNIVERSAL RUNDLE CORP.,150 W. VINE ST.,MONROE,WALTON,GA,30655,33.764018,-83.722439,3261,,,,,,327111,,,,,,1390045089671,COBALT COMPOUNDS,N096,YES,NON-PBT,YES,1,YES,R,Pounds,0,0,0,0,0,0,28,0,0,0,0,0,28,0,0,0,0,0,0,0,0,0,0,0,0,0,0,0,0,0,0,0,0,0,0,0,0,0,0,0,0,0,0,0,0,0,0,0,0,0,28,0,0,0,0,0,0,0,0,0,0,0,0,0,,NORTEK INC,041281296
1990,31776FRMRS3154T,PCS JOINT VENTURE,315 4TH AVE NE,MOULTRIE,COLQUITT,GA,31768,31.183056,-83.784722,2874,2875,,,,,325312,,,,,,1390045093794,COPPER COMPOUNDS,N100,NO,NON-PBT,YES,1,NO,R,Pounds,250,0,0,0,0,0,0,0,0,0,0,0,250,0,0,0,0,0,0,0,0,0,0,0,0,0,0,0,0,0,0,0,0,0,0,0,0,0,0,0,0,0,0,0,0,0,0,0,0,0,250,0,0,0,0,0,0,0,0,0,0,0,0,0,,PCS JOINT VENTURE LTD,004088498
1990,30162BKRTCHWY41,BEKAERT STEEL,301 DARLINGTON DR,ROME,FLOYD,GA,30161,34.21936,-85.173638,2296,,,,,,331000,,,,,,1390045158755,PHOSPHORIC ACID,007664382,NO,NON-PBT,NO,0,NO,R,Pounds,250,0,5,0,0,0,0,0,0,0,0,0,255,0,0,0,0,0,0,0,0,0,0,0,0,0,0,0,0,0,0,0,0,0,0,0,0,0,0,0,0,0,0,0,0,0,0,0,0,0,255,0,0,0,0,0,0,0,0,0,0,0,0,0,,BEKAERT NV,051525129
1990,30747GRGRGLYERL,GEORGIA RUG MILL,LYERLY ST.,SUMMERVILLE,CHATTOOGA,GA,30747,34.46594,-85.36019,2273,,,,,,314110,,,,,,1390045186653,AMMONIUM SULFATE (SOLUTION),007783202,NO,NON-PBT,NO,0,NO,R,Pounds,0,0,0,0,0,0,0,0,0,0,0,0,0,0,5,5,0,0,0,0,0,0,0,0,0,0,0,0,0,0,0,0,0,0,0,0,0,0,0,0,0,0,0,0,0,0,0,0,0,0,0,0,0,0,0,0,0,0,0,0,0,0,0,0,,FIELDCREST CANNON INC,003218203
1990,30269TDKCMONETD,TDK COMPONENTS USA INC.,ONE TDK BLVD.,PEACHTREE CITY,FAYETTE,GA,30269,33.369444,-84.569444,3675,,,,,,334414,,,,,,1390045230570,METHANOL,000067561,YES,NON-PBT,NO,0,NO,R,Pounds,750,2200,0,0,0,0,0,0,0,0,0,0,2950,0,0,0,0,0,0,0,0,0,0,0,0,0,0,0,0,0,0,0,0,0,0,0,0,0,0,0,0,0,0,0,0,0,0,0,0,0,2950,0,0,0,0,0,0,0,0,0,0,0,0,0,,TDK USA CORP,099468720
1990,31793TFTNLSOUTH,TIFTON ALUMINUM CO. INC,250 SOUTHWELL BLVD,TIFTON,TIFT,GA,31794,31.41706,-83.49427,3354,,,,,,331316,,,,,,1390045251752,XYLENE (MIXED ISOMERS),001330207,YES,NON-PBT,NO,0,NO,R,Pounds,7719,43226,0,0,0,0,0,0,0,0,0,0,50945,0,0,0,0,0,0,0,0,0,0,0,0,0,0,0,0,0,0,0,0,0,0,0,0,0,0,0,0,0,0,0,0,0,0,0,0,0,50945,0,0,0,0,0,0,0,0,0,0,0,0,0,,ALCOA INC,001339472
1990,31907DSTNC4949S,PLICON CORP.,4949 SCHATULGA RD.,COLUMBUS,MUSCOGEE,GA,31907,32.512478,-84.869395,2841,,,,,,325611,,,,,,1390045236306,CERTAIN GLYCOL ETHERS,N230,YES,NON-PBT,NO,0,NO,R,Pounds,0,0,0,0,0,0,0,0,0,0,0,0,0,0,250,250,0,0,0,0,0,0,0,0,0,0,0,0,0,0,0,0,0,0,0,0,0,0,0,0,0,0,0,0,0,0,0,0,0,0,0,0,0,0,0,0,0,0,0,0,0,0,0,0,,PLICON CORP,074386889
1990,30341XFRDC5001P,OXFORD CHEMICALS INC.,"5001 PEACHTREE INDUSTRIAL, BLVD.",CHAMBLEE,DEKALB,GA,30341,33.88605,-84.31532,2842,2879,2899,,,,325612,,,,,,1390045225125,TETRACHLOROETHYLENE,000127184,YES,NON-PBT,NO,0,YES,R,Pounds,250,250,0,0,0,0,0,0,0,0,0,0,500,0,0,0,0,0,0,0,0,0,0,0,0,0,0,0,0,0,0,0,0,0,0,0,0,0,0,0,0,0,0,0,0,0,0,0,0,0,500,0,0,0,0,0,0,0,0,0,0,0,0,0,,DIVERSEY CORP,244090866
1990,31516CPLCNHIGHW,ACE POLE CO INC,6352 TIMBER LN,BLACKSHEAR,PIERCE,GA,31516,31.259984,-82.294739,2491,,,,,,321114,,,,,,1390045326648,CHROMIUM COMPOUNDS(EXCEPT CHROMITE ORE MINED IN THE TRANSVAAL REGION),N090,YES,NON-PBT,YES,1,NO,R,Pounds,5,250,0,0,0,0,0,0,0,0,0,0,255,0,0,0,0,0,0,0,0,0,25000,0,0,0,0,0,0,0,0,0,0,25000,0,0,0,0,0,0,0,0,0,0,0,0,0,0,0,0,25255,0,0,0,0,0,0,0,0,0,0,0,0,0,,NA,NA
1990,30669NVRSL1INDU,GEORGIA BATHWARE INC,1061 INDUSTRIAL BLVD,UNION POINT,GREENE,GA,30669,33.61085,-83.07536,3079,,,,,,326000,,,,,,1390045340078,METHYL METHACRYLATE,000080626,YES,NON-PBT,NO,0,NO,R,Pounds,566,2262,0,0,0,0,0,0,0,0,0,0,2828,0,0,0,0,0,0,0,0,0,0,0,0,0,0,0,0,0,0,0,0,0,0,0,0,0,0,0,0,0,0,0,0,0,0,0,0,0,2828,0,0,0,0,0,0,0,0,0,0,0,0,0,,JUPITER BATHWARE,NA
1990,31533JSPHC601EJ,WAYNE FARMS LLC - DOUGLAS FP PLANT,601 E JOHNSON ST,DOUGLAS,COFFEE,GA,31533,31.524899,-82.842804,2015,,,,,,311615,,,,,,1390045321472,AMMONIA,007664417,NO,NON-PBT,NO,0,NO,R,Pounds,12000,0,0,0,0,0,0,0,0,0,0,0,12000,0,0,0,0,0,0,0,0,0,0,0,0,0,0,0,0,0,0,0,0,0,0,0,0,0,0,0,0,0,0,0,0,0,0,0,0,0,12000,0,0,0,0,0,0,0,0,0,0,0,0,0,,WAYNE FARMS LLC,NA
1990,31601NNCMP1401E,ARIZONA CHEMICAL LLC,1401 E HILL AVE,VALDOSTA,LOWNDES,GA,31601,30.83821,-83.25925,2821,,,,,,325211,,,,,,1390045354305,FORMALDEHYDE,000050000,YES,NON-PBT,NO,0,YES,R,Pounds,30,33,0,0,0,0,0,0,0,0,0,0,63,0,0,0,0,0,0,0,0,0,0,0,0,0,0,0,0,0,0,0,0,0,0,0,0,0,0,0,0,0,0,0,0,0,0,0,0,0,63,0,0,0,0,0,0,0,0,0,0,0,0,0,,ARIZONA CHEMICAL CO LLC,NA
1990,31765THJHN2MILE,WAVERLY MINERAL PRODS. CO.,"2 MI. S. MEIGS GA ON GA HWY. 3, 2 MI. SOUTH OF MEIGS",MEIGS,THOMAS,GA,317650106,31.046493,-84.076411,3295,,,,,,327992,,,,,,1390045436538,AMMONIA,007664417,NO,NON-PBT,NO,0,NO,R,Pounds,0,0,0,0,0,0,0,0,0,0,0,0,0,0,0,0,0,0,0,0,0,0,0,0,0,0,0,0,0,0,0,0,0,0,0,0,0,0,0,0,0,0,0,0,0,0,0,0,0,0,0,0,0,0,0,0,0,0,0,0,0,0,0,0,,LAPORTE INC,106793433
1990,30240NKNC 1618F,FREUDENBERG-NOK GENERAL PTNR,1618 LUKKEN INDUSTRIAL DR W,LAGRANGE,TROUP,GA,30240,33.01293,-85.054247,3053,,,,,,339991,,,,,,1390045468802,METHANOL,000067561,YES,NON-PBT,NO,0,NO,R,Pounds,1039,206765,0,0,0,0,0,0,0,0,0,0,207804,0,0,0,0,0,0,0,0,0,0,0,0,0,0,0,0,0,0,0,0,0,0,0,0,0,0,0,0,0,0,0,25561,0,0,0,0,25561,207804,0,0,0,0,0,0,0,0,0,0,0,0,0,,FREUDENBERG-NOK GENERAL PTNR,001084672
1990,31520HRCLS2801C,PINOVA INC,2801 COOK ST,BRUNSWICK,GLYNN,GA,31520,31.163558,-81.479218,2861,2869,,,,,325191,,,,,,1390045525413,BENZOYL CHLORIDE,000098884,NO,NON-PBT,NO,0,NO,R,Pounds,113,0,0,0,0,0,0,0,0,0,0,0,113,0,0,0,0,0,0,0,0,0,0,0,0,0,0,0,0,0,0,0,0,0,0,0,0,0,0,0,0,0,0,0,0,0,0,0,0,0,113,0,0,0,0,0,0,0,0,0,0,0,0,0,,PINOVA HOLDINGS,962063561
1990,30134YNGRF7982H,YOUNG REFINING CORP,7982 HUEY RD,DOUGLASVILLE,DOUGLAS,GA,30134,33.764178,-84.733663,2911,,,,,,324110,,,,,,1390045611629,TOLUENE,000108883,YES,NON-PBT,NO,0,NO,R,Pounds,750,250,5,0,0,0,0,0,0,0,0,0,1005,0,5,5,0,0,0,0,0,0,0,0,0,0,0,0,0,0,0,0,0,0,0,0,0,0,0,0,0,0,0,0,0,0,0,0,0,0,1005,0,0,0,0,0,0,0,0,0,0,0,0,0,,NA,NA
1990,30213WNSCR7000M,OWENS CORNING INSULATING SYSYTEMS LLC FAIRBURN GA,7000 MCLARIN RD,FAIRBURN,FULTON,GA,30213,33.546612,-84.607599,3296,,,,,,327993,,,,,,1390045615554,AMMONIA,007664417,NO,NON-PBT,NO,0,NO,R,Pounds,290,1700,0,0,0,0,0,0,0,0,0,0,1990,0,0,0,0,0,0,0,0,0,75,0,0,0,0,0,0,0,0,0,0,75,0,0,0,0,0,0,0,0,0,0,0,0,0,0,0,0,2065,0,0,0,0,0,0,0,0,0,0,0,0,0,,OWENS CORNING,001317452
1990,30650WLLNG1251L,WELLINGTON LEISURE PRODS.,1251 LIONS CLUB RD.,MADISON,MORGAN,GA,30650,33.56384,-83.483403,3089,,,,,,326199,,,,,,1390045617471,METHYL ISOBUTYL KETONE,000108101,YES,NON-PBT,NO,0,NO,R,Pounds,52200,71000,0,0,0,0,0,0,0,0,0,0,123200,0,0,0,0,0,0,0,0,0,250,0,0,0,0,0,0,0,0,0,0,250,0,0,0,0,0,0,0,0,0,0,0,0,0,0,0,0,123450,0,0,0,0,0,0,0,0,0,0,0,0,0,,NA,NA
1990,31545TTRYNSAVAN,RAYONIER PERFORMANCE FIBERS JESUP MILL,4470 SAVANNAH HWY,JESUP,WAYNE,GA,31545,31.661111,-81.843889,2611,,,,,,322000,,,,,,1390045291147,ACETONE,000067641,NO,NON-PBT,NO,0,NO,R,Pounds,1600,59000,3900,0,0,0,29,0,0,0,0,0,64529,0,0,0,0,0,0,0,0,0,0,0,0,0,0,0,0,0,0,0,0,0,0,0,0,0,0,0,0,0,0,0,0,0,0,0,0,0,64529,0,0,0,0,0,0,0,0,0,0,0,0,0,,RAYONIER INC,001265263
1990,31545TTRYNSAVAN,RAYONIER PERFORMANCE FIBERS JESUP MILL,4470 SAVANNAH HWY,JESUP,WAYNE,GA,31545,31.661111,-81.843889,2611,,,,,,322000,,,,,,1390045291198,DICHLOROMETHANE,000075092,YES,NON-PBT,NO,0,YES,R,Pounds,39000,0,160,0,0,0,1,0,0,0,0,0,39161,0,0,0,0,0,0,0,0,0,0,0,0,0,0,0,0,0,0,0,0,0,0,0,0,0,0,0,0,0,0,0,0,0,0,0,0,0,39161,0,0,0,0,0,0,0,0,0,0,0,0,0,,RAYONIER INC,001265263
1990,30318THGLD1065G,GLIDDEN CO.,1065 GLIDDEN ST. N.W.,ATLANTA,FULTON,GA,30318,33.798333,-84.4275,2851,,,,,,325510,,,,,,1390045412362,ETHYLBENZENE,000100414,YES,NON-PBT,NO,0,NO,R,Pounds,140,790,0,0,0,0,0,0,0,0,0,0,930,0,5,5,0,0,0,0,0,0,0,0,0,0,0,0,0,0,20,0,0,20,0,0,0,0,0,0,0,0,0,3,0,0,0,0,0,3,950,0,0,0,0,0,0,0,0,0,0,0,0,0,,GLIDDEN CO,151334422
1990,31794CNTRLUNION,CONSOLIDATED NUTRITION LC,4460 UNION RD,TIFTON,TIFT,GA,31794,31.424747,-83.51727,2048,,,,,,311000,,,,,,1390045401130,ZINC COMPOUNDS,N982,NO,NON-PBT,YES,1,NO,R,Pounds,64,0,0,0,0,0,0,0,0,0,0,0,64,0,0,0,0,0,0,0,0,0,25,0,0,0,0,0,0,0,0,0,0,25,0,0,0,0,0,0,0,0,0,0,0,0,0,0,0,0,89,0,0,0,0,0,0,0,0,0,0,0,0,0,,CONSOLIDATED NUTRITION LC,876543505
1990,31030BLBRDNORTH,BLUE BIRD BODY CO,402 BLUE BIRD BLVD,FORT VALLEY,PEACH,GA,310300937,32.562023,-83.880372,3713,3714,3792,,,,336211,,,,,,1390045461555,TOLUENE,000108883,YES,NON-PBT,NO,0,NO,R,Pounds,115686,19800,0,0,0,0,0,0,0,0,0,0,135486,0,0,0,0,0,0,0,0,0,0,0,0,0,0,0,0,0,0,0,0,0,0,0,0,0,0,0,0,0,0,0,0,0,0,0,0,0,135486,0,0,0,0,0,0,0,0,0,0,0,0,0,,SCHOOL BUS HOLDINGS INC,830476508
1990,30240NSGNB1600E,HENKEL CORP,1600 EXECUTIVE DR,LAGRANGE,TROUP,GA,30240,33.009639,-85.059222,2851,,,,,,324122,,,,,,1390045487360,METHYL METHACRYLATE,000080626,YES,NON-PBT,NO,0,NO,R,Pounds,250,5,0,0,0,0,0,0,0,0,0,0,255,0,1600,1600,0,0,0,0,0,0,250,0,0,0,0,0,0,0,0,0,0,250,0,0,0,0,0,0,0,0,0,0,0,0,0,0,0,0,505,0,0,0,0,0,0,0,0,0,0,0,0,0,,HENKEL CORP,NA
1990,30201TCHNC3085T,TECHNICAL COATINGS CORP,3085 TROTTER PKWY,ALPHARETTA,FORSYTH,GA,30004,34.1125,-84.224444,2851,,,,,,325510,,,,,,1390045586260,CARBON TETRACHLORIDE,000056235,YES,NON-PBT,NO,0,YES,R,Pounds,0,0,0,0,0,0,0,0,0,0,0,0,0,0,0,0,0,0,0,0,0,0,0,0,0,0,0,0,0,0,0,0,0,0,0,0,0,0,0,0,0,0,0,0,0,0,0,0,0,0,0,0,0,0,0,0,0,0,0,0,0,0,0,0,,NA,NA
1990,30650PRKSC1630N,PARKS CORP.,1630 N. 5TH ST.,MADISON,MORGAN,GA,30650,33.608744,-83.454206,2851,,,,,,325510,,,,,,1390045326749,METHYL ETHYL KETONE,000078933,NO,NON-PBT,NO,0,NO,R,Pounds,250,750,0,0,0,0,0,0,0,0,0,0,1000,0,0,0,0,0,0,0,0,0,0,0,0,0,0,0,0,0,0,0,0,0,0,0,0,0,0,0,0,0,0,0,0,0,0,0,0,0,1000,0,0,0,0,0,0,0,0,0,0,0,0,0,,NA,NA
1990,30705BTTRBPOBOX,BETTER BACKERS INC DYEING DIV,1122 HWY 411 S,CHATSWORTH,MURRAY,GA,30705,34.717796,-84.743648,2269,,,,,,314110,,,,,,1390045333907,BIPHENYL,000092524,YES,NON-PBT,NO,0,NO,R,Pounds,0,0,0,0,0,0,0,0,0,0,0,0,0,0,15500,15500,0,0,0,0,0,0,0,0,0,0,0,0,0,0,0,0,0,0,0,0,0,0,0,0,0,0,0,0,0,0,0,0,0,0,0,0,0,0,0,0,0,0,0,0,0,0,0,0,,NA,NA
1990,30701BCKNG129NA,BOSTIK FINDLEY INC,129 NANCE RD NE,CALHOUN,GORDON,GA,30701,34.566788,-84.938028,2821,2841,3069,,,,325211,,,,,,1390045340421,MALEIC ANHYDRIDE,000108316,YES,NON-PBT,NO,0,NO,R,Pounds,250,5,0,0,0,0,0,0,0,0,0,0,255,0,0,0,0,0,0,0,0,0,0,0,0,0,0,0,0,0,0,0,0,0,0,0,0,0,0,0,0,0,0,0,0,0,0,0,0,0,255,0,0,0,0,0,0,0,0,0,0,0,0,0,,B0STIK FINDLEY INC,006083364
1990,30228STHRN30GEO,SOUTHERN STATES LLC,30 GEORGIA AVE,HAMPTON,HENRY,GA,302282950,33.385468,-84.287828,INVA,,,,,,335313,,,,,,1390045387002,COPPER,007440508,NO,NON-PBT,YES,1,NO,R,Pounds,0,0,0,0,0,0,0,0,0,0,0,0,0,0,0,0,0,0,0,0,0,0,0,0,0,0,0,0,0,0,0,0,0,0,0,0,0,0,0,0,0,0,0,0,0,0,0,0,0,0,0,0,0,0,0,0,0,0,0,0,0,0,0,0,,SOUTHERN STATES LLC,NA
1990,30613LVRRB215ON,COOPER TIRE & RUBBER OLIVER RUBBER CO DIV,215 ONETA ST,ATHENS,CLARKE,GA,30601,33.970627,-83.392457,3011,3069,,,,,326211,,,,,,1390045521299,TOLUENE,000108883,YES,NON-PBT,NO,0,NO,R,Pounds,4000,12000,0,0,0,0,0,0,0,0,0,0,16000,0,0,0,0,0,0,0,0,0,0,0,0,0,0,0,0,0,0,0,0,0,0,0,0,0,0,0,0,0,0,0,0,0,0,0,0,0,16000,0,0,0,0,0,0,0,0,0,0,0,0,0,,COOPER TIRE & RUBBER CO,005037601
1990,30354FRDMT340HE,FORD MOTOR CO - ATLANTA ASSEMBLY PLANT,340 HENRY FORD II AVE,HAPEVILLE,FULTON,GA,30354,33.654167,-84.403336,3711,,,,,,336111,,,,,,1390045605540,N-BUTYL ALCOHOL,000071363,NO,NON-PBT,NO,0,NO,R,Pounds,1900,280000,0,0,0,0,0,0,0,0,0,0,281900,0,0,0,0,0,0,0,0,0,0,0,0,0,0,0,0,0,0,0,0,0,0,0,0,0,0,0,0,0,0,0,0,0,0,0,0,0,281900,0,0,0,0,0,0,0,0,0,0,0,0,0,,FORD MOTOR CO,001344746
1990,31201FRMRS370FO,FARMERS FAVORITE FERTILIZER,872 LOWER POPLAR RD.,MACON,BIBB,GA,31201,32.82477,-83.611282,2875,,,,,,325314,,,,,,1390045552039,AMMONIA,007664417,NO,NON-PBT,NO,0,NO,R,Pounds,0,750,0,0,0,0,0,0,0,0,0,0,750,0,0,0,0,0,0,0,0,0,0,0,0,0,0,0,0,0,0,0,0,0,0,0,0,0,0,0,0,0,0,0,0,0,0,0,0,0,750,0,0,0,0,0,0,0,0,0,0,0,0,0,,PCS JOINT VENTURE LTD,004088498
1990,31792VRNYP216OA,CENTEK INDUSTRIES INC,116 PLANTATION OAK DR,THOMASVILLE,THOMAS,GA,31792,30.861167,-84.003062,3069,,,,,,339000,,,,,,1390045666601,ACETONE,000067641,NO,NON-PBT,NO,0,NO,R,Pounds,35185,15079,0,0,0,0,0,0,0,0,0,0,50264,0,0,0,0,0,0,0,0,0,0,0,0,0,0,0,0,0,0,0,0,0,0,0,0,0,0,0,0,0,0,0,70,0,0,43200,0,43270,50264,0,0,0,0,0,0,0,0,0,0,0,0,0,,CENTEK INDUSTRIES INC,004271961
1990,30564FLDLFGAHWY,FIELDALE FARMS CORP MURRAYVILLE COMPLEX,5163 THOMPSON BRIDGE RD,MURRAYVILLE,HALL,GA,30564,34.411361,-83.900167,2015,,,,,,311615,,,,,,1390045275664,"SULFURIC ACID (1994 AND AFTER ""ACID AEROSOLS"" ONLY)",007664939,NO,NON-PBT,NO,0,NO,R,Pounds,0,0,0,0,0,0,0,0,0,0,0,0,0,0,0,0,0,0,0,0,0,0,0,0,0,0,0,0,0,0,0,0,0,0,0,0,0,0,0,0,0,0,0,0,0,0,0,0,0,0,0,0,0,0,0,0,0,0,0,0,0,0,0,0,,FIELDALE FARMS CORP,057265027
1990,30577FLDLFGA145,FIELDALE FARMS CORP TOCCOA WATER TREATMENT,270 FDC BY PRODUCTS RD,EASTANOLLEE,STEPHENS,GA,30538,34.458701,-83.492836,2077,,,,,,311615,,,,,,1390045275714,CHLORINE,007782505,YES,NON-PBT,NO,0,NO,R,Pounds,115,0,0,0,0,0,0,0,0,0,0,0,115,0,0,0,0,0,0,0,0,0,0,0,0,0,0,0,0,0,0,0,0,0,0,0,0,0,0,0,0,0,0,0,0,0,0,0,0,0,115,0,0,0,0,0,0,0,0,0,0,0,0,0,,FIELDALE FARMS CORP,057265027
1990,30318THGLD1065G,GLIDDEN CO.,1065 GLIDDEN ST. N.W.,ATLANTA,FULTON,GA,30318,33.798333,-84.4275,2851,,,,,,325510,,,,,,1390045412398,METHYL METHACRYLATE,000080626,YES,NON-PBT,NO,0,NO,R,Pounds,1400,620,0,0,0,0,0,0,0,0,0,0,2020,0,0,0,0,0,0,0,0,0,0,0,0,0,0,0,0,0,0,0,0,0,0,0,0,0,0,0,0,0,0,127,0,0,0,0,0,127,2020,0,0,0,0,0,0,0,0,0,0,0,0,0,,GLIDDEN CO,151334422
1990,30906BKRHY1812T,BAKER-HYDRO INC.,1864 TOBACCO RD.,AUGUSTA,RICHMOND,GA,30906,33.369569,-82.006564,3999,,,,,,339999,,,,,,1390045405507,N-DIOCTYL PHTHALATE,000117840,NO,NON-PBT,NO,0,NO,R,Pounds,0,164,0,0,0,0,0,0,0,0,0,0,164,0,0,0,0,0,0,0,0,0,0,0,0,0,0,0,0,0,0,0,0,0,0,0,0,0,0,0,0,0,0,0,0,0,0,0,0,0,164,0,0,0,0,0,0,0,0,0,0,0,0,0,,WEXCO INC,NA
1990,31907WRTHN7701C,WORTHINGTON CYLINDER CORP.,7701 CHATTSWORTH RD.,COLUMBUS,MUSCOGEE,GA,31907,32.527856,-84.853316,3443,,,,,,332313,,,,,,1390045477421,PHOSPHORIC ACID,007664382,NO,NON-PBT,NO,0,NO,R,Pounds,250,250,0,0,0,0,0,0,0,0,0,0,500,0,250,250,0,0,0,0,0,0,0,0,0,0,0,0,0,0,0,0,0,0,0,0,0,0,0,0,0,0,0,0,0,0,0,0,0,0,500,0,0,0,0,0,0,0,0,0,0,0,0,0,,WORTHINGTON INDS INC,004312401
1990,31620PRDCTNORTH,ALUMINUM FINISHING OF GEORGIA CORP,NORTH MILL ST,ADEL,COOK,GA,31620,31.04461,-83.38444,3471,,,,,,332813,,,,,,1390045481316,"SULFURIC ACID (1994 AND AFTER ""ACID AEROSOLS"" ONLY)",007664939,NO,NON-PBT,NO,0,NO,R,Pounds,0,2366,0,0,0,0,0,0,0,0,0,0,2366,0,0,0,0,0,0,0,0,0,0,0,0,0,0,0,0,0,0,0,0,0,0,0,0,0,0,0,0,0,0,0,0,0,0,0,0,0,2366,0,0,0,0,0,0,0,0,0,0,0,0,0,,NA,NA
1990,31030FBRGLHWY34,ARROWHEAD FIBERGLASS INC,45 SOTH PARK RD,FORT VALLEY,PEACH,GA,31030,32.533357,-83.87234,INVA,,,,,,326199,,,,,,1390045538257,ACETONE,000067641,NO,NON-PBT,NO,0,NO,R,Pounds,8280,0,0,0,0,0,0,0,0,0,0,0,8280,0,0,0,0,0,0,0,0,0,0,0,0,0,0,0,0,0,0,0,0,0,0,0,0,0,0,0,0,0,0,0,0,0,0,0,0,0,8280,0,0,0,0,0,0,0,0,0,0,0,0,0,,NA,NA
1990,30071TTNTW2000N,OFS FITEL LLC,2000 NE EXPRESSWAY,NORCROSS,GWINNETT,GA,30071,33.9312,-84.16937,3357,3351,3398,3669,,,335921,,,,,,1390045510132,XYLENE (MIXED ISOMERS),001330207,YES,NON-PBT,NO,0,NO,R,Pounds,13000,32000,0,0,0,0,0,0,0,0,0,0,45000,0,5,5,0,0,0,0,0,0,0,0,0,0,0,0,0,0,0,0,0,0,0,0,0,0,0,0,0,0,0,0,250,0,0,0,0,250,45000,0,0,0,0,0,0,0,0,0,0,0,0,0,,OFS FITEL LLC,NA
1990,31620TTTHM423NM,SPECIALITY STAMPINGS INC.,423 N. MILL ST.,ADEL,COOK,GA,31620,31.141905,-83.427228,3465,,,,,,336370,,,,,,1390045499252,NICKEL,007440020,YES,NON-PBT,YES,1,YES,R,Pounds,0,250,0,0,0,0,0,0,0,0,0,0,250,0,0,0,0,0,0,0,0,0,250,0,0,0,0,0,0,0,0,0,0,250,0,0,0,0,0,0,0,0,0,0,0,0,0,0,0,0,500,0,0,0,0,0,0,0,0,0,0,0,0,0,,NA,NA
1990,30360GNRLM3900M,GM MLCG- DORAVILLE ASSEMBLY FACILITY,3900 MOTORS INDUSTRIAL WAY,DORAVILLE,DEKALB,GA,30360,33.90592,-84.27987,3711,,,,,,336112,,,,,,1390045617356,ETHYLENE GLYCOL,000107211,YES,NON-PBT,NO,0,NO,R,Pounds,0,0,0,0,0,0,0,0,0,0,0,0,0,0,5856,5856,0,0,0,0,0,0,0,0,0,0,0,0,0,0,0,0,0,0,0,0,0,0,0,0,0,0,0,0,0,0,0,0,0,0,0,0,0,0,0,0,0,0,0,0,0,0,0,0,,GENERAL MOTORS CORP,005356613
1990,30062MTLCT1150M,METAL COATERS,1150 MARIETTA INDUSTRIAL DR  NE,MARIETTA,COBB,GA,300622446,33.978031,-84.538179,3479,,,,,,332812,,,,,,1390045334974,"SULFURIC ACID (1994 AND AFTER ""ACID AEROSOLS"" ONLY)",007664939,NO,NON-PBT,NO,0,NO,R,Pounds,0,0,0,0,0,0,0,0,0,0,0,0,0,0,0,0,0,0,0,0,0,0,0,0,0,0,0,0,0,0,0,0,0,0,0,0,0,0,0,0,0,0,0,0,0,0,0,0,0,0,0,0,0,0,0,0,0,0,0,0,0,0,0,0,,NCI GROUP INC,130234529
1990,30720CSTMC204WE,UNIVERSAL TEXTILE TECHNOLOGIES,204 W INDUSTRIAL BLVD,DALTON,WHITFIELD,GA,30720,34.736203,-84.970391,2272,,,,,,314110,,,,,,1390045299789,"TOLUENE-2,6-DIISOCYANATE",000091087,NO,NON-PBT,NO,0,YES,R,Pounds,1,3,0,0,0,0,0,0,0,0,0,0,4,0,0,0,0,0,0,0,0,0,0,0,0,0,0,0,0,0,0,0,0,0,0,0,0,0,0,0,0,0,0,0,0,0,0,0,0,0,4,0,0,0,0,0,0,0,0,0,0,0,0,0,,NA,NA
1990,30143PCKRYOLDHI,ROYSTON LLC,ONE PICKROY RD,JASPER,PICKENS,GA,301435045,34.43366,-84.39567,3444,,,,,,337215,,,,,,1390045466048,XYLENE (MIXED ISOMERS),001330207,YES,NON-PBT,NO,0,NO,R,Pounds,0,58796,0,0,0,0,0,0,0,0,0,0,58796,0,0,0,0,0,0,0,0,0,0,0,0,0,0,0,0,0,0,0,0,0,0,0,0,0,0,0,0,0,0,0,0,0,0,0,0,0,58796,0,0,0,0,0,0,0,0,0,0,0,0,0,,CINNIBAR SOLUTIONS,094425386
1990,30336CNTNN650SE,CROWN BEVERAGE PACKAGING,650 SELIG DR.,ATLANTA,FULTON,GA,30336,33.743475,-84.549988,3411,,,,,,332431,,,,,,1390045544638,METHYL ETHYL KETONE,000078933,NO,NON-PBT,NO,0,NO,R,Pounds,11000,0,0,0,0,0,0,0,0,0,0,0,11000,0,0,0,0,0,0,0,0,0,0,0,0,0,0,0,0,0,0,0,0,0,0,0,0,0,0,0,0,0,0,0,4100,0,0,0,0,4100,11000,0,0,0,0,0,0,0,0,0,0,0,0,0,,CROWN CORK & SEAL CO INC,002282341
1990,30253CLB  261HW,ECOLAB INC,261 HWY 155 S,MC DONOUGH,HENRY,GA,30253,33.423789,-84.150254,2842,,,,,,325611,,,,,,1390045597174,NITRIC ACID,007697372,NO,NON-PBT,NO,0,NO,R,Pounds,0,0,0,0,0,0,0,0,0,0,0,0,0,0,0,0,0,0,0,0,0,0,0,0,0,0,0,0,0,0,0,0,0,0,0,0,0,0,0,0,0,0,0,0,0,0,0,0,0,0,0,0,0,0,0,0,0,0,0,0,0,0,0,0,,ECOLAB INC,006154611
1990,30354FRDMT340HE,FORD MOTOR CO - ATLANTA ASSEMBLY PLANT,340 HENRY FORD II AVE,HAPEVILLE,FULTON,GA,30354,33.654167,-84.403336,3711,,,,,,336111,,,,,,1390045605577,TOLUENE,000108883,YES,NON-PBT,NO,0,NO,R,Pounds,2700,12000,0,0,0,0,0,0,0,0,0,0,14700,0,0,0,0,0,0,0,0,0,0,0,0,0,0,0,0,0,0,0,0,0,0,0,0,0,0,0,0,0,0,0,0,0,0,0,0,0,14700,0,0,0,0,0,0,0,0,0,0,0,0,0,,FORD MOTOR CO,001344746
1990,30120GDYRC8GOOD,GOODYEAR CARTERSVILLE MILL,8 GOODYEAR AVE,CARTERSVILLE,BARTOW,GA,30120,34.180421,-84.820788,2296,,,,,,314992,,,,,,1390045574237,FORMALDEHYDE,000050000,YES,NON-PBT,NO,0,YES,R,Pounds,13,0,0,0,0,0,0,0,0,0,0,0,13,0,0,0,0,0,0,0,0,0,0,0,0,0,0,0,0,0,0,0,0,0,0,0,0,0,0,0,0,0,0,0,0,0,0,0,0,0,13,0,0,0,0,0,0,0,0,0,0,0,0,0,,GOODYEAR TIRE & RUBBER CO,004467924
1990,30201TCHNC3085T,TECHNICAL COATINGS CORP,3085 TROTTER PKWY,ALPHARETTA,FORSYTH,GA,30004,34.1125,-84.224444,2851,,,,,,325510,,,,,,1390045586346,METHYL ETHYL KETONE,000078933,NO,NON-PBT,NO,0,NO,R,Pounds,0,0,0,0,0,0,0,0,0,0,0,0,0,0,0,0,0,0,0,0,0,0,0,0,0,0,0,0,0,0,0,0,0,0,0,0,0,0,0,0,0,0,0,0,0,0,0,0,0,0,0,0,0,0,0,0,0,0,0,0,0,0,0,0,,NA,NA
1990,31040FRSTMPOBOX,VICTOR FORSTMANN INC,161 NATHANIEL DR,DUBLIN,LAURENS,GA,31027,32.539278,-82.889417,2231,2311,2337,,,,313210,,,,,,1390045626355,CHROMIUM COMPOUNDS(EXCEPT CHROMITE ORE MINED IN THE TRANSVAAL REGION),N090,YES,NON-PBT,YES,1,NO,R,Pounds,0,0,585,0,0,0,0,0,0,0,0,0,585,0,0,0,0,0,0,0,0,0,0,0,0,0,0,0,0,0,0,0,0,0,0,0,0,0,0,0,0,0,0,0,0,0,0,0,0,0,585,0,0,0,0,0,0,0,0,0,0,0,0,0,,VICTOR WOOLLEN PRODUCTS OF AMERICA INC,NA
1990,30341PRCSN5275P,WATTYL PAINT CORP.,5275 PEACHTREE INDL. BLVD.,ATLANTA,FULTON,GA,30341,33.892832,-84.307968,2851,,,,,,325510,,,,,,1390045399870,"1,2,4-TRIMETHYLBENZENE",000095636,NO,NON-PBT,NO,0,NO,R,Pounds,780,3,0,0,0,0,0,0,0,0,0,0,783,0,0,0,0,0,0,0,0,0,0,0,0,0,0,0,0,0,0,0,0,0,0,0,0,0,0,0,0,0,0,0,0,0,0,0,0,0,783,0,0,0,0,0,0,0,0,0,0,0,0,0,,WATTYL US LTD,186218822
1990,31904WCBRD1442B,W. C. BRADLEY CO. CHAR-BROIL DIV.,1442 BELFAST AVE.,COLUMBUS,MUSCOGEE,GA,31904,32.528037,-84.972576,3631,,,,,,335221,,,,,,1390045380577,CADMIUM,007440439,YES,NON-PBT,YES,1,YES,R,Pounds,0,5,0,0,0,0,0,0,0,0,0,0,5,0,0,0,0,0,0,0,0,0,0,0,0,0,0,0,0,0,0,0,0,0,0,0,0,0,0,0,0,0,0,0,0,0,0,0,0,0,5,0,0,0,0,0,0,0,0,0,0,0,0,0,,W C BRADLEY CO,094074523
1990,31550MNNTMROUTE,MANOR TIMBER CO INC.,102 BLACK ANKLE RD,MANOR,CLINCH,GA,31550,31.05202,-82.60034,2491,,,,,,321114,,,,,,1390045476153,CHROMIUM COMPOUNDS(EXCEPT CHROMITE ORE MINED IN THE TRANSVAAL REGION),N090,YES,NON-PBT,YES,1,NO,R,Pounds,5,5,0,0,0,0,0,0,0,0,0,0,10,0,0,0,0,0,0,0,0,0,0,0,0,0,0,0,0,0,0,0,0,0,0,0,0,0,0,0,0,0,0,0,0,0,0,0,0,0,10,0,0,0,0,0,0,0,0,0,0,0,0,0,,NA,NA
1990,30344STHRN1359C,SOUTHERN ZINC,1359 CENTRAL AVE.,EAST POINT,FULTON,GA,30344,33.668428,-84.433106,3341,,,,,,331000,,,,,,1390045473422,ZINC COMPOUNDS,N982,NO,NON-PBT,YES,1,NO,R,Pounds,250,3700,0,0,0,0,0,0,0,0,0,0,3950,0,0,0,0,0,0,0,0,0,0,0,0,0,0,0,0,0,0,0,0,0,0,0,0,0,0,0,0,0,0,0,0,0,0,0,0,0,3950,0,0,0,0,0,0,0,0,0,0,0,0,0,,US ZINC CORP,602742850
1990,30318SNCLR1339E,FLINT INK NORTH AMERICA CORP,1339 ELLSWORTH INDUSTRIAL DR,ATLANTA,FULTON,GA,30318,33.79144,-84.42694,2893,,,,,,325910,,,,,,1390045350749,BARIUM COMPOUNDS,N040,NO,NON-PBT,YES,3,NO,R,Pounds,0,1,0,0,0,0,0,0,0,0,0,0,1,0,0,0,0,0,0,250,0,0,250,0,0,0,0,0,0,0,0,0,0,500,0,0,0,0,0,0,0,0,0,0,0,0,0,0,0,0,501,0,0,0,0,0,0,0,0,0,0,0,0,0,,FLINT INK NORTH AMERICA CORP,005355854
1990,30246WNFGR251HO,CMC REBAR GEORGIA,251  HOSEA RD,LAWRENCEVILLE,GWINNETT,GA,30045,33.97066,-83.97197,3441,,,,,,332312,,,,,,1390045412715,METHYL ETHYL KETONE,000078933,NO,NON-PBT,NO,0,NO,R,Pounds,7240,0,0,0,0,0,0,0,0,0,0,0,7240,0,0,0,0,0,0,0,0,0,0,0,0,0,0,0,0,0,0,0,0,0,0,0,0,0,0,0,0,0,0,0,0,0,0,0,0,0,7240,0,0,0,0,0,0,0,0,0,0,0,0,0,,COMMERCIAL METALS CO,007925845
1990,31322SHRHSHIGHW,SHEAROUSE LUMBER CO,833 W HWY 80,POOLER,CHATHAM,GA,31322,32.123951,-81.271011,2491,,,,,,321114,,,,,,1390045438633,CHROMIUM COMPOUNDS(EXCEPT CHROMITE ORE MINED IN THE TRANSVAAL REGION),N090,YES,NON-PBT,YES,1,NO,R,Pounds,5,5,0,0,0,0,5,5,0,0,0,0,20,0,0,0,0,0,0,0,0,0,250,0,0,0,0,0,0,0,0,0,0,250,0,0,0,0,0,0,0,0,0,0,0,0,0,0,0,0,270,0,0,0,0,0,0,0,0,0,0,0,0,0,,NA,NA
1990,30063LCKHD86SOU,US AIR FORCE PLANT 6 - LOCKHEED MARTIN AERONAUTICS CO,86 S COBB DR,MARIETTA,COBB,GA,30063,33.936262,-84.5339,3721,,,,,,336411,,,,,,1390045446844,CHROMIUM COMPOUNDS(EXCEPT CHROMITE ORE MINED IN THE TRANSVAAL REGION),N090,YES,NON-PBT,YES,1,NO,R,Pounds,0,0,24,0,0,0,0,0,0,0,0,0,24,0,0,0,0,0,0,0,0,0,72263,0,0,0,0,0,0,0,0,0,0,72263,0,0,0,0,0,0,0,0,0,0,0,0,0,0,0,0,72287,0,0,0,0,0,0,0,0,0,0,0,0,0,,LOCKHEED MARTIN CORP,834951691
1990,31620PRDCT220WE,ALUMINUM FINISHING OF GEORGIA CORP,220 W SECOND ST,ADEL,COOK,GA,31620,31.138914,-83.426527,3471,,,,,,332813,,,,,,1390045481379,PHOSPHORIC ACID,007664382,NO,NON-PBT,NO,0,NO,R,Pounds,0,750,0,0,0,0,0,0,0,0,0,0,750,0,0,0,0,0,0,0,0,0,0,0,0,0,0,0,0,0,0,0,0,0,0,0,0,0,0,0,0,0,0,0,0,0,0,0,0,0,750,0,0,0,0,0,0,0,0,0,0,0,0,0,,NA,NA
1990,30240DRCLL1567F,GILLETTE CO DURACELL A DIV,1567 LUKKEN INDUSTRIAL DR W,LAGRANGE,TROUP,GA,302405799,33.012897,-85.054583,3692,,,,,,335912,,,,,,1390045481431,ZINC COMPOUNDS,N982,NO,NON-PBT,YES,1,NO,R,Pounds,5,5,0,0,0,0,0,0,0,0,0,0,10,2,0,2,0,0,0,0,0,0,32619,0,0,0,0,0,0,0,0,0,0,32619,0,0,0,0,0,0,0,0,0,0,0,0,0,0,0,0,32631,0,0,0,0,0,0,0,0,0,0,0,0,0,,THE PROCTER & GAMBLE CO,001025931
1990,30117CBSRC5152C,SONY MUSIC ENTERTAINMENT INC.,5152 COLUMBIA DR.,CARROLLTON,CARROLL,GA,30117,33.606601,-85.104305,3652,,,,,,334612,,,,,,1390045535883,TOLUENE,000108883,YES,NON-PBT,NO,0,NO,R,Pounds,36000,8200,0,0,0,0,0,0,0,0,0,0,44200,0,3,3,0,0,0,0,0,0,0,0,0,0,0,0,0,0,0,0,0,0,0,0,0,0,0,0,0,0,0,0,0,0,0,0,0,0,44200,0,0,0,0,0,0,0,0,0,0,0,0,0,,SONY MUSIC ENTERTAINMENT INC,172957508
1990,31732GRTSTHIGHW,GEORGIA PACIFIC CEDAR SPRINGS LLC,HWY 273 W,CEDAR SPRINGS,EARLY,GA,39832,31.163889,-85.096111,2631,,,,,,322130,,,,,,1390045562016,"SULFURIC ACID (1994 AND AFTER ""ACID AEROSOLS"" ONLY)",007664939,NO,NON-PBT,NO,0,NO,R,Pounds,0,38000,0,0,0,0,0,0,0,0,0,0,38000,0,0,0,0,0,0,0,0,0,0,0,0,0,0,0,0,0,0,0,0,0,0,0,0,0,0,0,0,0,0,0,0,0,0,0,0,0,38000,0,0,0,0,0,0,0,0,0,0,0,0,0,,KOCH INDUSTRIES INC,006944334
1990,31040FRSTMPOBOX,VICTOR FORSTMANN INC,161 NATHANIEL DR,DUBLIN,LAURENS,GA,31027,32.539278,-82.889417,2231,2311,2337,,,,313210,,,,,,1390045626381,"1,2,4-TRICHLOROBENZENE",000120821,YES,NON-PBT,NO,0,NO,R,Pounds,3814,2957,1242,0,0,0,0,0,0,0,0,710,8723,0,0,0,0,0,0,0,0,0,0,0,0,0,0,0,0,0,0,0,0,0,0,0,0,0,0,0,0,0,0,0,0,0,0,0,0,0,8723,0,0,0,0,0,0,0,0,0,0,0,0,0,,VICTOR WOOLLEN PRODUCTS OF AMERICA INC,NA
1990,30318PRTNC916AS,PURITAN/CHURCHILL CHEMICAL CO.,916 ASHBY ST.,ATLANTA,FULTON,GA,30318,33.779776,-84.417329,2842,,,,,,325612,,,,,,1390045315076,AMMONIA,007664417,NO,NON-PBT,NO,0,NO,R,Pounds,0,0,0,0,0,0,0,0,0,0,0,0,0,0,0,0,0,0,0,0,0,0,0,0,0,0,0,0,0,0,0,0,0,0,0,0,0,0,0,0,0,0,0,0,0,0,0,0,0,0,0,0,0,0,0,0,0,0,0,0,0,0,0,0,,ECOLAB INC,006154611
1990,31206BSSTT7501A,BASSETT FURNITURE INDUSTRIES OF NC INC,7501 AIRPORT DR,MACON,BIBB,GA,31216,32.707544,-83.649794,2511,,,,,,337122,,,,,,1390045327335,ACETONE,000067641,NO,NON-PBT,NO,0,NO,R,Pounds,1687,9559,0,0,0,0,0,0,0,0,0,0,11246,0,0,0,0,0,0,0,0,0,0,0,0,0,0,0,0,0,0,0,0,0,0,0,0,0,0,0,0,0,0,0,0,0,0,0,0,0,11246,0,0,0,0,0,0,0,0,0,0,0,0,0,,BASSETT FURNITURE INDUSTRIES OF NC INC,003124617
1990,30185TLNTX114MC,BLASTRITE SERVICES INC.,114 MCLARTY RD.,WHITESBURG,CARROLL,GA,30185,33.564671,-84.876489,2892,,,,,,325920,,,,,,1390045372671,AMMONIUM NITRATE (SOLUTION),006484522,NO,NON-PBT,NO,0,NO,R,Pounds,0,0,0,0,0,0,0,0,0,0,0,0,0,0,0,0,0,0,0,0,0,0,0,0,0,0,0,0,0,0,0,0,0,0,0,0,0,0,0,0,0,0,0,0,0,0,0,0,0,0,0,0,0,0,0,0,0,0,0,0,0,0,0,0,,EXPLOSIVES TECHNOLOGIES INTERNATIONAL INC(ETI),182051557
1990,30161STLKN30FLO,STEEL KING INDUSTRIES INC,30 FLOYD INDL BLVD SE,ROME,FLOYD,GA,301619572,34.17542,-85.19673,3499,,,,,,332312,,,,,,1390045470580,"1,1,1-TRICHLOROETHANE",000071556,YES,NON-PBT,NO,0,NO,R,Pounds,37300,0,0,0,0,0,0,0,0,0,0,0,37300,0,0,0,0,0,0,0,0,0,0,0,0,0,0,0,0,0,0,0,0,0,0,0,0,0,0,0,0,0,0,0,0,0,0,0,0,0,37300,0,0,0,0,0,0,0,0,0,0,0,0,0,,STEEL KING INDUSTRIES INC,051891356
1990,31513KZCHMUSHWY,HEXION SPECIALTY CHEMICALS,1202 E PARKER ST,BAXLEY,APPLING,GA,31513,31.77354,-82.333816,2821,2861,2899,,,,325211,,,,,,1390045337019,MALEIC ANHYDRIDE,000108316,YES,NON-PBT,NO,0,NO,R,Pounds,5,49,0,0,0,0,0,0,0,0,0,0,54,0,5,5,0,0,0,0,0,0,0,0,0,0,0,0,0,0,0,0,0,0,0,0,0,0,0,0,0,0,0,0,0,0,0,0,0,0,54,0,0,0,0,0,0,0,0,0,0,0,0,0,,HEXION SPECIALTY CHEMICALS INC,001338797
1990,30336SLGCH840SE,SELIG CHEMICAL IND. INC.,845 SELIG DR.,ATLANTA,FULTON,GA,30336,33.746157,-84.554147,2842,5161,,,,,325612,,,,,,1390045286251,"SULFURIC ACID (1994 AND AFTER ""ACID AEROSOLS"" ONLY)",007664939,NO,NON-PBT,NO,0,NO,R,Pounds,250,0,0,0,0,0,0,0,0,0,0,0,250,0,0,0,0,0,0,0,0,0,0,0,0,0,0,0,0,0,0,0,0,0,0,0,0,0,0,0,0,0,0,0,0,0,0,0,0,0,250,0,0,0,0,0,0,0,0,0,0,0,0,0,,NATIONAL SERVICE INDS INC,003267192
1990,30209HBFLL12110,HB FULLER,12110 HARLAND DR NE,COVINGTON,NEWTON,GA,30014,33.617778,-83.831389,2821,,,,,,325520,,,,,,1390045328933,ACRYLIC ACID,000079107,YES,NON-PBT,NO,0,NO,R,Pounds,0,6,0,0,0,0,0,0,0,0,0,0,6,0,95,95,0,0,0,0,0,0,1,0,0,0,0,0,0,0,0,0,0,1,0,0,0,0,0,0,0,0,0,420,0,0,0,0,0,420,7,0,0,0,0,0,0,0,0,0,0,0,0,0,,HB FULLER CO,006159776
1990,30209HBFLL12110,HB FULLER,12110 HARLAND DR NE,COVINGTON,NEWTON,GA,30014,33.617778,-83.831389,2821,,,,,,325211,,,,,,1390045328972,FORMALDEHYDE,000050000,YES,NON-PBT,NO,0,YES,R,Pounds,6,410,0,0,0,0,0,0,0,0,0,0,416,0,14,14,0,0,0,0,0,0,0,0,0,0,0,0,0,0,0,0,0,0,0,0,0,0,0,0,0,0,0,110,0,0,0,0,0,110,416,0,0,0,0,0,0,0,0,0,0,0,0,0,,HB FULLER CO,006159776
1990,30061FLXBL1007I,FLEXIBLE PRODUCTS CO.,1007 INDUSTRIAL PARK DR.,MARIETTA,COBB,GA,30061,33.97627,-84.54088,2821,,,,,,325211,,,,,,1390045342452,DI(2-ETHYLHEXYL) PHTHALATE,000117817,YES,NON-PBT,NO,0,YES,R,Pounds,250,5,0,0,0,0,0,0,0,0,0,0,255,0,250,250,0,0,0,0,0,0,0,0,0,0,0,0,0,0,0,0,0,0,0,0,0,0,0,0,0,0,0,0,0,0,0,0,0,0,255,0,0,0,0,0,0,0,0,0,0,0,0,0,,DOW CHEMICAL CO,001381581
1990,30643MNRTQ200MC,MONROE AUTO EQUIPMENT CO,200 MCINTYRE DR,HARTWELL,HART,GA,30643,34.35129,-82.94507,3714,,,,,,336330,,,,,,1390045380969,N-BUTYL ALCOHOL,000071363,NO,NON-PBT,NO,0,NO,R,Pounds,1655,13243,0,0,0,0,0,0,0,0,0,0,14898,0,0,0,0,0,0,0,0,0,1720,0,0,0,0,0,0,0,0,0,0,1720,0,0,0,0,0,0,0,0,0,0,0,0,0,0,0,0,16618,0,0,0,0,0,0,0,0,0,0,0,0,0,,TENNECO INC,001939164
1990,30318TLNTC1365M,ATLANTIC STEEL INDUSTRIES INC.,1365 MECASLIN ST. N.W,ATLANTA,FULTON,GA,30318,33.789743,-84.400428,3313,3315,,,,,331112,,,,,,1390045428861,"SULFURIC ACID (1994 AND AFTER ""ACID AEROSOLS"" ONLY)",007664939,NO,NON-PBT,NO,0,NO,R,Pounds,259,0,0,0,0,0,0,0,0,0,0,0,259,0,0,0,0,0,0,0,0,0,0,0,0,0,0,0,0,0,0,0,0,0,0,0,0,0,0,0,0,0,0,0,0,0,0,0,0,0,259,0,0,0,0,0,0,0,0,0,0,0,0,0,,IVACO INC,205650617
1990,30117CSRVC211AV,DOUGLAS & LOMASON CO. E & C SERVICES,211 AVE. C,CARROLLTON,CARROLL,GA,30117,33.581637,-85.094348,2819,,,,,,325188,,,,,,1390045441449,PHOSPHORIC ACID,007664382,NO,NON-PBT,NO,0,NO,R,Pounds,0,0,0,0,0,0,0,0,0,0,0,0,0,0,0,0,0,0,0,0,0,0,0,0,0,0,0,0,0,0,0,0,0,0,0,0,0,0,0,0,0,0,0,0,0,0,0,0,0,0,0,0,0,0,0,0,0,0,0,0,0,0,0,0,,DOUGLAS & LOMASON CO,005358122
1990,30531THCNN70CLA,ETHICON INC,655 ETHICON CIR,CORNELIA,HABERSHAM,GA,30531,34.529629,-83.532608,3841,,,,,,339112,,,,,,1390045473865,XYLENE (MIXED ISOMERS),001330207,YES,NON-PBT,NO,0,NO,R,Pounds,250,27600,0,0,0,0,0,0,0,0,0,0,27850,0,2829,2829,0,0,0,0,0,0,0,0,0,0,0,0,0,0,0,0,0,0,0,0,0,0,0,0,0,0,0,0,0,0,0,0,0,0,27850,0,0,0,0,0,0,0,0,0,0,0,0,0,,JOHNSON & JOHNSON,001307081
1990,30501PDMNT2030O,PIEDMONT LABORATORIES,2030 OLD CANDLER RD,GAINESVILLE,HALL,GA,30507,34.267541,-83.81589,2879,2899,,,,,325320,,,,,,1390045502453,"ISOPROPYL ALCOHOL (MANUFACTURING,STRONG-ACID PROCESS ONLY,NO SUPPLIER)",000067630,NO,NON-PBT,NO,0,NO,R,Pounds,145,0,0,0,0,0,0,0,0,0,0,0,145,0,0,0,0,0,0,0,0,0,0,0,0,0,0,0,0,0,0,0,0,0,50630,0,0,0,0,50630,0,0,0,0,0,0,0,0,0,0,145,0,0,0,0,0,0,0,0,0,0,0,0,0,,OUTSOURCING SERVICE GROUP,NA
1990,31401HRCLSOLDLO,HERCULES INC,3000 LOUISVILLE RD,SAVANNAH,CHATHAM,GA,31415,32.088889,-81.149722,2821,2869,2899,,,,325211,,,,,,1390045571546,DICHLOROMETHANE,000075092,YES,NON-PBT,NO,0,YES,R,Pounds,5911,45919,546,0,0,0,0,0,0,0,0,0,52376,0,0,0,0,0,0,0,0,0,250,0,0,0,0,0,0,0,0,0,0,250,0,0,0,0,0,0,0,0,0,0,0,0,0,0,0,0,52626,0,0,0,0,0,0,0,0,0,0,0,0,0,,ASHLAND INC,001315647
1990,30340BYLMD4111P,RECKITT & COLMAN INC.,4111 PLEASANTDALE RD.,ATLANTA,DEKALB,GA,30340,33.902867,-84.244821,2879,2842,,,,,325320,,,,,,1390045608282,"1,1,1-TRICHLOROETHANE",000071556,YES,NON-PBT,NO,0,NO,R,Pounds,1300,12000,0,0,0,0,0,0,0,0,0,0,13300,0,250,250,0,0,0,0,0,0,0,0,0,0,0,0,0,0,0,0,0,0,0,0,0,0,0,0,0,0,0,0,58000,0,0,0,0,58000,13300,0,0,0,0,0,0,0,0,0,0,0,0,0,,RECKITT & COLMAN INC,094405024
1990,31707DDWDP2501C,D & D WOOD PRESERVING INC,2501 COMMERCE LN,ALBANY,DOUGHERTY,GA,31707,31.566217,-84.216355,2491,,,,,,321114,,,,,,1390045558158,COPPER COMPOUNDS,N100,NO,NON-PBT,YES,1,NO,R,Pounds,5,5,0,0,0,0,0,0,0,0,0,0,10,0,0,0,0,0,0,0,0,0,250,0,0,0,0,0,0,0,0,0,0,250,0,0,0,0,0,0,0,0,0,0,0,0,0,0,0,0,260,0,0,0,0,0,0,0,0,0,0,0,0,0,,NA,NA
1990,30240LGRNG1513R,LAGRANGE MOLDED PRODUCTS INC.,1513 REDDING DR.,LA GRANGE,TROUP,GA,30240,33.005408,-85.054763,3089,,,,,,336399,,,,,,1390045294562,ANTIMONY,007440360,YES,NON-PBT,YES,1,NO,R,Pounds,0,0,0,0,0,0,0,0,0,0,0,0,0,0,0,0,0,0,0,0,0,0,8994,0,0,0,0,0,0,0,0,0,0,8994,0,0,0,0,0,0,0,0,0,0,0,0,0,0,0,0,8994,0,0,0,0,0,0,0,0,0,0,0,0,0,,LANCASTER COLONY CORP,001928035
1990,31407CLMBNGAHWY,PCS NITROGEN FERTILIZER L.P. SAVANNAH PLANT,5540 HWY. 21,PORT WENTWORTH,CHATHAM,GA,31407,32.160081,-81.182987,2873,,,,,,325311,,,,,,1390045311228,NITRIC ACID,007697372,NO,NON-PBT,NO,0,NO,R,Pounds,0,6900,0,0,0,0,0,0,0,0,0,0,6900,0,0,0,0,0,0,0,0,0,0,0,0,0,0,0,0,0,0,0,0,0,0,0,0,0,0,0,0,0,0,0,0,0,0,0,0,0,6900,0,0,0,0,0,0,0,0,0,0,0,0,0,,PCS NITROGEN FERTILIZER LP,858404015
1990,30720SHWNDSHAMI,SHAW IND. INC. PLANT 2,S. HAMILTON ST. EXTENSION,DALTON,WHITFIELD,GA,30720,34.729116,-84.967586,2273,,,,,,314110,,,,,,1390045347844,PHOSPHORIC ACID,007664382,NO,NON-PBT,NO,0,NO,R,Pounds,0,250,0,0,0,0,0,0,0,0,0,0,250,0,0,0,0,0,0,0,0,0,0,0,0,0,0,0,0,0,0,0,0,0,0,0,0,0,0,0,0,0,0,0,0,0,0,0,0,0,250,0,0,0,0,0,0,0,0,0,0,0,0,0,,NA,NA
1990,30913ZGTXT1451M,E-Z-GO A TEXTRON CO,1451 MARVIN GRIFFIN RD,AUGUSTA,RICHMOND,GA,30906,33.39567,-81.98726,3799,,,,,,336999,,,,,,1390045454117,TOLUENE,000108883,YES,NON-PBT,NO,0,NO,R,Pounds,0,13000,0,0,0,0,0,0,0,0,0,0,13000,0,0,0,0,0,0,0,0,0,0,0,0,0,0,0,0,0,0,0,0,0,0,0,0,0,0,0,0,0,0,0,0,0,0,0,0,0,13000,0,0,0,0,0,0,0,0,0,0,0,0,0,,TEXTRON INC,001338979
1990,31904CLLWY1136C,PEACH STATE LABS INC COLUMBUS,1136 CHUMAR ST,COLUMBUS,MUSCOGEE,GA,31904,32.519129,-84.973933,2843,2899,,,,,325199,,,,,,1390045490772,METHYL ACRYLATE,000096333,NO,NON-PBT,NO,0,NO,R,Pounds,20,40,0,0,0,0,0,0,0,0,0,0,60,0,25,25,0,0,0,0,0,0,0,0,0,0,0,0,0,0,0,0,0,0,0,0,0,0,0,0,0,0,0,0,0,0,0,0,0,0,60,0,0,0,0,0,0,0,0,0,0,0,0,0,,PEACH STATE LABORATORIES INC,184722056
1990,30269GRGPC411DI,GEORGIA-PACIFIC RESINS INC.,411 DIVIDEND DR.,PEACHTREE CITY,FAYETTE,GA,30269,33.37464,-84.57798,2821,,,,,,325211,,,,,,1390045499338,METHANOL,000067561,YES,NON-PBT,NO,0,NO,R,Pounds,261,509,0,0,0,0,0,0,0,0,0,0,770,0,0,0,0,0,0,0,0,0,0,0,0,0,0,0,0,0,0,0,0,0,0,0,0,0,0,0,0,0,0,0,0,0,0,0,0,0,770,0,0,0,0,0,0,0,0,0,0,0,0,0,,GEORGIA-PACIFIC CORP,009020777
1990,30120CHMCLTENNE,CHEMICAL PRODUCTS CORP,102 OLD MILL RD,CARTERSVILLE,BARTOW,GA,301201692,34.146333,-84.782722,2819,,,,,,325188,,,,,,1390045588098,AMMONIA,007664417,NO,NON-PBT,NO,0,NO,R,Pounds,750,250,750,0,0,0,0,0,0,0,0,0,1750,0,0,0,0,0,0,0,0,0,0,0,0,0,0,0,0,0,0,0,0,0,0,0,0,0,0,0,0,0,0,0,0,0,0,0,0,0,1750,0,0,0,0,0,0,0,0,0,0,0,0,0,,NA,NA
1990,31046THBBBRT1BO,BIBB CO. CAMELLIA PLANT,105 PLANT CAMELLIA RD.,JULIETTE,MONROE,GA,31046,33.080981,-83.785986,2261,2262,,,,,313311,,,,,,1390045593478,"1,2,4-TRIMETHYLBENZENE",000095636,NO,NON-PBT,NO,0,NO,R,Pounds,12,789,0,0,0,0,0,0,0,0,0,0,801,0,0,0,0,0,0,0,0,0,0,0,0,0,0,0,0,0,0,0,0,0,0,0,0,0,0,0,0,0,0,0,0,0,0,0,0,0,801,0,0,0,0,0,0,0,0,0,0,0,0,0,,BIBB CO INC,003270212
1990,31211GRGWR900JO,SOUTHWIRE CO. GEORGIA WIRE PRODS. DIV.,900 JOE TAMPLIN INDL. BLVD.,MACON,BIBB,GA,31217,32.80789,-83.547245,3355,,,,,,331319,,,,,,1390045593617,LEAD COMPOUNDS,N420,YES,PBT,YES,1,NO,R,Pounds,0,0,0,0,0,0,0,0,0,0,0,0,0,19,0,19,0,0,0,0,0,0,250,0,0,0,0,0,0,0,0,0,0,250,0,0,0,0,0,0,0,0,0,0,0,0,0,0,0,0,269,0,0,0,0,0,0,0,0,0,0,0,0,0,,SOUTHWIRE CO,003264421
1990,30680LKRLCINDUS,RHODIA INC,577 BANKHEAD HWY,WINDER,BARROW,GA,30680,33.993333,-83.765,2800,2843,INVA,,,,325188,,,,,,1390045293141,ETHYLENE OXIDE,000075218,YES,NON-PBT,NO,0,YES,R,Pounds,250,250,0,0,0,0,0,0,0,0,0,0,500,0,0,0,0,0,0,0,0,0,0,0,0,0,0,0,0,0,0,0,0,0,0,0,0,0,0,0,0,0,0,0,0,0,0,0,0,0,500,0,0,0,0,0,0,0,0,0,0,0,0,0,,RHODIA INC,002959810
1990,30601CRRRT700OL,CARRIER TRANSICOLD,700 OLYMPIC DR,ATHENS,CLARKE,GA,30601,33.96635,-83.3446,3585,,,,,,333415,,,,,,1390045319454,FREON 113,000076131,NO,NON-PBT,NO,0,NO,R,Pounds,0,0,0,0,0,0,0,0,0,0,0,0,0,0,0,0,0,0,0,0,0,0,0,0,0,0,0,0,0,0,0,0,0,0,0,0,0,0,0,0,0,0,0,0,0,0,0,0,0,0,0,0,0,0,0,0,0,0,0,0,0,0,0,0,,UNITED TECHNOLOGIES CORP,001344142
1990,31297YKKSN4234O,YKK (USA) INC NATIONAL MANUF ACTURING CENTER,4234 OCMULGEE E BLVD,MACON,BIBB,GA,31217,32.812125,-83.568895,3964,,,,,,339993,,,,,,1390045316888,"SULFURIC ACID (1994 AND AFTER ""ACID AEROSOLS"" ONLY)",007664939,NO,NON-PBT,NO,0,NO,R,Pounds,0,83,0,0,0,0,0,0,0,0,0,0,83,0,0,0,0,0,0,0,0,0,0,0,0,0,0,0,0,0,0,0,0,0,0,0,0,0,0,0,0,0,0,0,0,0,0,0,0,0,83,0,0,0,0,0,0,0,0,0,0,0,0,0,,YKK CORP OF AMERICA INC,188955835
1990,31031NGLHRHWY18,ENGELHARD CORP. GORDON PLANT,HWY. 18 SPUR,GORDON,WILKINSON,GA,31031,32.883333,-83.333333,1455,,,,,,212324,,,,,,1390045378092,"SULFURIC ACID (1994 AND AFTER ""ACID AEROSOLS"" ONLY)",007664939,NO,NON-PBT,NO,0,NO,R,Pounds,0,250,0,0,0,0,250,0,0,0,0,0,500,0,0,0,0,0,0,0,0,0,0,0,0,0,0,0,0,0,0,0,0,0,0,0,0,0,0,0,0,0,0,0,0,0,0,0,0,0,500,0,0,0,0,0,0,0,0,0,0,0,0,0,,ENGELHARD CORP,099290629
1990,30201MTCMN305TI,METCAM INC.,305 TIDWELL CIR.,ALPHARETTA,FORSYTH,GA,30201,34.125,-84.25,3499,,,,,,332322,,,,,,1390045455730,METHYL ETHYL KETONE,000078933,NO,NON-PBT,NO,0,NO,R,Pounds,750,9250,0,0,0,0,0,0,0,0,0,0,10000,0,0,0,0,0,0,0,0,0,0,0,0,0,0,0,0,0,0,0,0,0,0,0,0,0,0,0,0,0,0,0,0,0,0,0,0,0,10000,0,0,0,0,0,0,0,0,0,0,0,0,0,,NA,NA
1990,30120TLNTCPEEPL,GERDAU AMERISTEEL CARTERSVILLE STEEL MILL,384 OLD GRASSDALE RD NE,CARTERSVILLE,BARTOW,GA,30121,34.242779,-84.797775,3313,3315,,,,,331112,,,,,,1390045429014,MANGANESE,007439965,YES,NON-PBT,YES,1,NO,R,Pounds,422,1450,0,0,0,0,0,0,0,0,0,0,1872,0,0,0,0,0,0,0,0,0,0,0,0,0,0,0,0,0,0,0,0,0,0,0,0,0,0,0,0,0,0,0,0,0,0,0,0,0,1872,0,0,0,0,0,0,0,0,0,0,0,0,0,,GERDAU GROUP,056000885
1990,31995CLMBS1600N,DMI-COLUMBUS LLC,1600 NORTHSIDE INDUSTRIAL BLVD,COLUMBUS,MUSCOGEE,GA,319040201,32.53042,-84.97008,3321,,,,,,331511,,,,,,1390045429166,XYLENE (MIXED ISOMERS),001330207,YES,NON-PBT,NO,0,NO,R,Pounds,14669,0,0,0,0,0,0,0,0,0,0,0,14669,0,0,0,0,0,0,0,0,0,0,0,0,0,0,0,0,0,0,0,0,0,0,0,0,0,0,0,0,0,0,0,0,0,0,0,0,0,14669,0,0,0,0,0,0,0,0,0,0,0,0,0,,DIVERSIFIED MACHINE INC,611828695
1990,31995CLMBS1600N,DMI-COLUMBUS LLC,1600 NORTHSIDE INDUSTRIAL BLVD,COLUMBUS,MUSCOGEE,GA,319040201,32.53042,-84.97008,3321,,,,,,331511,,,,,,1390045429216,"SULFURIC ACID (1994 AND AFTER ""ACID AEROSOLS"" ONLY)",007664939,NO,NON-PBT,NO,0,NO,R,Pounds,0,0,0,0,0,0,0,0,0,0,0,0,0,0,0,0,0,0,0,0,0,0,0,0,0,0,0,0,0,0,0,0,0,0,0,0,0,0,0,0,0,0,0,0,21740,0,0,0,0,21740,0,0,0,0,0,0,0,0,0,0,0,0,0,0,,DIVERSIFIED MACHINE INC,611828695
1990,30241KLNTX1516O,MOUNTVILLE MILLS PLANT 3,1516 ORCHARD HILL RD,LAGRANGE,TROUP,GA,30240,33.008913,-85.057466,3069,2273,2261,,,,314110,,,,,,1390045480377,ZINC COMPOUNDS,N982,NO,NON-PBT,YES,1,NO,R,Pounds,250,250,0,0,0,0,0,0,0,0,0,0,500,250,0,250,0,0,0,0,0,0,1000,0,0,0,0,0,0,0,0,0,0,1000,0,0,0,0,0,0,0,0,0,0,0,0,0,0,0,0,1750,0,0,0,0,0,0,0,0,0,0,0,0,0,,MOUNTVILLE MILLS,003308558
1990,31064GRGPCHIGHW,GEORGIA-PACIFIC MONTICELLO OPERATIONS,791 GEORGIA PACIFIC RD,MONTICELLO,JASPER,GA,31064,33.277996,-83.705189,2493,,,,,,321219,,,,,,1390045518077,AMMONIUM SULFATE (SOLUTION),007783202,NO,NON-PBT,NO,0,NO,R,Pounds,0,0,0,0,0,0,0,0,0,0,0,0,0,0,0,0,0,0,0,0,0,0,0,0,0,0,0,0,0,0,0,0,0,0,0,0,0,0,0,0,0,0,0,0,0,0,0,0,0,0,0,0,0,0,0,0,0,0,0,0,0,0,0,0,,KOCH INDUSTRIES INC,808133958
1990,30318ZPMNF1310S,ZEP INC,1310 SEABOARD INDUSTRIAL BLVD,ATLANTA,FULTON,GA,30318,33.808056,-84.428333,2841,2842,2843,2844,,,325611,,,,,,1390045680598,AMMONIA,007664417,NO,NON-PBT,NO,0,NO,R,Pounds,1800,0,0,0,0,0,0,0,0,0,0,0,1800,0,14,14,0,0,0,0,0,0,0,0,0,0,0,0,0,0,0,0,0,0,0,0,0,0,0,0,0,0,0,0,0,0,0,0,0,0,1800,0,0,0,0,0,0,0,0,0,0,0,0,0,,ZEP INC,NA
1990,30728BLBRDSHATT,BLUE BIRD NORTH GEORGIA,1198 SHATTUCK INDUSTRIAL BLVD,LAFAYETTE,WALKER,GA,30728,34.678135,-85.290155,3713,,,,,,336211,,,,,,1390045300555,ETHYLENE GLYCOL,000107211,YES,NON-PBT,NO,0,NO,R,Pounds,250,250,0,0,0,0,0,0,0,0,0,0,500,0,1148,1148,0,0,0,0,0,0,0,0,0,0,0,0,0,0,0,0,0,0,0,0,0,0,0,0,0,0,0,0,0,0,0,0,0,0,500,0,0,0,0,0,0,0,0,0,0,0,0,0,,SCHOOL BUS HOLDINGS INC,830476508
1990,30050MRCNN48ROY,REXAM BEVERAGE CAN CO RE FOREST PARK FACILITY,48 ROYAL DR,FOREST PARK,CLAYTON,GA,30297,33.629787,-84.389103,3411,,,,,,332431,,,,,,1390045374408,CERTAIN GLYCOL ETHERS,N230,YES,NON-PBT,NO,0,NO,R,Pounds,19226,108945,0,0,0,0,0,0,0,0,0,0,128171,0,0,0,0,0,0,0,0,0,0,0,0,0,0,0,0,0,0,0,0,0,0,0,0,0,0,0,0,0,0,0,0,0,0,0,0,0,128171,0,0,0,0,0,0,0,0,0,0,0,0,0,,REXAM BEVERAGE CAN CO,005105366
1990,30337SCHLL2300W,SCHOLLE CORP,2300 W POINT AVE,COLLEGE PARK,FULTON,GA,30337,33.63622,-84.46187,2851,2819,,,,,325510,,,,,,1390045455870,METHYL ISOBUTYL KETONE,000108101,YES,NON-PBT,NO,0,NO,R,Pounds,0,0,0,0,0,0,0,0,0,0,0,0,0,0,0,0,0,0,0,0,0,0,0,0,0,0,0,0,0,0,0,0,0,0,0,0,0,0,0,0,0,0,0,0,108,0,0,0,0,108,0,0,0,0,0,0,0,0,0,0,0,0,0,0,,SCHOLLE CORP,NA
1990,30105SSTRY285SI,SI STOREY LUMBER CO INC,285 SIKE STOREY RD,ARMUCHEE,FLOYD,GA,301052021,34.409643,-85.226864,2491,,,,,,321114,,,,,,1390045540376,COPPER COMPOUNDS,N100,NO,NON-PBT,YES,1,NO,R,Pounds,5,5,0,0,0,0,0,0,0,0,0,0,10,0,0,0,0,0,0,0,0,0,1000,0,0,0,0,0,0,0,0,0,0,1000,0,0,0,0,0,0,0,0,0,0,0,0,0,0,0,0,1010,0,0,0,0,0,0,0,0,0,0,0,0,0,,NA,NA
1990,31792CMPRS1211O,TECT CORP.,1211 OLD ALBANY RD.,THOMASVILLE,THOMAS,GA,31792,30.864621,-83.997555,3724,,,,,,332112,,,,,,1390045601642,LEAD,007439921,YES,PBT,YES,1,YES,R,Pounds,0,0,0,0,0,0,0,38400,0,0,0,0,38400,0,0,0,0,0,0,0,0,0,38400,0,0,0,0,0,0,0,0,0,0,38400,0,0,0,0,0,0,0,0,0,0,0,0,0,0,0,0,76800,0,0,0,0,0,0,0,0,0,0,0,0,0,,UCA HOLDINGS INC,883660078
1990,30566THGLD4261W,AKZO NOBEL PAINTS LLC (ICI PAINTS DBA GLIDDEN CO),4261 W  WHITE RD,OAKWOOD,HALL,GA,30566,34.211111,-83.896111,2851,,,,,,325510,,,,,,1390045440359,COBALT COMPOUNDS,N096,YES,NON-PBT,YES,1,YES,R,Pounds,0,0,0,0,0,0,0,0,0,0,0,0,0,0,0,0,0,0,0,0,0,0,250,0,0,0,0,0,0,0,250,0,0,500,0,0,0,0,0,0,0,0,0,0,0,0,0,0,0,0,500,0,0,0,0,0,0,0,0,0,0,0,0,0,,AKZO NOBEL NV,151334422
1990,31907THGLD6906D,HEXION SPECIALTY CHEMICALS,6906 DIXIE ST,COLUMBUS,MUSCOGEE,GA,31907,32.512269,-84.87251,2821,2851,,,,,325211,,,,,,1390045440447,PHTHALIC ANHYDRIDE,000085449,YES,NON-PBT,NO,0,NO,R,Pounds,3,0,0,0,0,0,0,0,0,0,0,0,3,0,0,0,0,0,0,0,0,0,360,0,0,0,0,0,0,0,0,0,0,360,0,0,0,0,0,0,0,0,0,0,0,0,0,0,0,0,363,0,0,0,0,0,0,0,0,0,0,0,0,0,,HEXION SPECIALTY CHEMICALS INC,001338797
1990,30105RMCHGPOBOX,BEST MANUFACTURING CO ARMUCHEE DIV.,OLD SUMMERVILLE RD.,ARMUCHEE,FLOYD,GA,30105,34.47,-85.2153,2381,3089,,,,,315000,,,,,,1390045512100,"1,2,4-TRIMETHYLBENZENE",000095636,NO,NON-PBT,NO,0,NO,R,Pounds,0,0,0,0,0,0,0,0,0,0,0,0,0,0,0,0,0,0,0,0,0,0,0,0,0,0,0,0,0,0,0,0,0,0,0,0,0,0,0,0,0,0,0,0,0,0,0,0,0,0,0,0,0,0,0,0,0,0,0,0,0,0,0,0,,TILLOTSON CORP,001020791
1990,30731BSTMNHIGHW,SHOWA BEST GLOVE INC,579 EDISON ST,MENLO,CHATTOOGA,GA,30731,34.486186,-85.474492,2381,3069,,,,,315992,,,,,,1390045512148,CARBON TETRACHLORIDE,000056235,YES,NON-PBT,NO,0,YES,R,Pounds,0,5,0,0,0,0,0,0,0,0,0,0,5,0,0,0,0,0,0,0,0,0,0,0,0,0,0,0,0,0,0,0,0,0,0,0,0,0,0,0,0,0,0,0,0,0,0,0,0,0,5,0,0,0,0,0,0,0,0,0,0,0,0,0,,SHOWA BEST GLOVE INC,807930412
1990,30680MNVLLINDUS,JOHNS MANVILLE,713 BANKHEAD HWY,WINDER,BARROW,GA,30680,33.995051,-83.785781,3296,,,,,,327993,,,,,,1390045509650,AMMONIA,007664417,NO,NON-PBT,NO,0,NO,R,Pounds,6203,367767,0,0,0,0,0,0,0,0,0,0,373970,0,0,0,0,0,0,0,0,0,0,0,0,0,0,0,0,0,0,0,0,0,0,0,0,0,0,0,0,0,0,0,0,0,0,0,0,0,373970,0,0,0,0,0,0,0,0,0,0,0,0,0,,BERKSHIRE HATHAWAY,139723472
1990,30344PPGND1377O,PPG ARCHITECTURAL FINISHES EAST POINT,1377 OAKLEIGH DR,EAST POINT,FULTON,GA,30344,33.68813,-84.433088,2851,,,,,,325510,,,,,,1390045603471,CHROMIUM COMPOUNDS(EXCEPT CHROMITE ORE MINED IN THE TRANSVAAL REGION),N090,YES,NON-PBT,YES,1,NO,R,Pounds,6,2,0,0,0,0,0,0,0,0,0,0,8,0,0,0,0,0,0,0,0,0,11,0,0,0,0,0,0,0,33,0,0,44,0,0,0,0,0,0,0,0,0,0,168,0,0,0,0,168,52,0,0,0,0,0,0,0,0,0,0,0,0,0,,PPG INDUSTRIES INC,001344803
1990,30331DYNTR3700A,3M ATLANTA,3700 ATLANTA INDUSTRIAL PKWY,ATLANTA,FULTON,GA,30331,33.801258,-84.496008,2851,,,,,,325510,,,,,,1390045615186,STYRENE,000100425,YES,NON-PBT,NO,0,YES,R,Pounds,8100,8100,0,0,0,0,0,0,0,0,0,0,16200,0,0,0,0,0,0,0,0,0,0,0,0,0,0,0,0,0,0,0,0,0,0,0,0,0,0,0,0,0,0,0,6300,0,0,0,0,6300,16200,0,0,0,0,0,0,0,0,0,0,0,0,0,,3M CO,006173082
1990,30114YDKMR500BR,CYBERSHIELD OF GEORGIA INC.,500 BROWN INDUSTRIAL PKY.,CANTON,CHEROKEE,GA,30114,34.24463,-84.47352,3471,,,,,,332813,,,,,,1390045672526,CHROMIUM COMPOUNDS(EXCEPT CHROMITE ORE MINED IN THE TRANSVAAL REGION),N090,YES,NON-PBT,YES,1,NO,R,Pounds,0,4,0,0,0,0,0,0,0,0,0,0,4,1,0,1,0,0,0,0,0,0,0,0,0,0,0,0,0,0,0,0,0,450,0,0,0,0,0,0,0,0,0,450,0,0,0,0,0,0,455,0,0,0,0,0,0,0,0,0,0,0,0,0,,ELCOR CORP,008409070
1990,31069TLLSN903JE,TOLLESON LUMBER CO. INC.,903 JERNIGAN ST.,PERRY,HOUSTON,GA,31069,32.456447,-83.733754,2491,,,,,,321114,,,,,,1390045554540,ARSENIC COMPOUNDS,N020,YES,NON-PBT,YES,1,NO,R,Pounds,0,0,0,0,0,0,0,0,0,0,0,0,0,0,0,0,5,0,0,0,0,0,0,0,0,0,0,0,0,0,0,0,0,5,0,0,0,0,0,0,0,0,0,0,0,0,0,0,0,0,5,0,0,0,0,0,0,0,0,0,0,0,0,0,,NA,NA
1990,31068BCKYCOLDST,WEYERHAEUSER NR CO,2449 STAGECOACH RD PO BOX 238,OGLETHORPE,MACON,GA,31068,32.253889,-84.068417,2611,,,,,,322110,,,,,,1390045634324,AMMONIA,007664417,NO,NON-PBT,NO,0,NO,R,Pounds,500,0,61000,0,0,0,0,0,0,0,0,0,61500,0,0,0,0,0,0,0,0,0,0,0,0,0,0,0,0,0,0,0,0,0,0,0,0,0,0,0,0,0,0,0,0,0,0,0,0,0,61500,0,0,0,0,0,0,0,0,0,0,0,0,0,,WEYERHAEUSER CO,828789524
1990,30568BRLNGROUTE,RABUN APPAREL INC.,398 KELLY'S CREEK RD,RABUN GAP,RABUN,GA,30568,34.955833,-83.37666,2272,,,,,,313000,,,,,,1390045328059,AMMONIA,007664417,NO,NON-PBT,NO,0,NO,R,Pounds,0,12000,15000,0,0,0,2100,0,0,0,0,0,29100,0,0,0,0,0,0,0,0,0,0,0,0,0,0,0,0,0,0,0,0,0,0,0,0,0,0,0,0,0,0,0,0,0,0,0,0,0,29100,0,0,0,0,0,0,0,0,0,0,0,0,0,,UNION UNDERWEAR INC,110555005
1990,30501PRNML1125P,LAND O'LAKES PURINA FEED LLC - GAINESVILLE,1125 PURINA DR,GAINESVILLE,HALL,GA,30501,34.294556,-83.809926,2048,,,,,,311119,,,,,,1390045296528,ZINC COMPOUNDS,N982,NO,NON-PBT,YES,1,NO,R,Pounds,5,5,0,0,0,0,0,0,0,0,0,0,10,0,0,0,0,0,0,0,0,0,5,0,0,0,0,0,0,0,0,0,0,5,0,0,0,0,0,0,0,0,0,0,0,0,0,0,0,0,15,0,0,0,0,0,0,0,0,0,0,0,0,0,,LAND O LAKES INC,006253835
1990,30531THCNN70CLA,ETHICON INC,655 ETHICON CIR,CORNELIA,HABERSHAM,GA,30531,34.529629,-83.532608,3841,,,,,,339112,,,,,,1390045473891,ETHYLBENZENE,000100414,YES,NON-PBT,NO,0,NO,R,Pounds,250,6060,0,0,0,0,0,0,0,0,0,0,6310,0,750,750,0,0,0,0,0,0,0,0,0,0,0,0,0,0,0,0,0,0,0,0,0,0,0,0,0,0,0,0,0,0,0,0,0,0,6310,0,0,0,0,0,0,0,0,0,0,0,0,0,,JOHNSON & JOHNSON,001307081
1990,31297BNGGR7979N,ALLIANCE AEROSPACE LLC,7979 N E INDUSTRIAL BLVD,MACON,BIBB,GA,312970248,32.692429,-83.670913,3728,,,,,,336413,,,,,,1390045540806,METHYL ETHYL KETONE,000078933,NO,NON-PBT,NO,0,NO,R,Pounds,8300,1000,0,0,0,0,0,0,0,0,0,0,9300,0,0,0,0,0,0,0,0,0,0,0,0,0,0,0,0,0,0,0,0,0,0,0,0,0,0,0,0,0,0,0,21400,0,0,0,0,21400,9300,0,0,0,0,0,0,0,0,0,0,0,0,0,,NA,NA
1990,31297BNGGR7979N,ALLIANCE AEROSPACE LLC,7979 N E INDUSTRIAL BLVD,MACON,BIBB,GA,312970248,32.692429,-83.670913,3728,,,,,,336413,,,,,,1390045540844,NITRIC ACID,007697372,NO,NON-PBT,NO,0,NO,R,Pounds,0,0,0,0,0,0,0,0,0,0,0,0,0,0,0,0,0,0,0,0,0,0,0,0,0,0,0,0,0,0,0,0,0,0,0,0,0,0,0,0,0,0,0,0,0,0,0,0,0,0,0,0,0,0,0,0,0,0,0,0,0,0,0,0,,NA,NA
1990,30344TRNSC925SA,TRANSCHEM INDUSTRIES INC,2147 SYLVAN RD,EAST POINT,FULTON,GA,30344,33.695105,-84.418368,2842,,,,,,325612,,,,,,1390045575305,CERTAIN GLYCOL ETHERS,N230,YES,NON-PBT,NO,0,NO,R,Pounds,0,0,0,0,0,0,0,0,0,0,0,0,0,0,5,5,0,0,0,0,0,0,0,0,0,0,0,0,0,0,0,0,0,0,0,0,0,0,0,0,0,0,0,0,0,0,0,0,0,0,0,0,0,0,0,0,0,0,0,0,0,0,0,0,,NA,NA
1990,30542VRY  THURM,AVERY DENNISON,4350 AVERY DR,FLOWERY BRANCH,HALL,GA,305422836,34.202421,-83.899551,2751,,,,,,322231,,,,,,1390045638501,"1,1,1-TRICHLOROETHANE",000071556,YES,NON-PBT,NO,0,NO,R,Pounds,27197,0,0,0,0,0,0,0,0,0,0,0,27197,0,0,0,0,0,0,0,0,0,0,0,0,0,0,0,0,0,0,0,0,0,0,0,0,0,0,0,0,0,0,0,0,0,0,0,0,0,27197,0,0,0,0,0,0,0,0,0,0,0,0,0,,AVERY DENNISON CORP,008256364
1990,30060NRTHC1525C,KEMIRA CHEMICALS INC,1525 CHURCH ST EXTENSION,MARIETTA,COBB,GA,30060,33.978217,-84.556542,2899,2843,,,,,325998,,,,,,1390045761309,ETHYLENE GLYCOL,000107211,YES,NON-PBT,NO,0,NO,R,Pounds,1,0,0,0,0,0,0,0,0,0,0,0,1,0,8,8,0,0,0,0,0,0,0,0,0,0,0,0,0,0,0,0,0,0,0,0,0,0,0,0,0,0,0,0,0,0,0,0,0,0,1,0,0,0,0,0,0,0,0,0,0,0,0,0,,KEMIRA INC,033870585
1990,30336RQPCR4600F,AEROQUIP INOAC CORP.,4600 FULTON INDUSTRIAL BLVD.,ATLANTA,FULTON,GA,303366200,33.76142,-84.53692,3082,,,,,,326121,,,,,,1390045895051,DI(2-ETHYLHEXYL) PHTHALATE,000117817,YES,NON-PBT,NO,0,YES,R,Pounds,0,0,0,0,0,0,0,0,0,0,0,0,0,0,0,0,0,0,0,0,0,0,0,0,0,0,0,0,0,0,0,0,0,0,0,0,0,0,0,0,250,0,250,0,0,0,0,0,0,0,0,0,0,0,0,0,0,0,0,0,0,0,0,0,,AEROQUIP-VICKERS INC,005045000
1990,30741RSSVL107LA,ROSSVILLE YARN INC.,107 LAKE AVE.,ROSSVILLE,WALKER,GA,30741,34.982778,-85.289167,2269,,,,,,313310,,,,,,1390045751880,AMMONIUM SULFATE (SOLUTION),007783202,NO,NON-PBT,NO,0,NO,R,Pounds,0,0,0,0,0,0,0,0,0,0,0,0,0,0,15578,15578,0,0,0,0,0,0,0,0,0,0,0,0,0,0,0,0,0,0,0,0,0,0,0,0,0,0,0,0,0,0,0,0,0,0,0,0,0,0,0,0,0,0,0,0,0,0,0,0,,"",""
1990,31402NNCMPWESTL,INTERNATIONAL PAPER CO - SAVANNAH COMPLEX,1201 W LATHROP AVE,SAVANNAH,CHATHAM,GA,31415,32.097304,-81.121872,2611,2631,2643,2653,2861,,322121,,,,,,1390045657032,XYLENE (MIXED ISOMERS),001330207,YES,NON-PBT,NO,0,NO,R,Pounds,450,1400,0,0,0,0,0,0,0,0,0,0,1850,0,0,0,0,0,0,0,0,0,0,0,0,0,0,0,0,0,0,0,0,0,0,0,0,0,0,0,0,0,0,0,0,0,0,0,0,0,1850,0,0,0,0,0,0,0,0,0,0,0,0,0,,INTERNATIONAL PAPER CO,001316561
1990,31402NNCMPWESTL,INTERNATIONAL PAPER CO - SAVANNAH COMPLEX,1201 W LATHROP AVE,SAVANNAH,CHATHAM,GA,31415,32.097304,-81.121872,2611,2631,2643,2653,2861,,322121,,,,,,1390045657095,CATECHOL,000120809,YES,NON-PBT,NO,0,NO,R,Pounds,640,0,10000,0,0,0,0,0,0,0,0,0,10640,0,0,0,0,0,0,0,0,0,0,0,0,0,0,0,0,0,0,0,0,0,0,0,0,0,0,0,0,0,0,0,0,0,0,0,0,0,10640,0,0,0,0,0,0,0,0,0,0,0,0,0,,INTERNATIONAL PAPER CO,001316561
1990,30209RPDTC9126I,ROTADYNE ROLL GROUP - COVINGTO N,9126 INDUSTRIAL BLVD,COVINGTON,NEWTON,GA,30014,33.612347,-83.837255,3555,,,,,,326299,,,,,,1390045689914,DI(2-ETHYLHEXYL) PHTHALATE,000117817,YES,NON-PBT,NO,0,YES,R,Pounds,0,47,0,0,0,0,0,0,0,0,0,0,47,0,0,0,0,0,0,0,0,0,37000,0,0,0,0,0,0,0,0,0,0,37000,0,0,0,0,0,0,0,0,0,0,0,0,0,0,0,0,37047,0,0,0,0,0,0,0,0,0,0,0,0,0,,ROTATION DYNAMICS CORP INC,064398712
1990,30119CPPRDCENTR,SOUTHWIRE CO,1 SOUTHWIRE DR,CARROLLTON,CARROLL,GA,30119,33.566896,-85.072598,3341,3357,3569,2448,,,331000,,,,,,1390045893536,LEAD COMPOUNDS,N420,YES,PBT,YES,1,NO,R,Pounds,2600,3000,90,0,0,0,0,0,0,0,0,0,5690,12,0,12,0,0,0,0,0,0,0,0,0,0,0,0,0,0,0,0,0,0,0,0,0,0,0,0,0,0,0,0,0,0,0,0,0,0,5702,0,0,0,0,0,0,0,0,0,0,0,0,0,,NA,NA
1990,30119CPPRDCENTR,SOUTHWIRE CO,1 SOUTHWIRE DR,CARROLLTON,CARROLL,GA,30119,33.566896,-85.072598,3341,3357,3569,2448,,,331000,,,,,,1390045893599,BARIUM COMPOUNDS,N040,NO,NON-PBT,YES,3,NO,R,Pounds,540,140,0,0,0,0,0,0,0,0,0,0,680,5,0,5,0,0,0,0,0,0,230,0,0,0,0,0,0,0,0,0,0,230,0,0,0,0,0,0,0,0,0,0,0,0,0,0,0,0,915,0,0,0,0,0,0,0,0,0,0,0,0,0,,NA,NA
1990,31539LCCNT400EF,EMERSON ELECTRIC CO. ALCO CONTROLS DIV.,400 E. 1ST ST.,HAZLEHURST,JEFF DAVIS,GA,31539,31.872222,-82.595833,3822,,,,,,334512,,,,,,1390045891292,COPPER,007440508,NO,NON-PBT,YES,1,NO,R,Pounds,0,0,0,0,0,0,0,0,0,0,0,0,0,0,0,0,0,0,0,0,0,0,0,0,0,0,0,0,0,0,0,0,0,0,0,0,0,0,0,0,0,0,0,0,0,0,0,0,0,0,0,0,0,0,0,0,0,0,0,0,0,0,0,0,,EMERSON ELECTRIC CO,059997460
1990,30501STRKG1024A,MAREL STORK POULTRY PROCESSING INC,1024 AIRPORT PKWY,GAINESVILLE,HALL,GA,30501,34.275572,-83.825282,3556,,,,,,333294,,,,,,1390045920586,NICKEL,007440020,YES,NON-PBT,YES,1,YES,R,Pounds,12,0,0,0,0,0,0,0,0,0,0,0,12,0,0,0,0,0,0,0,0,0,0,0,0,0,0,0,0,0,0,0,0,0,0,0,8615,0,0,8615,0,0,0,0,0,0,0,0,0,0,12,12,0,0,0,0,0,0,0,8615,0,0,8627,0,1.14,STORK NV,NA
1990,30529JMHBRPOBOX,HUBER ENGINEERED WOODS LLC,1442 HWY 334,COMMERCE,JACKSON,GA,30529,34.165833,-83.429167,2493,,,,,,321219,,,,,,1390045661396,FORMALDEHYDE,000050000,YES,NON-PBT,NO,0,YES,R,Pounds,250,14529,0,0,0,0,0,0,0,0,0,0,14779,0,0,0,0,0,0,0,0,0,0,0,0,0,0,0,0,0,0,0,0,0,0,0,0,0,0,0,0,0,0,0,0,0,0,0,0,0,14779,0,0,0,0,0,0,0,0,0,0,0,0,0,,JM HUBER CORP,002554459
1990,31513BXLYCPOBOX,BAXLEY CREOSOTING CO INC,608 E PARKER ST,BAXLEY,APPLING,GA,31513,31.775868,-82.340399,2491,,,,,,321114,,,,,,1390045727676,DIBENZOFURAN,000132649,YES,NON-PBT,NO,0,NO,R,Pounds,5,0,0,0,0,0,0,0,0,0,0,5,10,0,0,0,0,0,0,0,0,0,0,0,0,0,0,0,0,0,0,0,0,0,0,0,0,0,0,0,0,0,0,0,0,0,0,0,0,0,10,0,0,0,0,0,0,0,0,0,0,0,0,0,,NA,NA
1990,31709WDGRNNEWIN,WOODGRAIN MILLWORK INC.,NEW INDUSTRIAL BLVD.,AMERICUS,SUMTER,GA,31709,32.113193,-84.204398,2431,,,,,,321910,,,,,,1390045857240,TOLUENE,000108883,YES,NON-PBT,NO,0,NO,R,Pounds,9062,221224,0,0,0,0,0,0,0,0,0,0,230286,0,0,0,0,0,0,0,0,0,0,0,0,0,0,0,0,0,0,0,0,0,0,0,0,0,0,0,0,0,0,0,0,0,0,105332,0,105332,230286,0,0,0,0,0,0,0,0,0,0,0,0,0,,NA,NA
1990,30643NVFCM300FI,NVF CO,300 FISHER DR,HARTWELL,HART,GA,30643,34.35909,-82.95166,2812,,,,,,326000,,,,,,1390045920978,COPPER,007440508,NO,NON-PBT,YES,1,NO,R,Pounds,3,0,0,0,0,0,0,0,0,0,0,0,3,0,0,0,0,0,0,0,0,0,0,0,0,0,0,0,0,0,0,0,0,0,0,0,297,0,0,297,0,0,0,0,0,0,0,0,0,0,3,3,0,0,0,0,0,0,0,297,0,0,300,0,1.05,NA,NA
1990,30161NVRSLPOBOX,VTI OF GEORGIA INC.,HWY. 140 E. ARMUCHE,ROME,FLOYD,GA,30163,34.383333,-85.158889,2511,,,,,,337110,,,,,,1390045766944,TOLUENE,000108883,YES,NON-PBT,NO,0,NO,R,Pounds,0,109582,0,0,0,0,0,0,0,0,0,0,109582,0,0,0,0,0,0,0,0,0,0,0,0,0,0,0,0,0,0,0,0,0,0,0,0,0,0,0,0,0,0,0,0,0,0,0,0,0,109582,0,0,0,0,0,0,0,0,0,0,0,0,0,,V-T INDS INC,007275399
1990,31908PRTTW8801M,UNITED TECHNOLOGIES PRATT & WHITNEY DIV,8801 MACON RD,MIDLAND,MUSCOGEE,GA,31820,32.53944,-84.83505,3724,,,,,,336412,,,,,,1390045716800,NITRIC ACID,007697372,NO,NON-PBT,NO,0,NO,R,Pounds,0,2400,0,0,0,0,0,0,0,0,0,0,2400,0,0,0,0,0,0,0,0,0,0,0,0,0,0,0,0,0,0,0,0,0,0,0,0,0,0,0,0,0,0,0,0,0,0,0,0,0,2400,0,0,0,0,0,0,0,0,0,0,0,0,0,,UNITED TECHNOLOGIES CORP,001344142
1990,30162BKRTCHWY41,BEKAERT STEEL,301 DARLINGTON DR,ROME,FLOYD,GA,30161,34.21936,-85.173638,2296,3315,,,,,331222,,,,,,1390045898133,ZINC COMPOUNDS,N982,NO,NON-PBT,YES,1,NO,R,Pounds,1200,250,250,0,0,0,0,0,0,0,0,0,1700,250,0,250,0,0,0,0,0,0,14528,0,0,0,0,0,0,0,0,0,0,15788,0,0,0,0,0,0,0,0,0,0,0,0,1260,0,0,0,17738,0,0,0,0,0,0,0,0,0,0,0,0,0,,BEKAERT NV,051525129
1990,30093TCHLL4224S,TECHALLOY CO INC,4224 SHACKLEFORD RD,NORCROSS,GWINNETT,GA,30093,33.940608,-84.147424,3315,,,,,,331222,,,,,,1390045844899,CHROMIUM,007440473,YES,NON-PBT,YES,1,YES,R,Pounds,0,0,0,0,0,0,0,0,0,0,0,0,0,5,0,5,0,0,0,0,0,0,0,0,0,0,0,0,0,0,0,0,0,0,0,0,0,0,0,0,0,0,0,0,0,0,0,0,0,0,5,0,0,0,0,0,0,0,0,0,0,0,0,0,,NA,NA
1990,30315LNDSN385GR,LAND-O-SUN DAIRIES INC.,385 GRANT CIR. S.E.,ATLANTA,FULTON,GA,30315,33.725532,-84.375943,2024,2026,,,,,311520,,,,,,1390045853076,PHOSPHORIC ACID,007664382,NO,NON-PBT,NO,0,NO,R,Pounds,0,0,0,0,0,0,0,0,0,0,0,0,0,0,0,0,0,0,0,0,0,0,0,0,0,0,0,0,0,0,0,0,0,0,0,0,0,0,0,0,0,0,0,0,0,0,0,0,0,0,0,0,0,0,0,0,0,0,0,0,0,0,0,0,,NA,NA
1990,30084NNCRB2043S,UNION CARBIDE CORP TUCKER LATEX PLANT,2043 STEEL DR,TUCKER,DEKALB,GA,30084,33.843662,-84.234162,2821,,,,,,325211,,,,,,1390045692199,VINYL ACETATE,000108054,YES,NON-PBT,NO,0,YES,R,Pounds,97,10,0,0,0,0,0,0,0,0,0,0,107,0,75,75,0,0,0,0,0,0,0,0,0,0,0,0,0,0,0,0,0,0,0,0,0,0,0,0,0,0,0,291,0,0,0,0,0,291,107,0,0,0,0,0,0,0,0,0,0,0,0,0,,DOW CHEMICAL CO,001381581
