REPORTING YEAR	TITLE OF CERTIFYING OFFICIAL	NAME OF CERTIFYING OFFICIAL	TRIFID	FACILITY NAME	FACILITY STREET	FACILITY CITY	FACILITY COUNTY	FACILITY STATE	FACILITY ZIP CODE	FACILITY BIA CODE	FACILITY BIA NAME	MAILING NAME	MAILING STREET	MAILING CITY	MAILING STATE	MAILING PROVINCE	MAILING ZIP CODE	ENTIRE FACILITY IND	PARTIAL FACILITY IND	FEDERAL FACILITY IND	GOCO FACILITY IND	PUBLIC CONTACT NAME	PUBLIC CONTACT PHONE	PRIMARY SIC CODE	SIC CODE 2	SIC CODE 3	SIC CODE 4	SIC CODE 5	SIC CODE 6	NAICS ORIGIN	PRIMARY NAICS CODE	NAICS CODE 2	NAICS CODE 3	NAICS CODE 4	NAICS CODE 5	NAICS CODE 6	LATITUDE	LONGITUDE	DB NR A	DB NR B	RCRA NR A	RCRA NR B	NPDES NR A	NPDES NR B	UIC NR A	UIC NR B	PARENT COMPANY NAME	PARENT COMPANY DB NR	ASSIGNED FED. FACILITY FLAG	PUBLIC CONTACT EMAIL	10/3/2014	
2013	DIRECTOR OF MANUFACTURING	JACK WILFLEY	80205RWLFL2763B	A R WILFLEY & SONS INC	2763 BLAKE ST	DENVER	DENVER	CO	80205			A R WILFLEY & SONS INC	PO BOX 2330	DENVER	CO		80201	YES	NO	NO	NO	CHUCK HOPLEY	3038897107	3561							333911						39.76173	-104.98469	007078363		COD007078363								NO	C.HOPLEY@ATT.NET	
2013	VICE PRESIDENT OF OPERATIONS	MARK WALLICK	81501PBDYB610S1	ABC INDUSTRIES INC	610 S 12TH ST	GRAND JUNCTION	MESA	CO	81501			ABC INDUSTRIES INC	PO BOX 2928	GRAND JUNCTION	CO		81502	YES	NO	NO	NO	STEVEN S. FLEAGLE	5742675166	3052	3083	3089	3564				326130						39.06238	-108.55236	058957598								ABC INDUSTRIES INC	058957598	NO	SFLEA@ABC-INDUSTRIES.NET	
2013	TECHNICAL DIRECTOR	GARTH TAYLER	80104DNVRB401SA	ACME BRICK DENVER PLANT	401 PRAIRIE HAWK DR	CASTLE ROCK	DOUGLAS	CO	80104			ACME BRICK DENVER PLANT	401 PRAIRIE HAWK DR	CASTLE ROCK	CO		80104	YES	NO	NO	NO	JASON WINNER	8173324104	3251							327121						39.375376	-104.866308	008018772								BERKSHIRE HATHAWAY		NO	JWINNER@BRICK.COM	
2013	ENVIRONMENTAL HEALTH AND SAFETY MANAGER	JOSEPH JAMERO	80011JHNHH21100	ADVANCED CIRCUITS	21101 E 32ND PKWY	AURORA	ADAMS	CO	80011			ADVANCED CIRCUITS	21101 E 32ND PKWY	AURORA	CO		80011	YES	NO	NO	NO	JIM HELLMER	3039619530	3672							334412						39.75847	-104.74133	603111717										NO	JHELLMER@4PCB.COM	
2013	CORPORATE MANAGER - EH&S AND TRAINING	MATTHEW TAYLOR	8052WDVNCD2424M	ADVANCED ENERGY INDUSTRIES INC	2424 MIDPOINT DR	FORT COLLINS	LARIMER	CO	80525			ADVANCED ENERGY INDUSTRIES INC	1625 SHARP POINT DR	FORT COLLINS	CO		80525	YES	NO	NO	NO	MATT S. TAYLOR	7904076562								335999						40.56432	-105.03213	021192422										NO	MATT.TAYLOR@AEI.COM	
2013	EH&S MANAGER	DEREK SHELTON	80504PRCSN74WEL	ADVANCED FORMING TECHNOLOGY	7040 WELD COUNTY RD 20	LONGMONT	WELD	CO	80504			ADVANCED FORMING TECHNOLOGY	7040 WELD COUNTY RD 20	LONGMONT	CO		80504	YES	NO	NO	NO	DEREK SHELTON	3038336085	3499							332117						40.1301	-104.9224	160892055								ARC GROUP WORLDWIDE INC.	602416869	NO	DSHELTON@PCC-AFT.COM	
2013	CEO	DONALD YTTERBERG	80002FRNTR6155W	ADVANCED SURFACE TECHNOLOGIES INC	6155 W 54TH AVE	ARVADA	JEFFERSON	CO	80002			ADVANCED SURFACE TECHNOLOGIES INC	6155 W 54TH AVE	ARVADA	CO		80002	YES	NO	NO	NO	DONALD YTTERBERG	3034328500	3471							332813						39.79434	-105.06527	037537693								FRSL INC		NO	DY@ASTFINISHING.COM	
2013	GEN MGR	GERALD REINSMA	80907RFLXT4350C	AEROFLEX COLORADO SPRINGS	4350 CENTENNIAL BLVD	COLORADO SPRINGS	EL PASO	CO	80907			AEROFLEX COLORADO SPRINGS	4350 CENTENNIAL BLVD	COLORADO SPRINGS	CO		80907	YES	NO	NO	NO	BOB LEE	7195948488	3674							334413						38.89392	-104.85172	795480698								AEROFLEX INC	002050532	NO	BOB.LEE@AEROFLEX.COM	
2013	REGIONAL ENVIRONMENTAL ADVISOR	DOUG HESS	8060WGGRGT1857H	AGGREGATE INDUSTRIES WCR INC - BRIGHTON READY MIX	1857 HWY 85	BRIGHTON	ADAMS	CO	80601			AGGREGATE INDUSTRIES WCR INC - BRIGHTON READY MIX	1687 COLE BLVD SUITE 300	GOLDEN	CO		80401	YES	NO	NO	NO	DOUG HESS	3037165225								327320								041580643								HOLCIM (US) INC	622258929	NO	DOUG.HESS@AGGREGATE-US.COM	
2013	REGIONAL ENVIRONMENTAL ADVISOR	DOUG HESS	80223GGRGT1751S	AGGREGATE INDUSTRIES WCR INC BANNOCK READY MIX PLANT	1751 S BANNOCK ST	DENVER	DENVER	CO	80223			AGGREGATE INDUSTRIES WCR INC BANNOCK READY MIX PLANT	1707 COLE BLVD SUITE 100	GOLDEN	CO		80401	YES	NO	NO	NO	DOUG HESS	3037165225	3273							327320						39.68515	-104.98988	041580643								HOLCIM (US) INC	622258929	NO	DOUG.HESS@AGGREGATE-US.COM	
2013	REGIONAL ENVIRONMENTAL ADVISOR	DOUG HESS	80020GGRGT845CM	AGGREGATE INDUSTRIES WCR INC BROOMFIELD READY MIX PLANT	845 COMPTON ST	BROOMFIELD	BROOMFIELD	CO	80020			AGGREGATE INDUSTRIES WCR INC BROOMFIELD READY MIX PLANT	1707 COLE BLVD SUITE 100	GOLDEN	CO		80401	YES	NO	NO	NO	DOUG HESS	3037165225	3273							327320						39.9277	-105.09878	041580643								HOLCIM (US) INC	622258929	NO	DOUG.HESS@AGGREGATE-US.COM	
2013	REGIONAL ENVIRONMENTAL ADVISOR	DOUG HESS	80112GGRGT8339C	AGGREGATE INDUSTRIES WCR INC CENTENNIAL READY MIX PLANT	8339 CONCORD CENTER DR	ENGLEWOOD	DOUGLAS	CO	80112			AGGREGATE INDUSTRIES WCR INC CENTENNIAL READY MIX PLANT	SUITE 100	GOLDEN	CO		80401	YES	NO	NO	NO	DOUG HESS	3037165225								327320						39.565186	-104.832856	041580643								HOLCIM (US) INC	622258929	NO	DOUG.HESS@AGGREGATE-US.COM	
2013	REGIONAL ENVIRONMENTAL ADVISOR	DOUG HESS	80504GGRGT12WEL	AGGREGATE INDUSTRIES WCR INC DEL CAMINO READY MIX PLANT	10200 WELD COUNTY RD 7	LONGMONT	WELD	CO	80504			AGGREGATE INDUSTRIES WCR INC DEL CAMINO READY MIX PLANT	SUITE 100	GOLDEN	CO		80401	YES	NO	NO	NO	DOUG HESS	3037165225								327320						40.148908	-104.998672	041580643								HOLCIM (US) INC	622258929	NO	DOUG.HESS@AGGREGATE-US.COM	
2013	REGIONAL ENVIRONMENTAL ADVISOR	DOUG HESS	8052WDRKRD3EAST	AGGREGATE INDUSTRIES WCR INC DRAKE READY MIX PLANT	3000 E DRAKE ST	FORT COLLINS	LARIMER	CO	80525			AGGREGATE INDUSTRIES WCR INC DRAKE READY MIX PLANT	1707 COLE BLVD SUITE 100	GOLDEN	CO		80401	YES	NO	NO	NO	DOUG HESS	3037165225								327320						40.55255	-105.13173	041580643								HOLCIM (US) INC	622258929	NO	DOUG.HESS@AGGREGATE-US.COM	
2013	REGIONAL ENVIRONMENTAL ADVISOR	DOUG HESS	80504GGRGT114E3	AGGREGATE INDUSTRIES WCR INC SAND CREEK READY MIX PLANT	11400 E 33RD AVE	AURORA	ARAPAHOE	CO	80010			AGGREGATE INDUSTRIES WCR INC SAND CREEK READY MIX PLANT	1707 COLE BLVE #100	GOLDEN	CO		80401	YES	NO	NO	NO	DOUG HESS	3037165225	3273							327320						39.76387	-104.85469	041580643								HOLCIM (US) INC	622258929	NO	DOUG.HESS@AGGREGATE-US.COM	
2013	EHS MANAGER	KANDACE ALLEN	80301HSRCH5555A	AGILENT TECHNOLOGIES BOULDER CO	5555 AIRPORT BLVD	BOULDER	BOULDER	CO	80301			AGILENT TECHNOLOGIES BOULDER CO	5555 AIRPORT BLVD	BOULDER	CO		80301	YES	NO	NO	NO	AMY FLORES	4083458194	2834							325412						40.03678	-105.22465	084963177								AGILENT TECHNOLOGIES INC	084963177	NO	AMY_FLORES@AGILENT.COM	
2013	DIRECTOR, DOT COMPLIANCE	DAVID GIBBS	81001CLRDX29550	AIRGAS USA LLC	29550 HWY 96 E	PUEBLO	PUEBLO	CO	81001			AIRGAS USA LLC	31 N PEORIA AVE	TULSA	OK		741201633	YES	NO	NO	NO	BRANDON KETCHER	9182956214	5169							424690						38.22903	-104.61391	790441885								AIRGAS INC.	024492860	NO	BRANDON.KETCHER@AIRGAS.COM	
2013	PRESIDENT	ROLAND HEDGLIN	80110MRCNS1600W	AMERICAN STAINLESS STEEL CORP	1600 W YALE AVE	ENGLEWOOD	ARAPAHOE	CO	80110			AMERICAN STAINLESS STEEL CORP	1600 W YALE AVE	ENGLEWOOD	CO		80110	YES	NO	NO	NO	ROLAND HEDGLIN	3037830005	3499							332322						39.66772	-105.00721											NO	ROLAND@AMERICAN-STAINLESS.COM	
2013	GENERAL MANAGER	KEVIN FAHRENKROG	80524NHSRB2351B	ANHEUSER-BUSCH FORT COLLINS BREWERY	2351 BUSCH DR	FORT COLLINS	LARIMER	CO	80524			ANHEUSER-BUSCH FORT COLLINS BREWERY	2351 BUSCH DR	FORT COLLINS	CO		80524	YES	NO	NO	NO	AARON MORTENSEN	9704904635	2082							312120						40.619722	-105.006111	006288799								ANHEUSER-BUSCH INBEV	098630254	NO	AARON.MORTENSEN@ANHEUSER-BUSCH.COM	
2013	PLANT MANAGER	JASON BENEFIELD	80233FTRFM11020	ATLAS ROOFING CORP	11020 LEROY DR	NORTHGLENN	ADAMS	CO	80233			ATLAS ROOFING CORP	11020 LEROY DR	NORTHGLENN	CO		80233	YES	NO	NO	NO	JASON BENEFIELD	3038542305	3086							326150						39.8954	-104.96372									ATLAS ROOFING CORP	045468559	NO	JBENEFIE@ATLASROOFING.COM	
2013	VP OF WORLDWIDE MANUFACTURING	THOMAS ROFF	80906HNYWL1150E	ATMEL CORP	1150 E CHEYENNE MOUNTAIN BLVD	COLORADO SPRINGS	EL PASO	CO	80906			ATMEL CORP	1150 E CHEYENNE MOUNTAIN BLVD	COLORADO SPRINGS	CO		80906	YES	NO	NO	NO	DAVID HELMER	7195401664	3674							334413						38.789842	-104.82458	081474710	121385264									NO	DAVID.HELMER@ATMEL.COM	
2013	SENIOR MANAGER, WORKPLACE SERVICES	STEVEN WOLLEY	80525GLNTT4380S	AVAGO TECHNOLOGIES INC FORT COLLINS COLORADO	4380 ZIEGLER RD	FORT COLLINS	LARIMER	CO	80525			AVAGO TECHNOLOGIES INC FORT COLLINS COLORADO	4380 ZIEGLER RD	FORT COLLINS	CO		80525	YES	NO	NO	NO	DAN JOLLIFF	9702884023	3674							334413						40.5236	-105.02021	610719465								AVAGO TECHNOLOGIES		NO	DAN.JOLLIFF@AVAGOTECH.COM	
2013	PE	JOHN WAITES	80906VXCRP2435E	AVX CORP	2435 EXECUTIVE CIR	COLORADO SPRINGS	EL PASO	CO	80906			AVX CORP	2435 EXECUTIVE CIR	COLORADO SPRINGS	CO		80906	YES	NO	NO	NO	PATRICK NAUGHTON	7195763510	3675							334414						38.79014	-104.79148	058895921								KYOCERA INTERNATIONAL INC		NO	PAT.NAUGHTON@AVX.COM	
2013	VP - CENTRAL OPERATIONS	BRYAN STOVALL	80022BYLSG4400E	AZZ GALVANIZING SERVICES-DENVER	4400 E 61ST AVE	COMMERCE CITY	ADAMS	CO	80022			AZZ GALVANIZING SERVICES-DENVER	4400 E 61ST AVE	COMMERCE CITY	CO		80022	YES	NO	NO	NO	JASON PENCE	8178100095	3479							332812						39.80727	-104.9365	007063290								AZZ INC	008012148	NO	JASONPENCE@AZZ.COM	
2013	DIRECTOR, EHS	JOETTE BAILEY-KEOWN	80403BLLPC4525I	BALL METAL BEVERAGE CONTAINER CORP	4525 INDIANA ST	GOLDEN	JEFFERSON	CO	804031850			BALL METAL BEVERAGE CONTAINER CORP	9300 W 108TH CIR	BROOMFIELD	CO		80021	YES	NO	NO	NO	SCOTT MCCARTY	3034605774	3411							332431						39.77871	-105.16538	067306613								BALL CORP	006419147	NO	SMCCARTY@BALL.COM	
2013	ENVIRONMENTAL CONSULTANT	NORMITA CALLISON	8021WBSLTX49RAC	BASALITE	4900 RACE ST	DENVER	DENVER	CO	802162242			BASALITE	4900 RACE ST	DENVER	CO		80216-2242	YES	NO	NO	NO	DON AUSTIN	7076781901								327331						39.78566	-104.9635	884080073								PACIFIC COAST BUILDING PRODUCTS	129072125	NO	DON.AUSTIN@PACCOAST.COM	
2013	EHS SENIOR SPECIALIST	GEORGE ANDIS	80201CHMRX10601	BASF CORP	10601 FULTON ST	BRIGHTON	ADAMS	CO	80601			BASF CORP	10601 FULTON ST	BRIGHTON	CO		80601	YES	NO	NO	NO	JASON NORFLEET	3032277070	2891							325520						39.88956	-104.86992	151345444								BASF CORP	071014385	NO	JASON.NORFLEET@BASF.COM	
2013	OPERATIONS MANAGER	DAVE CAPORICCI	80125BRLBS8227B	BEST BLOCK DENB	8227 BLAKELAND DR	LITTLETON	DOUGLAS	CO	80125			BEST BLOCK DENB	8227 BLAKELAND DR	LITTLETON	CO		80125	YES	NO	NO	NO	DAVID CAPORICCI	7196712293	3271							327331						39.56005	-105.04071											NO	DCAPORICCI@COLORADOBESTBLOCK.COM	
2013	OPERATIONS MANAGER	DAVE CAPORICCI	81003BRLBS27NFW	BEST BLOCK PUBB	2662 N FWY	PUEBLO	PUEBLO	CO	81003			BEST BLOCK PUBB	2662 N FWY	PUEBLO	CO		81003	YES	NO	NO	NO	DAVID CAPORICCI	7196712293	3271							327331						38.295956	-104.607177											NO	DCAPORICCI@COLORADOBESTBLOCK.COM	
2013	RISK MANAGER	ED FOSTER	8040WBSTWY1888H	BESTWAY CONCRETE CO -JEFFCO	10888 HWY 93	GOLDEN	JEFFERSON	CO	80403			BESTWAY CONCRETE CO -JEFFCO	301 CENTENNIAL DR	MILLIKEN	CO		80543	YES	NO	NO	NO	ED FOSTER	9705876911								327320						39.888319	-105.24111	614287006										NO	EDFOSTER@BESTWAYCONCRETE.COM	
2013	RISK MANAGER	ED FOSTER	8012WBSTWY9681T	BESTWAY CONCRETE CO TITAN	9681 TITAN PARK CIR	LITTLETON	DOUGLAS	CO	80125			BESTWAY CONCRETE CO TITAN	301 CENTENNIAL DR	MILLIKEN	CO		80543	YES	NO	NO	NO	ED FOSTER	9705876911								327320						39.50271	-105.02046	614287006										NO	EDFOSTER@BESTWAYCONCRETE.COM	
2013	RISK MANAGER	ED FOSTER	8060WBSTWY11723	BESTWAY CONCRETE CO-BRIGHTON	11723 WCR #2	BRIGHTON	WELD	CO	80601			BESTWAY CONCRETE CO-BRIGHTON	301 CENTENNIAL DR	MILLIKEN	CO		80543	YES	NO	NO	NO	ED FOSTER	9705876911								327320						40.000407	-104.833957	614287006										NO	EDFOSTER@BESTWAYCONCRETE.COM	
2013	RISK MANAGER	ED FOSTER	8021WBSTWY591YR	BESTWAY CONCRETE CO-DENVER	5901 YORK ST	DENVER	ADAMS	CO	80216			BESTWAY CONCRETE CO-DENVER	301 CENTENNIAL DR	MILLIKEN	CO		80543	YES	NO	NO	NO	ED FOSTER	9705876911								327320						39.80403	-104.9593	614287006										NO	EDFOSTER@BESTWAYCONCRETE.COM	
2013	RISK MANAGER	ED FOSTER	8063WBSTWY3279W	BESTWAY CONCRETE CO-GREELEY	30279 WCR 27	GREELEY	WELD	CO	80634			BESTWAY CONCRETE CO-GREELEY	301 CENTENNIAL DR	MILLIKEN	CO		80543	YES	NO	NO	NO	ED FOSTER	9705876911								327320								614287006										NO	EDFOSTER@BESTWAYCONCRETE.COM	
2013	RISK MANAGER	ED FOSTER	8050WBSTWY1141W	BESTWAY CONCRETE CO-LONGMONT	11401 WCR 9 3/4	LONGMONT	WELD	CO	80501			BESTWAY CONCRETE CO-LONGMONT	301 CENTENNIAL DR	MILLIKEN	CO		80543	YES	NO	NO	NO	ED FOSTER	9705876911								327320								614287006										NO	EDFOSTER@BESTWAYCONCRETE.COM	
2013	CHIEF EXECUTIVE OFFICER	MARK SWANSON	80030BRKCR6815G	BIRKO CORP	9152 YOSEMITE ST	HENDERSON	ADAMS	CO	80640			BIRKO CORP	9152 YOSEMITE ST	HENDERSON	CO		80640	YES	NO	NO	NO	MARK SWANSON	3032891090	2842	2841						325611						39.86265	-104.8843	005995402										NO	MSWANSON@BIRKOCORP.COM	
2013	EHS MANAGER	MICHAEL SATTLER	80022KCHPR4310E	BKEP MATERIALS LLC - DENVER	4310 E 60TH AVE	COMMERCE CITY	ADAMS	CO	80022			BKEP MATERIALS LLC - DENVER	4310 E 60TH AVE	COMMERCE CITY	CO		80022	YES	NO	NO	NO	MIKE SATTLER	3032776204	2951							324121						39.80427	-104.93787									BLUEKNIGHT ENERGY PARTNERS LP		NO	MSATTLER@BKEP.COM	
2013	VICE PRESIDENT AND GM POWER DELIVERY	MARK LUX	81212TLCRP550HW	BLACK HILLS ENERGY - WN CLARK STAT ION	550 HWY 50 W	CANON CITY	FREMONT	CO	81212			BLACK HILLS ENERGY - WN CLARK STAT ION	105 S VICTORIA	PUEBLO	CO		810033432	YES	NO	NO	NO	R. KEVIN HALL	7195466548	4911							221112						38.4347	-105.2507	007920333								BLACK HILLS CORP	007920333	NO	KEVIN.HALL@BLACKHILLSCORP.COM	
2013	PLANT MANAGER	BRET HOMER	80640MNRLF10121	BORAL ROOFING LLC	10121 DALLAS ST	HENDERSON	ADAMS	CO	80640			BORAL ROOFING LLC	10121 DALLAS ST	HENDERSON	CO		80640	YES	NO	NO	NO	TIM KUNSTEL	2099926066	3272							327390						39.88016	-104.87615	002228711								BORAL USA		NO	TIM.KUNSTEL@BORAL.COM	
2013	ENVIRONEMTAL, HEALTH AND SAFETY MANAGER	GLENN SUMMERS	80542BLDRS5983R	BOULDER SCIENTIFIC CO MEAD FACILITY	598 THIRD ST	MEAD	WELD	CO	80542			BOULDER SCIENTIFIC CO MEAD FACILITY	BOX 548	MEAD	CO		80542	YES	NO	NO	NO	GLENN SUMMERS	9705354494	2865	2869	2899					325199						40.238056	-104.998056	077433477								BOULDER SCIENTIFIC CO	077433477	NO	GMSUMMERS@BOULDERSCI.COM	
2013	ENVIRONMENTAL SUPERVISOR	BASIL BEAR	81428BWN2MOLDST	BOWIE NO 2 MINE	43659 BOWIE RD	PAONIA	DELTA	CO	81428			BOWIE NO 2 MINE	PO BOX 1488	PAONIA	CO		81428	YES	NO	NO	NO	WILLIAM A. BEAR JR.	9709295257	1222							212112						38.93268	-107.54603									BOWIE RESOURCES LLC		NO	BBEAR@BOWIERESOURCES.COM	
2013	GENERAL MANAGER OF OPERATIONS	ROBERT LADD	80204CLFRN49SAG	CALIFORNIA EXPANDED METALS CO	490 OSAGE ST	DENVER	DENVER	CO	80204			CALIFORNIA EXPANDED METALS CO	490 OSAGE ST	DENVER	CO		80204	YES	NO	NO	NO	TIM DEVOS	3035723626	3499							332114						39.72341	-105.00557									CALIFORNIA EXPANDED METALS CO		NO	TDEVOS@CEMCOSTEEL.COM	
2013	DIRECTOR MEDIA MANUFACTURING	CHRISTOPHER SCHMACHTENBERGER	80550CRSTR2HWAR	CARESTREAM HEALTH COLORADO	2000 HOWARD SMITH AVE W C42	WINDSOR	WELD	CO	80550			CARESTREAM HEALTH COLORADO	2000 HOWARD SMITH AVE W C42	WINDSOR	CO		80550	YES	NO	NO	NO	CHRISTOPHER L. SCHMACHTENBERGER	9703044712								325992						40.4584	-104.87399	793169512								CARESTREAM HEALTH INC	793169512	NO	CSCHMACHTENBERGER@CARESTREAM.COM	
2013	US DIRECTOR OF OPERATIONS	CHARLES ENGREM	80751FRRBT219RI	CARGILL INC	219 RIGHT-OF-WAY RD	STERLING	LOGAN	CO	80751			CARGILL INC	219 RIGHT-OF-WAY RD	STERLING	CO		80751	YES	NO	NO	NO	GREG WEISJAHN	9529841883	2048							311119						40.58333	-103.1	006249189								CARGILL INC	006249189	NO	GREG_WEISJAHN@CARGILL.COM	
2013	GENERAL MANAGER	BRETT WALTERS	80701XCLCR1505E	CARGILL MEAT SOLUTIONS CORP	1505 E BURLINGTON AVE	FORT MORGAN	MORGAN	CO	80701			CARGILL MEAT SOLUTIONS CORP	CS 4100	FORT MORGAN	CO		80701	YES	NO	NO	NO	RAY PADGETT	9708671589	2011							311611	311612	311613				40.2469	-103.7756	071374854								CARGILL INC	006249189	NO	RAY_PADGETT@CARGILL.COM	
2013	PLANT MANAGER	BRADLEY WILSON	80540STHWS5134U	CEMEX CONSTRUCTION MATERIALS SOUTH LLC	5134 UTE HWY	LYONS	BOULDER	CO	80540			CEMEX CONSTRUCTION MATERIALS SOUTH LLC	PO BOX 529	LYONS	CO		80540	YES	NO	NO	NO	KIMBERLY DENNIS	7132599361	3241							327310	212312					40.202236	-105.236697	189840945								CEMEX INC.	189840945	NO	KIMBERLYB.BRADLEY@CEMEX.COM	
2013	OPERATIONS MANAGER	AXEL THURNER	81052CFMRC500EC	CF MAIER COMPOSITES INC	500 E CRYSTAL ST	LAMAR	PROWERS	CO	81052			CF MAIER COMPOSITES INC	500 E CRYSTAL ST	LAMAR	CO		81052	YES	NO	NO	NO	AXEL THURNER	3032788013	3089							326199						38.10103	-102.61294	622504603								CF MAIER COMPOSITES INC		NO	AXEL@CFMAIER.COM	
2013	VICE PRESIDENT	WALTER THURNER	80403CFMRC16351	CF MAIER COMPOSITES INC	16351 TABLE MOUNTAIN PKWY COORS TECHNOLOGY CENTER	GOLDEN	JEFFERSON	CO	80403			CF MAIER COMPOSITES INC	16351 TABLE MOUNTAIN PKWY COORS TECHNOLOGY CENTER	GOLDEN	CO		80403	YES	NO	NO	NO	AXEL THURNER	3032788013	3089							326199						39.779647	-105.184778	622504603								CF MAIER COMPOSITES INC		NO	AXEL@CFMAIER.COM	
2013	HSE ADVISOR	EMILIO RAMOS	81650CHMPN717BU	CHAMPION TECHNOLOGIES INC	717 BUCKHORN DR	RIFLE	GARFIELD	CO	81650			CHAMPION TECHNOLOGIES INC	717 BUCKHORN DR	RIFLE	CO		81650	YES	NO	NO	NO	TERRY PASKETT	9706250619								424690						39.52216	-107.75347									PERMIAN MUD SERVICE	008204580	NO	DOUG.PASKETT@CHAMP-TECH.COM	
2013	VP OPERATIONS	DANIEL TROJAN	8002WRMSTR64CMP	CHECKERS INDUSTRIAL SAFETY PRODUCTS	640 COMPTON ST	BROOMFIELD	BROOMFIELD	CO	80020			CHECKERS INDUSTRIAL SAFETY PRODUCTS	620 COMPTON ST	BROOMFIELD	CO		80020	YES	NO	NO	NO	WESLEY SHERWOOD	7202213967								325211						39.92655	-105.09883	023714921										NO	WSHERWOOD@CHECKERSINDUSTRIAL.COM	
2013	BUSINESS OPERATIONS MANAGER	KEN SONG	80642CHMCLHUDSO	CHEMICAL & METAL INDUSTRIES INC	23465 CHEM-TECH AVE	HUDSON	WELD	CO	80642			CHEMICAL & METAL INDUSTRIES INC	23465 CHEM-TECH AVE	HUDSON	CO		80642	YES	NO	NO	NO	RICHARD ANGSTADT	3035369800	2819							325180	325188					40.08956	-104.61213	078362837										NO	RICHARD_ANGSTADT@CHEMICALANDMETAL.COM	
2013	CEO	ANDREW COUSIN	80501CRCLG129TH	CIRCLE GRAPHICS INC	120 9TH AVE	LONGMONT	BOULDER	CO	80501			CIRCLE GRAPHICS INC	120 9TH AVE	LONGMONT	CO		80501	YES	NO	NO	NO	ANDREW COUSIN	3039511467	2759							323115						40.17393	-105.09556	001056063										NO	ACOUSIN@CIRCLEGRAPHICSONLINE.COM	
2013	PRESIDENT/OWNER	CHARLES ANDERSON	8050WCRCTS41SSU	CIRCUITS WEST INC	410 S SUNSET ST STE D	LONGMONT	BOULDER	CO	80501			CIRCUITS WEST INC	410 S SUNSET ST STE D	LONGMONT	CO		80501	YES	NO	NO	NO	CHUCK ANDERSON	3037729261								334412						40.15377	-105.12138	082658261										NO	CHUCK@CIRCUITSWEST.COM	
2013	FACILITY GENERAL MANAGER	JOHN KEHOE	80105SFTYK10855	CLEAN HARBORS DEER TRAIL LLC	108555 E HWY 36	DEER TRAIL	ADAMS	CO	80105			CLEAN HARBORS DEER TRAIL LLC	108555 E HWY 36	DEER TRAIL	CO		80105	YES	NO	NO	NO	JOHN KEHOE	9703862293	4953							562211						39.73981	-103.724408	781236539								CLEAN HARBORS INC	157793639	NO	KEHOE.JOHN@CLEANHARBORS.COM	
2013	GENERAL MANAGER	MICHAEL MCDONALD	80438CLMXM9MILE	CLIMAX MOLYBDENUM CO -  HENDERSON MINE	9 MILES W OF EMPIRE	EMPIRE	CLEAR CREEK	CO	80438			CLIMAX MOLYBDENUM CO -  HENDERSON MINE	PO BOX 68	EMPIRE	CO		80438	YES	NO	NO	NO	ERIC KINNEBERG	6023667994	1061							212299						39.75775	-105.831472	041517343								FREEPORT-MCMORAN COPPER & GOLD	187122973	NO	ERIC_KINNEBERG@FMI.COM	
2013	GENERAL MANAGER	ERICH BOWER	8042WCLMXMHIGHW	CLIMAX MOLYBDENUM CO - CLIMAX MINE	HWY 91 - FREMONT PASS	CLIMAX	LAKE	CO	80429			CLIMAX MOLYBDENUM CO - CLIMAX MINE	HWY 91 - FREMONT PASS	CLIMAX	CO		80429	YES	NO	NO	NO	ERIC KINNEBERG	6023667994								212299						39.368668	-106.182976	051619062								FREEPORT-MCMORAN COPPER & GOLD	187122973	NO	ERIC_KINNEBERG@FMI.COM	
2013	GENERAL MANAGER	MICHAEL MCDONALD	80468CLMXM19302	CLIMAX MOLYBDENUM CO HENDERSON MILL	19302 COUNTY RD 3	PARSHALL	GRAND	CO	80468			CLIMAX MOLYBDENUM CO HENDERSON MILL	19302 COUNTY RD 3	PARSHALL	CO		80468	YES	NO	NO	NO	ERIC KINNEBERG	6023667994	1061							212299						39.858306	-106.083374	041517343								FREEPORT-MCMORAN COPPER & GOLD	187122973	NO	ERIC_KINNEBERG@FMI.COM	
2013	BRANCH MANAGER	MARK WAGNER	8060WCMCCT455ID	CMC REBAR BRIGHTON	455 IDA ST	BRIGHTON	ADAMS	CO	80603			CMC REBAR BRIGHTON	455 IDA ST	BRIGHTON	CO		80603	YES	NO	NO	NO	MARK WAGNER	3035581431								332312						40.001202	-104.820428	103112124								COMMERCIAL METALS CO	007925845	NO	MARK.WAGNER@CMC.COM	
2013	GENERAL MANAGER	TOM BARDEN	80216CMCBN5353F	CMC REBAR DENVER	5353 FRANKLIN ST	DENVER	DENVER	CO	80216			CMC REBAR DENVER	PO BOX 16425	DENVER	CO		80216	YES	NO	NO	NO	THOMAS BARDEN	7206445301								332312						39.79385	-104.96875									COMMERCIAL METALS CO	007925845	NO	THOMAS.BARDEN@CMC.COM	
2013	VICE PRESIDENT	GREG MORGAN	80216CBTCN5301N	COBITCO INC	5301 BANNOCK ST	DENVER	ADAMS	CO	802161623			COBITCO INC	5301 BANNOCK ST	DENVER	CO		802161623	YES	NO	NO	NO	GREG MORGAN	3032968575	2951							324121						39.79228	-104.98881	007067994										NO	GREG.MORGAN@COBITCO.COM	
2013	PLANT MANAGER	MICHAEL GWYTHER	80401TRGNN2510T	COLORADO ENERGY NATIONS CO LLLP	1003-VASQUEZ ST	GOLDEN	JEFFERSON	CO	804010088			COLORADO ENERGY NATIONS CO LLLP	PO BOX 4088	GOLDEN	CO		804010088	YES	NO	NO	NO	MICHAEL J GWYTHER	3032775811	4939							221112	221330					39.76039	-105.21565	943141580								GDF-SUEZ ENERGY N.A. INC.		NO	MIKE.GWYTHER@GDFSUEZNA.COM	
2013	GENERAL MANAGER	DIANA REYES	80216CLRDP4747H	COLORADO PAINT CO	4747 HOLLY ST	DENVER	DENVER	CO	80216			COLORADO PAINT CO	4747 HOLLY ST	DENVER	CO		80216	YES	NO	NO	NO	MARILOU BRUCE	3033889265	2851							325510						39.78243	-104.92225	007069057										NO	MARILOU.BRUCE@SWARCO.COM	
2013	CHIEF OPERATIONS OFFICER	CHRISTOPHER THOMPSON	8023WFSTRV391JL	COLORADO SALT PRODUCTS LLC	3910 JOLIET ST	DENVER	DENVER	CO	802393231			COLORADO SALT PRODUCTS LLC	3910 JOLIET ST	DENVER	CO		80239-3231	YES	NO	NO	NO	BRADY HAMILTON	5122788800								325180						39.771774	-104.861094									COLORADO SALT PRODUCTS LLC		NO	BHAMILTON@FSTICHEM.COM	
2013	PLANT SUPERINTENDENT	DAVID OSBORNE	80903MRTND700SC	COLORADO SPRINGS UTILITIES MARTIN DRAKE POWER PLANT	700 S CONEJOS ST	COLORADO SPRINGS	EL PASO	CO	80903			COLORADO SPRINGS UTILITIES MARTIN DRAKE POWER PLANT	PO BOX 1103 MAIL CODE 0940 121 S TEJON STREET, 4TH FLOOR	COLORADO SPRINGS	CO		80947	YES	NO	NO	NO	MARK MURPHY	7196683831	4911							221112						38.8244	-104.8331	122464803								COLORADO SPRINGS UTILITIES	127711760	NO	MMURPHY@CSU.ORG	
2013	PLANT MANAGER	CHARLES ZERINGUE	80817RYNXN14020	COLORADO SPRINGS UTILITIES RAY NIXON POWER PLANT	6598 RAY NIXON RD	FOUNTAIN	EL PASO	CO	80817			COLORADO SPRINGS UTILITIES RAY NIXON POWER PLANT	PO BOX 1103 MC 0940  121 S TEJON STREET, 4TH FLOOR	COLORADO SPRINGS	CO		809470940	YES	NO	NO	NO	MARK MURPHY	7196683831	4911							221112	221320					38.633444	-104.707806	043291306								COLORADO SPRINGS UTILITIES	127711706	NO	MMURPHY@CSU.ORG	
2013	SENIOR VICE PRESIDENT POLICY AND COMPLIANCE	BARBARA WALZ	81641CLWYC5731S	COLOWYO COAL CO LP	5731 STATE HWY 13	MEEKER	RIO BLANCO	CO	81641			COLOWYO COAL CO LP	5731 STATE HWY 13	MEEKER	CO		81641	YES	NO	NO	NO	LEE BOUGHEY	3034526111	1221							212111						40.295937	-107.785792	074839085		COD081474934		C00045161				TRI-STATE GENERATION & TRANSMISSION ASSOC INC.	074839085	NO	LBOUGHEY@TRISTATEGT.ORG	
2013	EHS DIRECTOR	SCOTT DOLAN	81505CRSCR2449R	COORSTEK	2449 RIVERSIDE PKWY	GRAND JUNCTION	MESA	CO	815051383			COORSTEK	2449 RIVERSIDE PKWY	GRAND JUNCTION	CO		81505-1383	YES	NO	NO	NO	ANDREW GOLIKE	9702441102	3264							327110	327113					39.083333	-108.5975	007057334								COORSTEK INC		NO	AGOLIKE@COORSTEK.COM	
2013	MANAGER ENVIRONMENTAL PROTECTION & OPERATIONS	ROBIN LIVINGSTON	80301SYNTX2075N	CORDEN PHARMA COLORADO INC	2075 N 55TH ST	BOULDER	BOULDER	CO	80301			CORDEN PHARMA COLORADO INC	2075 N 55TH ST	BOULDER	CO		80301	YES	NO	NO	NO	DEBRA CAPRA-BOWMAN	3039386369	2833	2869						325411						40.02025	-105.227461	076470525								CORDEN US LLC		NO	DEBRA.CAPRA@CORDENPHARMA.COM	
2013	VICE PRESIDENT & GENERAL MANAGER	RAYMOND DUBOIS	80860CRPPL2755S	CRIPPLE CREEK & VICTOR GOLD MINING CO	1280 HWY 67	VICTOR	TELLER	CO	80860			CRIPPLE CREEK & VICTOR GOLD MINING CO	PO BOX 191	VICTOR	CO		80860	YES	NO	NO	NO	TIMM COMER	7196894055	1041							212221						39.007094	-105.063206									ANGLOGOLD ASHANTI (COLORADO) CORP.		NO	TCOMER@ANGLOGOLDASHANTINA.COM	
2013	INVENTORY/PURCHASING MANAGER	REED PRESSLER	80216CRYST5185N	CRYSTAL PACKAGING INC	5185 NATIONAL WESTERN DR	DENVER	DENVER	CO	80216			CRYSTAL PACKAGING INC	5185 NATIONAL WESTERN DR	DENVER	CO		80216	YES	NO	NO	NO	SCOTT VINCENT	3038657100	2841							325998						39.786772	-104.969776	024599594										NO	SCOTT@CRYSTALPACKAGING.COM	
2013	PLANT MANAGER	VINCENT MOONEY	80701DRYFR2301E	DAIRY FARMERS OF AMERICA INC	2301 E BIJOU AVE	FORT MORGAN	MORGAN	CO	80701			DAIRY FARMERS OF AMERICA INC	800 W TAMPA ST	SPRINGFIELD	MO		65802	YES	NO	NO	NO	VINCENT S. MOONEY	9705420961	2023							311514	311511					40.25249	-103.76671	134563191								DAIRY FARMERS OF AMERICA INC	029855640	NO	VMOONEY@DFAMILK.COM	
2013	VICE PRESIDENT/GENERAL MANAGER	MICHAEL CARROLL	81004DVSWR2100S	DAVIS WIRE PUEBLO LLC	2100 S FWY BLDG 14	PUEBLO	PUEBLO	CO	81004			DAVIS WIRE PUEBLO LLC	PO BOX 3250	PUEBLO	CO		81005	YES	NO	NO	NO	MICHAEL CARROLL	7195663960	3315							331222						38.23327	-104.61255	107174435								THE HEICO COS LLC	057993990	NO	MCARROLL@DAVISWIRE.COM	
2013	LAB MANAGER	DEAN METTLER	80640DLTRC9155B	DELTA ROCKY MOUNTAIN PETROLEUM	9155 BOSTON ST	HENDERSON	ADAMS	CO	80640			DELTA ROCKY MOUNTAIN PETROLEUM	9155 BOSTON ST	HENDERSON	CO		80640	YES	NO	NO	NO	DEAN METTLER	7204076616	2992							324191	325110					39.86274	-104.87932	137562146								GREIF INC	004282661	NO	DEAN.METTLER@DELTACOGROUP.COM	
2013	CHEMIST	ANDREW EBEN	80216DNVRM3100E	DENVER METAL FINISHING	3100 E 43RD AVE	DENVER	DENVER	CO	802164108			DENVER METAL FINISHING	3100 E 43RD AVE	DENVER	CO		80216-4108	YES	NO	NO	NO	LARRY MORGAN	3032951380	3471							332813						39.77639	-104.95035	007058035										NO	LARRY@DENVERMETALFINISHING.COM	
2013	FACILITY/EH&S MANAGER	FRANK FALVO	80132SYNTH1051S	DEPUY SYNTHES	1051 SYNTHES AVE	MONUMENT	EL PASO	CO	80132			DEPUY SYNTHES	1051 SYNTHES AVE	MONUMENT	CO		80132	YES	NO	NO	NO	FRANK FALVO	7194815328	3842							339113						39.07337	-104.86961	780231150								DEPUY SYNTHES	780231150	NO	FALVO.FRANK@SYNTHES.COM	
2013	OWNER	KENNETH RICKER	80538RCKRB6724N	DESIGNS BY RICKER	6724 N FRANKLIN	LOVELAND	LARIMER	CO	80538			DESIGNS BY RICKER	6724 N FRANKLIN	LOVELAND	CO		80538	YES	NO	NO	NO	GARY RICKER	9705936950	3369							331528						40.461329	-105.08539											NO	GARY@RICKER.COM	
2013	EHS	GARY DICKSON	8090WDMNDM355NS	DIAMOND MATERIALSTECHNOLOGY INC	3505 N STONE AVE	COLORADO SPRINGS	EL PASO	CO	80907			DIAMOND MATERIALSTECHNOLOGY INC	3505 N STONE AVE	COLORADO SPRINGS	CO		80907	YES	NO	NO	NO	GARY DICKSON	7195701150								332813						38.88081	-104.81593	042234237										NO	G.DICKSON@DMT-INC.COM	
2013	VICE PRESIDENT / GENERAL MANAGER	DENIS HENROT	80301DTRCH5601N	DIETERICH STANDARD INC	5601 N 71ST ST	BOULDER	BOULDER	CO	80301			DIETERICH STANDARD INC	PO BOX 9000	BOULDER	CO		80301	YES	NO	NO	NO	KATRINA SCHNEIBLE	7206222694	3829							334513						40.078612	-105.188054	006177467								EMERSON ELECTRIC CO	006477467	NO	KATRINA.SCHNEIBLE@EMERSON.COM	
2013	ENVIRONMENTAL AFFAIRS MANAGER	JOY MONTANIO	80642DPCND23500	DPC INDUSTRIES INC	I-76 FRONTAGE RD	HUDSON	WELD	CO	80642			DPC INDUSTRIES INC	PO BOX 24600	HOUSTON	TX		772294600	YES	NO	NO	NO	JOY MONTANIO	2814574835	5169	2819						424690						40.093792	-104.607544	798366763								DX HOLDING CO		NO	JMONTANIO@DXGROUP.COM	
2013	CHIEF FINANCIAL OFFICER	JASON LACHANCE	80916NCRMD1635A	DPIX LLC	1635 AEROPLAZA DR	COLORADO SPRINGS	EL PASO	CO	809163804			DPIX LLC	1635 AEROPLAZA DR	COLORADO SPRINGS	CO		80916-3804	YES	NO	NO	NO	RANDY VANDER MOLEN	7194577770	3674							334413						38.80957	-104.73373	966980773		COD980667059								NO	VANDERM@DPIX.COM	
2013	CHIEF OPERATING OFFICER	DOUGLAS FIERCE	81052RNCHM700EA	DRAGON ESP LLC	700 E CRYSTAL	LAMAR	PROWERS	CO	81052			DRAGON ESP LLC	PO BOX 790	BEAUMONT	TX		77704	YES	NO	NO	NO	DAVID OLSON	7193369041	3715							336212	332420					38.09853	-102.61094	064045347										NO	DAVID.OLSON@MODERNUSA.COM	
2013	CEO/ PRESIDENT	KIRK ELLIS	8060WJPNTN121E1	E J PAINTING & FIBERGLASS	10201 E 107TH PL	BRIGHTON	ADAMS	CO	80601			E J PAINTING & FIBERGLASS	10201 E 107TH PL	BRIGHTON	CO		80601	YES	NO	NO	NO	KIRK ELLIS	3032888373								326199						39.89145	-104.86868	098284086										NO	EJKRK@AOL.COM	
2013	BUSINESS OPERATIONS MANAGER	CHAD CAMPBELL	80011TNLCT245AI	EATON CORP	2450 AIRPORT BLVD UNIT C	AURORA	ADAMS	CO	80011			EATON CORP	2450 AIRPORT BLVD UNIT C	AURORA	CO		80011	YES	NO	NO	NO	CHAD B. CAMPBELL	3033662080	3613							335313	335314					39.754618	-104.791151	004155818								EATON CORP	004155818	NO	CHADBCAMPBELL@EATON.COM	
2013	REGULATORY MANAGER	CATHERINE GRIFFITH	80216FPLYM46HLL	EFI POLYMERS	4600 HOLLY ST	DENVER	DENVER	CO	80216			EFI POLYMERS	4600 HOLLY ST	DENVER	CO		80216	YES	NO	NO	NO	CHARLES HARRIS	3033331876	2851	2891						325991						39.78011	-104.92228	957235757										NO	CHARRIS@EFI-POLYMERS.COM	
2013	VICE-PRESIDENT	DAVID WOLENSKI	8040WLCTRM897TA	ELECTRO-MECHANICAL PRODUCTS INC	897 TABOR ST	LAKEWOOD	JEFFERSON	CO	80401			ELECTRO-MECHANICAL PRODUCTS INC	897 TABOR ST	LAKEWOOD	CO		80401	YES	NO	NO	NO	DAVID J. WOLENSKI	7205397842								332710						39.73163	-105.12947	057490146								ELECTRO-MECHANICAL PRODUCTS INC.	057490146	NO	DAVIDWOLENSKI@EMP-PRODUCTS.COM	
2013	CONSUMER RELATIONS & PRODUCTION ASSOCIATE	AMY LANE	80906LCTRN3025J	ELECTRONICS METAL FINISHING CORP	3025 JANITELL RD	COLORADO SPRINGS	EL PASO	CO	80906			ELECTRONICS METAL FINISHING CORP	3025 JANITELL RD	COLORADO SPRINGS	CO		80906	YES	NO	NO	NO	AMY LANE	7195767733	3499							332999						38.7882	-104.79177	099918120		COT090010844								NO	ALANE@EMFCOPORATION.COM	
2013	PLANT MANAGER	JIM HERNANDEZ	80019MSTRC23655	ELKAY WOOD PRODUCTS CO	23655 E 19TH AVE SUITE 300	AURORA	ADAMS	CO	80019			ELKAY WOOD PRODUCTS CO	23655 E 19TH AVE SUITE 300	AURORA	CO		80019	YES	NO	NO	NO	RICHARD J. LISAC	6305748652								337110						39.74377	-104.71116	005080429								ELKAY MANUFACTURING CO	005080429	NO	RICH.LISAC@ELKAY.COM	
2013	VICE PRESIDENT & GENERAL MANAGER	BENJAMIN LUTZE	81004CFSTL225CA	EVRAZ ROCKY MOUNTAIN STEEL	2100 S FWY	PUEBLO	PUEBLO	CO	81004			EVRAZ ROCKY MOUNTAIN STEEL	PO BOX 316	PUEBLO	CO		81002	YES	NO	NO	NO	BEN LUTZE	7195616080	3312							331111						38.232627	-104.607257	805425675								EVRAZ INC N.A.	009106055	NO	BEN.LUTZE@EVRAZINCNA.COM	
2013	ENV & SAFETY COMPLIANCE ADMINISTRATOR	VALERIE ENCARNANZE	81226SDJBP5880S	FCC FLORENCE	5880 STATE HWY 67 S	FLORENCE	FREMONT	CO	812266500			FCC FLORENCE	FCC FLORENCE, PO BOX 6500	FLORENCE	CO		81226	YES	NO	YES	NO	VALERIE ENCARNANZE	7197849100	9223	2531						922140						38.37832	-105.11103											YES	VENCARNANZE@BOP.GOV	
2013	EHS MANAGER	MONICA MORRIS	80550FRNTR31375	FRONT RANGE ENERGY	31375 GREAT WESTERN DR	WINDSOR	WELD	CO	80550			FRONT RANGE ENERGY	31375 GREAT WESTERN DR	WINDSOR	CO		80550	YES	NO	NO	NO	PHIL TURCHEN	9706742910								325193						40.455978	-104.857553									FRONT RANGE ENERGY LLC		NO	PJTURCHEN@FRONTRANGEENERGY.COM	
2013	EVP OF OPERATIONS	RICHARD MORAN	80020FSNSP2400I	FUSION SPECIALTIES INC	2400 INDUSTRIAL LN	BROOMFIELD	BROOMFIELD	CO	80020			FUSION SPECIALTIES INC	2400 INDUSTRIAL LN	BROOMFIELD	CO		80020	YES	NO	NO	NO	RICHARD MORAN	3035966975	3999							326150						39.92131	-105.09744	153679063								BLUE SAGE CAPITAL		NO	RMORAN@FUSIONSPECIALTIES.COM	
2013	CORPORATE ENVIRONMENTAL MANAGER	KEVIN ADAMS	81004GCCRG3372L	GCC RIO GRANDE INC	3372 LIME RD	PUEBLO	PUEBLO	CO	81004			GCC RIO GRANDE INC	3372 LIME RD	PUEBLO	CO		81004	YES	NO	NO	NO	GINA NANCE	7196476808								327310						38.1507	-104.62595	849004536								GCC OF AMERICA	018941164	NO	GNANCE@GCC.COM	
2013	VICE PRESIDENT OF MANUFACTURING, WESTERN REGI	ANTHONY FABRIZIO	80217RBNSN1845W	GENERAL SHALE BRICK INC	1845 W DARTMOUTH AVE	DENVER	DENVER	CO	80110			GENERAL SHALE BRICK INC	1845 W DARTMOUTH AVE	DENVER	CO		80110	YES	NO	NO	NO	ANTHONY FABRIZIO	3037833041	3251							327120						39.660468	-105.009158	003383361								GENERAL SHALE BRICK INC	003383361	NO	TONY.FABRIZIO@GENERALSHALE.COM	
2013	VP HUMAN RESOURCES	JERRY REED	80621GLDNL1405E	GOLDEN ALUMINUM	1405 E 14TH ST	FORT LUPTON	WELD	CO	80621			GOLDEN ALUMINUM	1405 E 14TH ST	FORT LUPTON	CO		80621	YES	NO	NO	NO	DON FORCHETTE	3036548366	3341	3353						331315						40.09581	-104.80277									LUPTON VENTURES INC		NO	DONFORCHETTE@GOLDENALUMINUM.COM	
2013	BREWERY VP, GOLDEN	PHILIP SAVASTANO	80401DLPHC12THF	GOLDEN BREWERY MILLERCOORS LLC	12TH & FORD ST	GOLDEN	JEFFERSON	CO	804010030			GOLDEN BREWERY MILLERCOORS LLC	PO BOX 4030; MAIL CODE BA320	GOLDEN	CO		804010030	YES	NO	NO	NO	KATHY HAHN-TROXEL	3032776359	2082	3443						312120						39.756667	-105.219167	007057342								MILLERCOORS LLC	827129540	NO	CATHERINE.HAHN-TROXEL@MILLERCOORS.COM	
2013	DIRECTOR OF OPERATIONS	DOUGLAS HAYES	81001BFGDR50WIL	GOODRICH CARBON OPERATIONS	50 WILLIAM WHITE BLVD	PUEBLO	PUEBLO	CO	81001			GOODRICH CARBON OPERATIONS	50 WILLIAM WHITE BLVD	PUEBLO	CO		81001	YES	NO	NO	NO	DOUG HAYES	7199480365	3728							336413						38.276933	-104.523808	182170837								UNITED TECHNOLOGIES CORP	001344142	NO	DOUG.HAYES@UTAS.UTC.COM	
2013	DIRECTOR OF OPERATIONS	BRIAN GUIBERSON	80539HCHC 5600L	HACH CO LOVELAND	5600 LINDBERGH DR	LOVELAND	LARIMER	CO	80538			HACH CO LOVELAND	PO BOX 389	LOVELAND	CO		80539	YES	NO	NO	NO	TONY GREATON	9709626745	3826							334516						40.44769	-105.00142	005286679								DANAHER CORP	024744476	NO	TGREATON@HACH.COM	
2013	SENIOR REGULATORY OFFICIAL	RICHARD HESKETH	80403HRCRS454TA	HARCROS CHEMICALS INC	4504 TABLE MOUNTAIN DR	GOLDEN	JEFFERSON	CO	80403			HARCROS CHEMICALS INC	PO BOX 2930	KANSAS CITY	KS		661102930	YES	NO	NO	NO	JACK CLEARY	9136217891								424690						39.78063	-105.17924									HARCROS CHEMICALS INC.	194128765	NO	JCLEARY@HARCROS.COM	
2013	MANAGER, ENVIRONMENTAL CONTROL	GLENN HUNDERTMARK	81002HRSHC11HAR	HARSCO METALS - PUEBLO	1100 HARLEM CO ROCKY MOUNTAIN STEEL	PUEBLO	PUEBLO	CO	81002			HARSCO METALS - PUEBLO	300 SEVEN FIELDS BLVD	SEVEN FIELDS	PA		16046	YES	NO	NO	NO	GLENN HUNDERTMARK	7247416662	3295							327992						38.24	-104.60111	003952009								HARSCO CORP	003952009	NO		
2013	PLANT MANAGER	STEVEN CORBIERE	8055WHXCLW31815	HEXCEL CORP	31815 GREAT WESTERN DR	WINDSOR	WELD	CO	80550			HEXCEL CORP	31815 GREAT WESTERN DR	WINDSOR	CO		80550	YES	NO	NO	NO	STEVEN CORBIERE	9706869988								325211						40.45783	-104.85841	009118563								HEXCEL CORP	009118563	NO	STEVEN.CORBIERE@HEXCEL.COM	
2013	PLANT MANAGER	SERGIO MARTINEZ-HERNANDEZ	81226HLNMN3500S	HOLCIM (US) INC PORTLAND PLANT	3500 STATE HWY 120	FLORENCE	FREMONT	CO	81226			HOLCIM (US) INC PORTLAND PLANT	3500 STATE HWY 120	FLORENCE	CO		81226	YES	NO	NO	NO	JUSTIN ANDREWS	7192881423	3241							327310						38.386936	-105.039244	007061419								HOLCIM (US) INC	608963674	NO	JUSTIN.ANDREWS@HOLCIM.COM	
2013	SITE DIRECTOR	MATTHEW RESSNER	80301NPRBT4884S	HOSPIRA BOULDER INC	4884 STERLING DR	BOULDER	BOULDER	CO	80301			HOSPIRA BOULDER INC	4876 STERLING DR	BOULDER	CO		80301	YES	NO	NO	NO	MATTHEW RESSNER	3032456339	2833	2834						325411						40.02726	-105.23966	141588017								HOSPIRA INC	141588017	NO	MATTHEW.RESSNER@HOSPIRA.COM	
2013	PRESIDENT AND GENERAL MANAGER	RICK PELLETT	80020HNTRDNEDUE	HUNTER DOUGLAS WINDOW FASHIONS INC	ONE DUETTE WAY	BROOMFIELD	BROOMFIELD	CO	80020			HUNTER DOUGLAS WINDOW FASHIONS INC	ONE DUETTE WAY	BROOMFIELD	CO		80020	YES	NO	NO	NO	GINI MCMAHAN	3038763014	2591							337920						39.9275	-105.10993	046188165								HUNTER DOUGLAS	046188165	NO	GINI.MCMAHAN@HUNTERDOUGLAS.COM	
2013	PRESIDENT	ROBERT WILSON	80002NDLCH4711W	INDUSTRIAL CHEMICALS CORP	4711 W 58TH AVE	ARVADA	ADAMS	CO	80002			INDUSTRIAL CHEMICALS CORP	4711 W 58TH AVE	ARVADA	CO		80002	YES	NO	NO	NO	ALAN BIESEMEIER	3034272727	5169	2851	5171					424690						39.80192	-105.04785									INDUSTRIAL CHEMICAL		NO	BIESEMEIERA@INDUSTRIALCHEMCORP.COM	
2013	VICE PRESIDENT OF OPERATIONS	JAMES COATES	81007NTRST646NS	INTERSTATE CHEMICAL CO INC	646 N STATES AVE	PUEBLO WEST	PUEBLO	CO	81007			INTERSTATE CHEMICAL CO INC	646 N STATES AVE	PUEBLO WEST	CO		81007	YES	NO	NO	NO	TOM BEATTY	7249813771	5169							424690						39.79829	-104.94363	044313443								INTERSTATE CHEMICAL CO INC		NO	TBEATTY@INTERSTATECHEMICAL.COM	
2013	OPERATIONS MANAGER	MARK SCHWARZ	80601LLTCC1095S	INTERTAPE POLYMER GROUP BRIGHTON FACILITY	1095 S FOURTH AVE	BRIGHTON	ADAMS	CO	80601			INTERTAPE POLYMER GROUP BRIGHTON FACILITY	1095 S FOURTH AVE	BRIGHTON	CO		80601	YES	NO	NO	NO	DAVID BENNET	4347978376	2671	2891	3081					322221	322220					39.96946	-104.81938									INTERTAPE POLYMER GROUP		NO	DBENNET@ITAPE.COM	
2013	MANAGER ENGINEERING AND PERMITTING	STEPHANIE FANCHER	80534LVLND2593W	JOHNSTOWN READY MIX	25930 WELD COUNTY RD 13	JOHNSTOWN	WELD	CO	80534			JOHNSTOWN READY MIX	PO BOX 299	LOVELAND	CO		80539	YES	NO	NO	NO	STEPHANIE FANCHER	9706672680	3273							327320						40.377023	-104.94511									LOVELAND READY MIX CONCRETE INC.	007083108	NO	STEPHANIEH@LRMCONCRETE.COM	
2013	ENGINEERING MANAGER	JASON SHELTON	8023WJPLMB11955	JP LAMBORN CO	11095 51ST AVE	DENVER	DENVER	CO	802392511			JP LAMBORN CO	3663 E WAWONA	FRESNO	CA		937259236	YES	NO	NO	NO	JASON SHELTON	5596502120								326199						39.79033	-104.85952	005079103										NO	JSHELTON@JPLFLEX.COM	
2013	DIRECTOR OF OPERATIONS	TOM ROPER	80216KBPCL3600E	KBP COIL COATERS INC	3600 E 44TH AVE	DENVER	DENVER	CO	80216			KBP COIL COATERS INC	3600 E 44TH AVE	DENVER	CO		80216	YES	NO	NO	NO	TOM ROPER	3033937200	3479							332812						39.77764	-104.94478	608154290		COD981543804								NO	TOM93@KAYCAN.COM	
2013	ENVIRONMENTAL ENGINEER	GERRY BRANUM	80110KLPPN2627W	KLOPPENBERG & CO	2627 W OXFORD AVE	SHERIDAN	ARAPAHOE	CO	80110			KLOPPENBERG & CO	2627 W OXFORD AVE	SHERIDAN	CO		80110	YES	NO	NO	NO	SWILLIAMS, OPERATIONS MANAGER	3037611615	3444							332322						39.64228	-105.01887	007069651										NO	SWILLIAMS@KLOPPENBERG.COM	
2013	PLANT MANAGER	DENNIS LOCKETT	81001SHLND250WI	KMG ELECTRONIC CHEMICALS INC	250 WILLIAM WHITE BLVD	PUEBLO	PUEBLO	CO	81001			KMG ELECTRONIC CHEMICALS INC	250 WILLIAM WHITE BLVD	PUEBLO	CO		81001	YES	NO	NO	NO	DENNIS LOCKETT	7199485000	2819							325180	325188					38.276933	-104.523808	801260154								KMG CHEMICALS INC	009744174	NO	DLOCKETT@KMGCHEMICALS.COM	
2013	THERMAL MEDIA MAN. DIV. & PLANT MGR.	STEPHEN KOZAK	80551KDKCLCOUNT	KODAK ALARIS COLORADO	9952 EASTMAN PARK DR	WINDSOR	WELD	CO	80551			KODAK ALARIS COLORADO	9952 EASTMAN PARK DR	WINDSOR	CO		80551	YES	NO	NO	NO	DANIEL MCGINN	9706864038	3861							325992						40.4652	-104.87035	078341658	079090540							KODAK ALARIS INC.	079090540	NO	DANIEL.MCGINN@KODAKALARIS.COM	
2013	PLANT MANAGER	JAMES BURKERT	80216KPPRS5601F	KOPPERS INC (DENVER CO)	465 W 56TH AVE	DENVER	ADAMS	CO	80216			KOPPERS INC (DENVER CO)	465 W 56TH AVE	DENVER	CO		80216	YES	NO	NO	NO	JAMES BURKERT	3032952826	2491							321114						39.79826	-104.99418	007077175								KOPPERS INC	196991582	NO	BURKERTJL@KOPPERS.COM	
2013	GENERAL MANAGER	THOMAS PETERSON	80027KRYPT740SP	KRYPTANE SYSTEMS	740 S PIERCE AVE SUITE 5	LOUISVILLE	BOULDER	CO	80027			KRYPTANE SYSTEMS	740 S PIERCE AVE SUITE 5	LOUISVILLE	CO		80027	YES	NO	NO	NO	THOMAS PETERSON	3036649467	3089							325211						39.95808	-105.12146											NO	TOBYP@KRYPTANE.COM	
2013	PRESIDENT	TOM MURRAY	80214LKWDB1325J	LAKEWOOD BRICK & TILE CO	1325 JAY ST	LAKEWOOD	JEFFERSON	CO	80214			LAKEWOOD BRICK & TILE CO	1325 JAY ST	LAKEWOOD	CO		80214	YES	NO	NO	NO	TOM MURRAY	3032385313	3251							327120						39.73795	-105.06438											NO	TMURRAY@LAKEWOODBRICK.COM	
2013	EHS ENGINEER	CRAIG SEIM	80640PRNML9200E	LAND O'LAKES PURINA FEED LLC - DENVER	9200 E 90TH AVE	HENDERSON	ADAMS	CO	80640			LAND O'LAKES PURINA FEED LLC - DENVER	9200 E 90TH AVE	HENDERSON	CO		80640	YES	NO	NO	NO	BECKY LENTZ	6513755949	2048							311119						39.86004	-104.88147	806578337								LAND O LAKES INC	006253835	NO	RKLENTZ@LANDOLAKES.COM	
2013	DIRECTOR OF SUSTAINABILITY	MARY PARKE	8011WLYNNL7915C	LAYNE INLINER LLC	7915 CHERRYWOOD LOOP	KIOWA	ELBERT	CO	80117			LAYNE INLINER LLC	7915 CHERRYWOOD LOOP	KIOWA	CO		80117	YES	NO	NO	NO	MARY PARKE	2814752572								325991						39.35162	-104.5167									LAYNE CHRISTENSEN CO		NO	MARY.PARKE@LAYNE.COM	
2013	SR. VP TECHNICAL SERVICES	TERRY ANDERSON	80701LPRNF2400E	LEPRINO FOODS CO	2400 E BEAVER AVE	FORT MORGAN	MORGAN	CO	80701			LEPRINO FOODS CO	2400 E BEAVER AVE	FORT MORGAN	CO		80701	YES	NO	NO	NO	KIM DEVIGIL	3034802600	2022	2023						311513						40.249659	-103.765019	007076664								LEPRINO FOODS CO	007076664	NO	KDEVIGIL@LEPRINOFOODS.COM	
2013	SR. VP TECHNICAL SERVICES	TERRY ANDERSON	80631WSTRN13021	LEPRINO FOODS-GREELEY	1302 1ST AVE	GREELEY	WELD	CO	80631			LEPRINO FOODS-GREELEY	1302 1ST AVE	GREELEY	CO		80631	YES	NO	NO	NO	KIM DEVIGIL	3034802600	2063							311513						40.416952	-104.675853	007076664		COD102545787		CO0041360				LEPRINO FOODS CO	007076664	NO	KDEVIGIL@LEPRINOFOODS.COM	
2013	GENERAL MANAGER	LORIN POLLEY	80301LXMRK6555M	LEXMARK INTERNATIONAL INC	6555 MONARCH RD	LONGMONT	BOULDER	CO	80503			LEXMARK INTERNATIONAL INC	6555 MONARCH RD	LONGMONT	CO		80503	YES	NO	NO	NO	SHANNON LYMAN	8592325513	3577							325992						40.0944	-105.20266	623868692										NO	SLYMAN@LEXMARK.COM	
2013	MANAGER ESH	STEVEN SMETANA	80127MRTNM12257	LOCKHEED MARTIN SPACE SYSTEMS CO	12257 S WADSWORTH BLVD	LITTLETON	JEFFERSON	CO	801258500			LOCKHEED MARTIN SPACE SYSTEMS CO	P. O. BOX 179,    MAIL STOP I9080	DENVER	CO		802010179	YES	NO	NO	NO	STEVEN SMETANA	3039774188	3761							336414	336415					39.496342	-105.107588	008972556								LOCKHEED MARTIN CORP	834951691	NO	STEVEN.SMETANA@LMCO.COM	
2013	MANAGER ENGINEERING AND PERMITTING	STEPHANIE FANCHER	8053WLVLND644NC	LOVELAND READY MIX	644 N CR 19E	LOVELAND	LARIMER	CO	80537			LOVELAND READY MIX	PO BOX 299	LOVELAND	CO		80539	YES	NO	NO	NO	STEPHANIE FANCHER	9706672680								327320						40.399392	-105.168434	007083108								LOVELAND READY MIX CONCRETE INC.	007083108	NO	STEPHANIEH@LRMCONCRETE.CO	
2013	V.P./GM	J SAUER	80907MNSTN115TA	MANSTONE INC	115 TALAMINE CT	COLORADO SPRINGS	EL PASO	CO	80907			MANSTONE INC	115 TALAMINE CT	COLORADO SPRINGS	CO		80907	YES	NO	NO	NO	DERMOT KERIN	8605718007	3089							326199						38.87993	-104.82421	116256561										NO	DERMOT.KERIN@TETRATECH.COM	
2013	ENVIRONMENTAL MANAGER	ERIKA SAAD	81001DNPTC1DANE	MARS PETCARE US INC	1 DOANE PL	PUEBLO	PUEBLO	CO	81001			MARS PETCARE US INC	1 DOANE PL	PUEBLO	CO		81001	YES	NO	NO	NO	MICHAEL MOORE	6158074626	2047							311111						38.27966	-104.47527	007134919								MARS INC	003250685	NO	MICHAEL.X.MOORE@EFFEM.COM	
2013	MGR NATURAL RESOURCES	JAMES SHARN	8000WMRTNM54FEN	MARTIN MARIETTA ARVADA READY MIX	5400 FENTON ST	ARVADA	JEFFERSON	CO	80003			MARTIN MARIETTA ARVADA READY MIX	10170 CHURCH RANCH WAY, SUITE 201	WESMINSTER	CO		80021	YES	NO	NO	NO	ERIN KUNKEL	3032532558								327320						39.79829	-105.05915	078504043								MARTIN MARIETTA MATERIALS INC	809750912	NO	ERIN.KUNKEL@MARTINMARIETTA.COM	
2013	MGR NATURAL RESOURCES	JAMES SHARN	80104LFRGW309SG	MARTIN MARIETTA CASTLE ROCK READY MIX	309 S GILBERT ST	CASTLE ROCK	DOUGLAS	CO	80104			MARTIN MARIETTA CASTLE ROCK READY MIX	10170 CHURCH RANCH WAY, SUITE 201	WESTMINSTER	CO		80021	YES	NO	NO	NO	ERIN KUNKEL	3032532558	3273							327320						39.36719	-104.85164	078504043								MARTIN MARIETTA MATERIALS INC	809750912	NO	ERIN.KUNKEL@MARTINMARIETTA.COM	
2013	MGR NATURAL RESOURCES	JAMES SHARN	80014LFRGW2650C	MARTIN MARIETTA CHAMBERS READY MIX	2650 CHAMBERS RD	AURORA	ADAMS	CO	80014			MARTIN MARIETTA CHAMBERS READY MIX	10170 CHURCH RANCH WAY, SUITE 201	WESTMINSTER	CO		80021	YES	NO	NO	NO	ERIN KUNKEL	3032532558	3273							327320						39.75527	-104.809952	078504043								MARTIN MARIETTA MATERIALS INC	809750912	NO	ERIN.KUNKEL@MARTINMARIETTA.COM	
2013	MGR NATURAL RESOURCES	JAMES SHARN	80631LFRGW925N3	MARTIN MARIETTA GREELEY READY MIX	925 N 35TH AVE	GREELEY	WELD	CO	80631			MARTIN MARIETTA GREELEY READY MIX	10170 CHURCH RANCH WAY, SUITE 201	WESTMINSTER	CO		80021	YES	NO	NO	NO	ERIN KUNKEL	3032532558	3273							327320						40.4442	-104.73486	078504043								MARTIN MARIETTA MATERIALS INC	809750912	NO	ERIN.KUNKEL@MARTINMARIETTA.COM	
2013	MGR NATURAL RESOURCES	JAMES SHARN	80204LFRGW1151Q	MARTIN MARIETTA QUIVAS READY MIX	1151 QUIVAS ST	DENVER	DENVER	CO	80204			MARTIN MARIETTA QUIVAS READY MIX	10170 CHURCH RANCH WAYSUITE 201	WESTMINSTER	CO		80021	YES	NO	NO	NO	ERIN KUNKEL	3032532558	3273							327320						39.73461	-105.00778	078504043								MARTIN MARIETTA MATERIALS INC	809750912	NO	ERIN.KUNKEL@MARTINMARIETTA.COM	
2013	MGR NATURAL RESOURCES	JAMES SHARN	80525LFRGW3000S	MARTIN MARIETTA RIGDEN READY MIX	3000 S COUNTY RD 9	FORT COLLINS	LARIMER	CO	80525			MARTIN MARIETTA RIGDEN READY MIX	10170 CHURCH RANCH WAY, SUITE 201	WESTMINSTER	CO		80031	YES	NO	NO	NO	ERIN KUNKEL	3032532558	3273							327320						40.628993	-105.019813	078504043								MARTIN MARIETTA MATERIALS INC	809750912	NO	ERIN.KUNKEL@MARTINMARIETTA.COM	
2013	MGR NATURAL RESOURCES	JAMES SHARN	80026LFRGW1160R	MARTIN MARIETTA ROCK CREEK READY MIX	1160 ROCK CREEK CT	LAFAYETTE	BOULDER	CO	80026			MARTIN MARIETTA ROCK CREEK READY MIX	10170 CHURCH RANCH WAY, SUITE 201	WESTMINSTER	CO		80021	YES	NO	NO	NO	ERIN KUNKEL	3032532558	3273							327320						39.9787	-105.07378	078504043								MARTIN MARIETTA MATERIALS INC	809750912	NO	ERIN.KUNKEL@MARTINMARIETTA.COM	
2013	MGR NATURAL RESOURCES	JAMES SHARN	8012WMRTNM9511T	MARTIN MARIETTA TITAN READY MIX	9511 TITAN PARK CIR	LITTLETON	DOUGLAS	CO	80125			MARTIN MARIETTA TITAN READY MIX	10170 CHURCH RANCH WAY, SUITE 201	WESTMINSTER	CO		80021	YES	NO	NO	NO	ERIN KUNKEL	3032532558								327320						39.50107	-105.01785	078504043								MARTIN MARIETTA MATERIALS INC	809750912	NO	ERIN.KUNKEL@MARTINMARIETTA.COM	
2013	MGR NATURAL RESOURCES	JAMES SHARN	80301LFRGW5959V	MARTIN MARIETTA VALMONT READY MIX	5959 VALMONT DR	BOULDER	BOULDER	CO	80301			MARTIN MARIETTA VALMONT READY MIX	10170 CHURCH RANCH WAYSUITE 201	WESTMINSTER	CO		80021	YES	NO	NO	NO	ERIN KUNKEL	3032532558	3273							327320						40.0293	-105.21384	078504043								MARTIN MARIETTA MATERIALS INC	809750912	NO	ERIN.KUNKEL@MARTINMARIETTA.COM	
2013	DIRECTOR OF ENV. COMPLIANCE	JAMES MURPHREE	80501MNSCR1861L	MATHESON TRIGAS LONGMONT CO BRANCH	1861 LEFTHAND CIR	LONGMONT	BOULDER	CO	80501			MATHESON TRIGAS LONGMONT CO BRANCH	1861 LEFTHAND CIR	LONGMONT	CO		80501	YES	NO	NO	NO	JIM HENDRICKSON	3036780700	2819							325180	325188					40.14096	-105.1248	179092028								TAIYO NIPPON SANSO USA INC	690567987	NO	JHENDRICKSON@MATHESONGAS.COM	
2013	GENERAL MANAGER	TONY WORKMAN	80537MTLCS5118T	METAL CASTINGS OF COLORADO INC	511 8TH ST SE	LOVELAND	LARIMER	CO	80537			METAL CASTINGS OF COLORADO INC	511 8TH ST SE	LOVELAND	CO		80537	YES	NO	NO	NO	TONY WORKMAN	9702272095	3366							331525						40.3856	-105.06948	067298372										NO	TONY@ARTCASTINGS.COM	
2013	PLANT MANAGER	EUGENE BOCIS	80550MTLCN12011	METAL CONTAINER CORPORTION - WINDSOR CAN PLANT	1201 METAL CONTAINER CT	WINDSOR	WELD	CO	805503309			METAL CONTAINER CORPORTION - WINDSOR CAN PLANT	1201 METAL CONTAINER CT	WINDSOR	CO		80550-3309	YES	NO	NO	NO	GENE BOCIS	9706861599	3411							332431						40.466533	-104.862276	066910464								ANHEUSER-BUSCH INBEV	098630254	NO	EUGENE.BOCIS@ANHEUSER-BUSCH.COM	
2013	V.P. GLOBAL OPERATIONS & SUPPLY CHAIN	JAMES HALE	80301MCRMT7070W	MICRO MOTION INC	7070 WINCHESTER CIR	BOULDER	BOULDER	CO	80301			MICRO MOTION INC	7070 WINCHESTER CIR	BOULDER	CO		80301	YES	NO	NO	NO	JOEL POMERLEAU	3035308072	3824							334514						40.07893	-105.18985	067295808								EMERSON ELECTRIC CO	067294808	NO	JOEL.POMERLEAU@EMERSONPROCESS.COM	
2013	VICE PRESIDENT OF  MANUFACTURING	THOMAS MACHINGO	80239MLHGH11100	MILE HIGH EQUIPMENT LLC	11100 E 45TH AVE	DENVER	DENVER	CO	80239			MILE HIGH EQUIPMENT LLC	11100 E 45TH AVE	DENVER	CO		80239	YES	NO	NO	NO	MARK LANCASTER	3035763007	3585							333415						39.77869	-104.85869	007434608								SCOTSMAN INDUSTRIES INC	364466284	NO	MARK.LANCASTER@ICEOMATIC.COM	
2013	SENIOR SHEC SPECIALIST	LEO HICKAM	81505CLTTT2306H	MINOVA USA INC	2306 HWY 6 & 50	GRAND JUNCTION	MESA	CO	81505			MINOVA USA INC	2306 HWY 6 & 50	GRAND JUNCTION	CO		81505	YES	NO	NO	NO	LEONARD HICKAM	5028636800	3087							325991						39.098055	-108.625	085282804								MINOVA HOLDING INC	130382588	NO	LEO.HICKAM@MINIVAINT.COM	
2013	VICE PRESIDENT OF HUMAN RESOURCES	CATHERINE LANGTRY	80301MKSNS5330S	MKS INSTRUMENTS INC HPS PRO DUCTS DIV	5330 STERLING DR	BOULDER	BOULDER	CO	80301			MKS INSTRUMENTS INC HPS PRO DUCTS DIV	5330 STERLING DR	BOULDER	CO		80301	YES	NO	NO	NO	DAVID DEBOLT	7205622452	3494							332999						40.02816	-105.2292	001053982								MKS INSTRUMENTS INC	001053982	NO	DAVE_DEBOLT@MKSINST.COM	
2013	ATTORNEY-IN-FACT	JORGE VELARDE	8061WMLTCH1CHRI	MULTI-CHEM GROUP EATON CO FACILITY	100 CHRISTENSEN AVE	EATON	WELD	CO	80615			MULTI-CHEM GROUP EATON CO FACILITY	PO BOX 718	MAURICE	LA		70555	YES	NO	NO	NO	ANDREA WALLIS	3375174100								424690						40.54281	-104.69656	964798508								HALLIBURTON ENERGY SERVICES INC.	043296920	NO	ANDREA.WALLIS@HALLIBURTON.COM	
2013	ATTORNEY-IN-FACT	JORGE VELARDE	8150WMLTCH73123	MULTI-CHEM GROUP GRAND JUNCTION CO FACILITY	731 23 1/4 RD BLG B	GRAND JUNCTION	MESA	CO	81501			MULTI-CHEM GROUP GRAND JUNCTION CO FACILITY	PO BOX 718	MAURICE	LA		70555	YES	NO	NO	NO	ANDREA WALLIS	3375174100								424690						39.11135	-108.623371	964798508								HALLIBURTON ENERGY SERVICES INC.	043296920	NO	ANDREA.WALLIS@HALLIBURTON.COM	
2013	DIRECTOR OF EHS SERVICES	MICHAEL KEY	80528MSKTW23HWA	MUSKET WINDSOR TRANSLOADING FACILITY	2030 HOWARD SMITH AVE E	WINDSOR	WELD	CO	80528			MUSKET WINDSOR TRANSLOADING FACILITY	2030 HOWARD SMITH AVE E	WINDSOR	CO		80528	YES	NO	NO	NO	MICHAEL KEY	4053026640								424710								033040353								LOVES TRAVEL STOP & COUNTRY STORES INC.	033040353	NO	MICHAEL.KEY@LOVES.COM	
2013	HSE ADVISOR	EMILIO RAMOS	8073WNLCGR29WES	NALCO GREELEY	2900 W F ST	GREELEY	WELD	CO	80631			NALCO GREELEY	2900 W F ST	GREELEY	CO		80631	YES	NO	NO	NO	OSCAR CHAVAEZ	9705907654								424690						40.441118	-104.727124									NALCO HOLDING CO	004962403	NO	OCHAVEZ1@NALCO.COM	
2013	SAFETY HEALTH AND ENVIRONMENT DIVISION CHIEF	BRIAN BRASS	80305NTNLN325BR	NATIONAL INSTITUTE OF STANDARD&TECHNOLOGY BOULDER	325 BROADWAY, MC 173.02	BOULDER	BOULDER	CO	80305			NATIONAL INSTITUTE OF STANDARD&TECHNOLOGY BOULDER	325 BROADWAY, MC 173.02	BOULDER	CO		80305	YES	NO	YES	NO	VIRGINIA HOLTZMAN-BELL	3034976673								921190	541380					39.996732	-105.261371									NATIONAL INSTITUTE OF STANDARDS & TECHNOLOGY		YES	VIRGINIA.HOLTZMAN-BELL@NIST.GOV	
2013	SAFETY HEALTH AND ENVIRONMENT DIVISION CHIEF	BRIAN BRASS	8052WNTNLN2EAST	NATIONAL INSTITUTE OF STANDARDS & TECHNOLOGY WWV/WWVB	2000 E COUNTY RD 58	FORT COLLINS	LARIMER	CO	80524			NATIONAL INSTITUTE OF STANDARDS & TECHNOLOGY WWV/WWVB	325 BROADWAY, MC 847.00	BOULDER	CO		80305	YES	NO	YES	NO	MATTHEW DEUTCH	3034973914								515112	921190					40.66825	-105.039128	182806836								NATIONAL INSTITUTE OF STANDARDS & TECHNOLOGY		YES	MATTHEW.DEUTCH@NIST.GOV	
2013	PLANT MANAGER	LOUIS THOMAS	80216RLSTN4555Y	NESTLE - PURINA PETCARE CO	4555 YORK ST	DENVER	DENVER	CO	80216			NESTLE - PURINA PETCARE CO	4555 YORK ST	DENVER	CO		80216	YES	NO	NO	NO	DOUGLAS BALL	3033916330	2047							311111						39.779477	-104.95937	006266811								NESTLE  PURINA PETCARE CO	006266811	NO	DOUGLAS.BALL@PURINA.NESTLE.COM	
2013	SENIOR VICE PRESIDENT POLICY AND COMPLIANCE	BARBARA WALZ	8142WNWHRZ27646	NEW HORIZON MINE	27646 W 5TH AVE	NUCLA	MONTROSE	CO	81424			NEW HORIZON MINE	PO BOX 628	NUCLA	CO		814240628	YES	NO	NO	NO	LEE BOUGHEY	3034526111								212111						38.2688	-108.55892	074839085								TRI-STATE GENERATION & TRANSMISSION ASSOC INC.	074839085	NO	LBOUGHEY@TRISTATEGT.ORG	
2013	FACILITY MANAGER	MICHAEL VAN DYKE	80216SHLND156W5	NEXEO SOLUTIONS LLC	156 W 56TH AVE	DENVER	ADAMS	CO	80216			NEXEO SOLUTIONS LLC	5200 BLAZER PKWY EH&S DS-4	DUBLIN	OH		43017	YES	NO	NO	NO	DAN HEINTZ	2812970696	5169							424690						39.79824	-104.99043									NEXEO SOLUTIONS HOLDINGS LLC	078346156	NO	DHEINTZ@NEXEOSOLUTIONS.COM	
2013	OPERATIONS MANAGER	JOHN MOORE	80201THMPS6030N	NORTHWEST PIPE CO	6030 N WASHINGTON	DENVER	ADAMS	CO	80216			NORTHWEST PIPE CO	6030 N WASHINGTON	DENVER	CO		80216	YES	NO	NO	NO	JOHN C MOORE	3032894080	3498							331210						39.80686	-104.97808	003993060								NORTHWEST PIPE CO	003993060	NO	JCMOORE@NWPIPE.COM	
2013	ENVIRONMENTAL COMPLIANCE MANAGER	PAUL SPANGENBERG	8100WNLSTL319LC	O'NEAL MANUFACTURING SERVICES	319 LOCKHEED ST	PUEBLO	PUEBLO	CO	81001			O'NEAL MANUFACTURING SERVICES	319 LOCKHEED ST	PUEBLO	CO		81001	YES	NO	NO	NO	ERIC WORLEY	2055998000								332999						38.2796	-104.48258	003396959								O'NEAL STEEL INC		NO	EWORLEY@ONEALSTEEL.COM	
2013	DIRECTOR OF ENVIRONMENTAL	CARL WUITSCHICK	80125LDCST8392R	OLDCASTLE PRECAST INC	8392 RIVERVIEW PKWY	LITTLETON	DOUGLAS	CO	80125			OLDCASTLE PRECAST INC	8392 RIVERVIEW PKWY	LITTLETON	CO		80125	YES	NO	NO	NO	CARL WUITSCHICK	2538332777	3272							327390						39.559747	-105.043978	867853889								OLDCASTLE INC	037176591	NO	CARL.WUITSCHICK@OLDCASTLEPRECAST.COM	
2013	DIRECTOR OF ENVIRONMENTAL	CARL WUITSCHICK	8065WLDCST427NF	OLDCASTLE PRECAST INC	427 N FRONT ST	PLATTEVILLE	WELD	CO	80651			OLDCASTLE PRECAST INC	427 N FRONT ST	PLATTEVILLE	CO		80651	YES	NO	NO	NO	CARL WUITSCHICK	2538332777								327332						40.22545	-104.81894									OLDCASTLE INC	037176591	NO	CARL.WUITSCHICK@OLDCASTLEPRECAST.COM	
2013	SITE LEADER	TIMOTHY BOLD	80216WNSCR5201F	OWENS CORNING ROOFING & ASPHALT LLC	5201 FOX ST	DENVER	ADAMS	CO	80216			OWENS CORNING ROOFING & ASPHALT LLC	5201 FOX ST	DENVER	CO		80216	YES	NO	NO	NO	JERRI FAJARDO	3032965445	2952							324122						39.79382	-104.99497	001747559								OWENS CORNING	001317452	NO	JERRI.FAJARDO@OWENSCORNING.COM	
2013	SITE LEADER	TIMOTHY BOLD	80216WNSCR5201B	OWENS CORNING ROOFING & ASPHALT LLC	5201 BANNOCK ST	DENVER	ADAMS	CO	80216			OWENS CORNING ROOFING & ASPHALT LLC	5201 BANNOCK ST	DENVER	CO		80216	YES	NO	NO	NO	JERRI FAJARDO	3032965445	2952							324121						39.79141	-104.98901	095151320								OWENS CORNING	001317452	NO	JERRI.FAJARDO@OWENSCORNING.COM	
2013	ENVIRONMENTAL AFFAIRS MANAGER	DORRANCE PHILLIPS	80631WNSBR11133	OWENS-BROCKWAY GLASS CONTAINER INC PLANT 28	11133 COUNTY RD 64 3/4	GREELEY	WELD	CO	80631			OWENS-BROCKWAY GLASS CONTAINER INC PLANT 28	11133 COUNTY RD 64 3/4	GREELEY	CO		80631	YES	NO	NO	NO	BARBARA OWENS	5673365585								327213						40.45158	-104.81159	616168472								OWENS-ILLINOIS INC	005034566	NO	BARBARA.OWENS@O-I.COM	
2013	TERMINALS DIVISION MANAGER	DAVID OSBURN	80022PHLLP3960E	PHILLIPS 66 CO DENVER TERMINAL	3960 E 56TH AVE	COMMERCE CITY	ADAMS	CO	80022			PHILLIPS 66 CO DENVER TERMINAL	3960 E 56TH AVE	COMMERCE CITY	CO		80022	YES	NO	NO	NO	DENNIS NUSS	8327651850	5171							424710						39.79765	-104.93853	078378508								PHILLIPS 66 CO	078378508	NO	DENNIS.H.NUSS@P66.COM	
2013	TERMINALS DIVISION MANAGER	DAVID OSBURN	81050PHLLP31601	PHILLIPS 66 CO LA JUNTA TERMINAL	31601 E HWY 50	LA JUNTA	OTERO	CO	81050			PHILLIPS 66 CO LA JUNTA TERMINAL	31601 E HWY 50	LA JUNTA	CO		81050	YES	NO	NO	NO	RICH JOHNSON JR	8327651016	5171							424710						37.991838	-103.496585									PHILLPS 66 CO	078378508	NO	RICH.JOHNSON@P66.COM	
2013	MANAGER, AIR QUALITY COMPLIANCE	GARY MAGNO	80223PBLCS2601S	PUBLIC SERVICE CO OF COLORADO ARAPAHOE STATION	2601 S PLATTE RIVER DR	DENVER	DENVER	CO	80223			PUBLIC SERVICE CO OF COLORADO ARAPAHOE STATION	1800 LARIMER STREET, SUITE 1300	DENVER	CO		80202	YES	NO	NO	NO	PAM BUTLER	3032942154	4911							221112						39.66915	-104.99942	006915953								XCEL ENERGY	848381245	NO	PAM.H.BUTLER@XCELENERGY.COM	
2013	MANAGER, AIR QUALITY COMPLIANCE	GARY MAGNO	80216PBLCS6198F	PUBLIC SERVICE CO OF COLORADO CHEROKEE STATION	6198 FRANKLIN ST	DENVER	ADAMS	CO	80216			PUBLIC SERVICE CO OF COLORADO CHEROKEE STATION	1800 LARIMER STREET, SUITE 1300	DENVER	CO		80202	YES	NO	NO	NO	PAM BUTLER	3032942154	4911							221112						39.807769	-104.964802	006915953								XCEL ENERGY	848381245	NO	PAM.H.BUTLER@XCELENERGY.COM	
2013	MANAGER, AIR QUALITY COMPLIANCE	GARY MAGNO	81006PBLCS2005L	PUBLIC SERVICE CO OF COLORADO COMANCHE STATION	2005 LIME RD	PUEBLO	PUEBLO	CO	81006			PUBLIC SERVICE CO OF COLORADO COMANCHE STATION	1800 LARMIER STREET, SUITE 1300	DENVER	CO		80202	YES	NO	NO	NO	PAM BUTLER	3032942154	4911							221112						38.201929	-104.57088	006915953								XCEL ENERGY	848381245	NO	PAM.H.BUTLER@XCELENERGY.COM	
2013	MANAGER, AIR QUALITY COMPLIANCE	GARY MAGNO	81639PBLCS12795	PUBLIC SERVICE CO OF COLORADO HAYDEN STATION	13125 HWY 40	HAYDEN	ROUTT	CO	81639			PUBLIC SERVICE CO OF COLORADO HAYDEN STATION	1800 LARIMER STREET, SUITE 1300	DENVER	CO		80202	YES	NO	NO	NO	PAM BUTLER	3032942154	4911							221112						40.487122	-107.185669	006915953								XCEL ENERGY	848381245	NO	PAM.H.BUTLER@XCELENERGY.COM	
2013	MANAGER, AIR QUALITY COMPLIANCE	GARY MAGNO	80723PBLCS14940	PUBLIC SERVICE CO OF COLORADO PAWNEE STATION	14940 COUNTY RD 24	BRUSH	MORGAN	CO	80723			PUBLIC SERVICE CO OF COLORADO PAWNEE STATION	1800 LARIMER STREET, SUITE 1300	DENVER	CO		80202	YES	NO	NO	NO	PAM BUTLER	3032942154	4911							221112						40.220084	-103.678999	006915953								XCEL ENERGY	848381245	NO	PAM.H.BUTLER@XCELENERGY.COM	
2013	MANAGER, AIR QUALITY COMPLIANCE	GARY MAGNO	80302PBLCS1800N	PUBLIC SERVICE CO OF COLORADO VALMONT STATION	1800 N 63RD ST	BOULDER	BOULDER	CO	80301			PUBLIC SERVICE CO OF COLORADO VALMONT STATION	1800 LARIMER STREET, SUITE 1300	DENVER	CO		80202	YES	NO	NO	NO	PAM BUTLER	3032942154	4911							221112						40.0197	-105.202	006915953		COD980635908		CO0001112				XCEL ENERGY	848381245	NO	PAM.H.BUTLER@XCELENERGY.COM	
2013	EHS ENGINEER	CRAIG SEIM	8002WPRNML6151B	PURINA MILLS LLC	6151 BRIGHTON BLVD	COMMERCE CITY	ADAMS	CO	80022			PURINA MILLS LLC	6151 BRIGHTON BLVD	COMMERCE CITY	CO		80022	YES	NO	NO	NO	BECKY LENTZ	6513755949								311119						39.80944	-104.93914	806578337								LAND O LAKES INC	806578337	NO	RKLENTZ@LANDOLAKES.COM	
2013	PRESIDENT	DEBORA WADLE	80916QLTYC1635S	QUALITY CONCEPTS MANUFACTURING INC	1635 S MURRAY BLVD	COLORADO SPRINGS	EL PASO	CO	809164502			QUALITY CONCEPTS MANUFACTURING INC	1635 S MURRAY BLVD	COLORADO SPRINGS	CO		80916-4502	YES	NO	NO	NO	DEBORA WADLE	7195741013	3999							334418						38.810124	-104.749979	612352179										NO	DEBBIE@QCMI.COM	
2013	DIRECTOR OF ENERGY, EFFICIENCY,ANDENVIRONMENT	CHRISTOPHER FAGNANT	80907MXCRM4230N	QUALTEK MANUFACTURING INC	4230 N NEVADA AVE	COLORADO SPRINGS	EL PASO	CO	80907			QUALTEK MANUFACTURING INC	4230 N NEVADA AVE	COLORADO SPRINGS	CO		80907	YES	NO	NO	NO	CHRISTOPHER FAGNANT	7195983394	3469	3398	3471					332119	332811	332813	332116			38.891666	-104.827777	926929092										NO	CFAGNANT@QUALTEKMFG.COM	
2013	GENERAL MANAGER	KIM SZIDON	80524RNCHW416LI	RANCH-WAY FEED MILLS	416 LINDEN ST	FORT COLLINS	LARIMER	CO	80524			RANCH-WAY FEED MILLS	PO BOX 2026	FORT COLLINS	CO		80522	YES	NO	NO	NO	KIM SZIDON	9704821662	2048							311119						40.5906	-105.07238	792233314								RANCH-WAY INC	792233314	NO	KSIDON@RANCH-WAY.COM	
2013	CHIEF OPERATING OFFICER	JASON FRISBIE	80549RWHDN2700E	RAWHIDE ENERGY STATION	2700 E COUNTY RD 82	WELLINGTON	LARIMER	CO	805492105			RAWHIDE ENERGY STATION	2000 E HORSETOOTH RD	FORT COLLINS	CO		805255721	YES	NO	NO	NO	JON LITTLE	9702295352	4911							221112						40.86004	-105.02691	075759948								PLATTE RIVER POWER AUTHORITY	075759948	NO	LITTLEJ@PRPA.ORG	
2013	GENERAL MANAGER	ROBERT HAUN	8013WRDYMX5775A	READY MIXED CONCRETE - PLANT 13	5775 AIRPORT RD	SEDALIA	DOUGLAS	CO	80135			READY MIXED CONCRETE - PLANT 13	4395 WASHINGTON ST	DENVER	CO		80216	YES	NO	NO	NO	TERRY PETERSON	7706454500								327320						39.47098	-104.99287	801358974								BORAL USA		NO	TERRY.PETERSON@BORAL.COM	
2013	GENERAL MANAGER	ROBERT HAUN	80216RDYMX4395W	READY MIXED CONCRETE CO - PLANT 1	4395 WASHINGTON ST	DENVER	DENVER	CO	80216			READY MIXED CONCRETE CO - PLANT 1	4395 WASHINGTON ST	DENVER	CO		80216	YES	NO	NO	NO	TERRY PETERSON	7706454500	3273							327320						39.77616	-104.979	801358974								BORAL USA		NO	TERRY.PETERSON@BORAL.COM	
2013	GENERAL MANAGER	ROBERT HAUN	80026RDYMX1195R	READY MIXED CONCRETE CO PLANT 14	1195 ROCK CREEK RD	LAFAYETTE	BOULDER	CO	80026			READY MIXED CONCRETE CO PLANT 14	4395 WASHINGTON ST	DENVER	CO		80216	YES	NO	NO	NO	TERRY PETERSON	7706454500	3273							327320						39.97869	-105.07209	801358974								BORAL USA		NO	TERRY.PETERSON@BORAL.COM	
2013	GENERAL MANAGER	ROBERT HAUN	80011RDYMX1532E	READY MIXED CONCRETE PLANT 12	15302 E 25TH DR	AURORA	ADAMS	CO	80011			READY MIXED CONCRETE PLANT 12	4395 WASHINGTON ST	DENVER	CO		80216	YES	NO	NO	NO	TERRY PETERSON	7706454500	3273							327320						39.75453	-104.80943	007064371								BORAL USA	801358974	NO	TERRY.PETERSON@BORAL.COM	
2013	GENERAL MANAGER	ROBERT HAUN	80601RDYMX14585	READY MIXED CONCRETE PLANT 3	14585 BRIGHTON RD	BRIGHTON	ADAMS	CO	80601			READY MIXED CONCRETE PLANT 3	4395 WASHINGTON ST	DENVER	CO		80216	YES	NO	NO	NO	TERRY PETERSON	7706454500	3273							327320						39.96034	-104.837728	801358974								BORAL USA	801358974	NO	TERRY.PETERSON@BORAL.COM	
2013	PRESIDENT	ROBERT RODRIGUEZ	80223RJRCR183SB	RJR CIRCUITS INC	1830 S BANNOCK ST	DENVER	DENVER	CO	80223			RJR CIRCUITS INC	1830 S BANNOCK ST	DENVER	CO		80223	YES	NO	NO	NO	ROBERT R. RODRIGUEZ	3037787379	3672							334412						39.68308	-104.98992	002989101										NO	SHERN@RJRINC.COM	
2013	VP MANUFACTURING AND SUPPLY CHAIN	JEFFREY SMITH	80204RMNC 650WE	RMO INC	1450 GALAPAGO ST	DENVER	DENVER	CO	802042611			RMO INC	650 W COLFAX AVE	DENVER	CO		802042611	YES	NO	NO	NO	JEFFREY A. SMITH	3035928271	3499							332999						39.73921	-104.99649	007058183										NO	JSMITH@RMORTHO.COM	
2013	PLANT MANAGER	WILLIAM DILLAMAN	80033DLPHC10619	ROCKY MOUNTAIN BOTTLE CO	10619 W 50TH AVE	WHEAT RIDGE	JEFFERSON	CO	80033			ROCKY MOUNTAIN BOTTLE CO	10619 W 50TH AVE	WHEAT RIDGE	CO		80033	YES	NO	NO	NO	JONATHAN STERN	3124962967	3221							327213						39.78741	-105.11498	040716458										NO	JONATHAN.STERN@MILLERCOORS.COM	
2013	VP / GENERAL PLANT MANAGER	DAVID HELLER	80401VLLYM17755	ROCKY MOUNTAIN METAL CONTAINER	17755 W 32ND AVE	GOLDEN	JEFFERSON	CO	804010030			ROCKY MOUNTAIN METAL CONTAINER	PO BOX 4030, CC284	GOLDEN	CO		804010030	YES	NO	NO	NO	JONATHAN STERN	3124962967	3411							332431						39.7667	-105.1949	622406635										NO	JONATHAN.STERN@MILLERCOORS.COM	
2013	PRESIDENT	V DAVID HOLSTEEN	80221RCKYM301WE	ROCKY MOUNTAIN PRESTRESS LLC (ARCHITECTURAL PLANT)	301 W 60TH PL	DENVER	ADAMS	CO	80221			ROCKY MOUNTAIN PRESTRESS LLC (ARCHITECTURAL PLANT)	5801 PECOS ST	DENVER	CO		80221	YES	NO	NO	NO	DAVE HOLSTEEN	3039647017	3272							327390						39.80646	-104.99016	364512772								PHELPS TOINTON	364512772	NO	HOLSTEEND@RMPPRESTRESS.COM	
2013	PRESIDENT	V DAVID HOLSTEEN	8022WRCKYM581PE	ROCKY MOUNTAIN PRESTRESS LLC (STRUCTURAL PLANT)	5801 PECOS ST	DENVER	ADAMS	CO	80221			ROCKY MOUNTAIN PRESTRESS LLC (STRUCTURAL PLANT)	5801 PECOS ST	DENVER	CO		80221	YES	NO	NO	NO	DAVE HOLSTEEN	3039647017								327390						39.80235	-105.00636	364512772								PHELPS TOINTON	364512772	NO	HOLSTEEND@RMPPRESTRESS.COM	
2013	PRESIDENT	JOHN HAMMEN	80301STNFR4840N	SAE CIRCUITS COLORADO INC	4820 N 63RD ST	BOULDER	BOULDER	CO	80301			SAE CIRCUITS COLORADO INC	4820 N 63RD ST	BOULDER	CO		80301	YES	NO	NO	NO	DAVID DENMAN	3035301900	3672							334412						40.027939	-105.211294	620651802										NO	EHS@SAECIRCUITS.COM	
2013	MANAGER REGULATORY PROGRAMS	KAREN TURNER	8011WSFTYK281SU	SAFETY-KLEEN SYSTEMS (605202)	2801 S TEJON	ENGLEWOOD	ARAPAHOE	CO	80110			SAFETY-KLEEN SYSTEMS (605202)	2801 S TEJON	ENGLEWOOD	CO		80110	YES	NO	NO	NO	ROCKY GRAY	3037618614								562112	484220	484230				39.66563	-105.01104	053976551								CLEAN HARBORS INC	157793639	NO	ROCKY.GRAY@SAFETY-KLEEN.COM	
2013	VP, TECHNICAL DIRECTOR	WAYNE SUMMONS	80601SSHCN10300	SASHCO INC	10300 E 107TH PL	BRIGHTON	ADAMS	CO	80601			SASHCO INC	10300 E 107TH PL	BRIGHTON	CO		80601	YES	NO	NO	NO	WAYNE SUMMONS	3032867271	2891							325520	325510					39.89144	-104.86917	007056658										NO	WSUMMONS@SASHCO.COM	
2013	PLANT MANAGER	PAUL MONTELEONE	80911SCHLG3899H	SCHLAGE LOCK CO LLC	3899 HANCOCK EXPRESSWAY	SECURITY	EL PASO	CO	80911			SCHLAGE LOCK CO LLC	3899 HANCOCK EXPRESSWAY	SECURITY	CO		80911	YES	NO	NO	NO	JULIAN VALDEZ	7198963057	3471							332813						38.77532	-104.73878	020362658	054976795							ALLEGION S&S US HOLDING CO INC	079218390	NO	JULIAN.VALDEZ@ALLEGION.COM	
2013	PRESIDENT	RANDALL SHAFER	80216SHFRC4101E	SHAFER COMMERCIAL SEATING	4101 E 48TH AVE	DENVER	DENVER	CO	80216			SHAFER COMMERCIAL SEATING	4101 E 48TH AVE	DENVER	CO		80216	YES	NO	NO	NO	RANDALL SHAFER	3033227792	2599							337211						39.78427	-104.93948	007084460										NO	RASHA@SHAFER.COM	
2013	SR. ENVIRONMENTAL MANAGER	JOEY CUPP	8165WSMNSP23899	SIMONS PETROLEUM INC RIFLE BULK PLANT	23899 HWY 6	RIFLE	GARFIELD	CO	81650			SIMONS PETROLEUM INC RIFLE BULK PLANT	23899 HWY 6	RIFLE	CO		81650	YES	NO	NO	NO	JOEY CUPP	8654742826								424710						39.527862	-107.815465	026882600								MAXUM PETROLEUM	003963135	NO	CUPPJ@PILOTTRAVELCENTERS.COM	
2013	VICE PRESIDENT	MARK PETERSEN	80640SNCLR8581E	SINCLAIR DENVER PRODUCTS TERMINAL	8581 E 96TH AVE	HENDERSON	ADAMS	CO	80640			SINCLAIR DENVER PRODUCTS TERMINAL	8581 E 96TH AVE	HENDERSON	CO		80640	YES	NO	NO	NO	SAM GREENE	8015242729	5171							424710						39.87075	-104.88672	079959185								SINCLAIR OIL CORP	079959185	NO	SGREENE@SINCLAIROIL.COM	
2013	EHS MANAGER	JAMES MUTH	80907SNTND3801N	SINTON DAIRY FOODS CO	3801 N SINTON RD	COLORADO SPRINGS	EL PASO	CO	80907			SINTON DAIRY FOODS CO	3801 N SINTON RD	COLORADO SPRINGS	CO		80907	YES	NO	NO	NO	JIM MUTH	7196677429	2026							311511						38.885997	-104.832955	160899324								BORDEN DAIRY CO OF COLORADO LLC		NO	JIM.MUTH@BORDENDAIRY.COM	
2013	VP, FACILITIES	DELEN HOLBROOK	8064WCNYNS952YS	SOUTHERN COUNTIES OIL CO LP DBA CSO	9052 YOSEMITE ST	HENDERSON	ADAMS	CO	80640			SOUTHERN COUNTIES OIL CO LP DBA CSO	9052 YOSEMITE ST	HENDERSON	CO		80640	YES	NO	NO	NO	DE LEN B. HOLBROOK	7145167273								424710						39.86101	-104.8843	046592507								SOUTHERN COUNTIES OIL CO. LP D.B.A. CSO	046592507	NO	HOLBROOKD@SCFUELS.COM	
2013	ENVIRONMENTAL MANAGER	BILL PARK	8024WSTHRN5512L	SOUTHERN FOODS GROUP LLC D/B/A DILLON DAIRY	5512 LEETSDALE DR	DENVER	DENVER	CO	80246			SOUTHERN FOODS GROUP LLC D/B/A DILLON DAIRY	5512 LEETSDALE DR	DENVER	CO		80246	YES	NO	NO	NO	BILL WEYHRICH	3033881645								311511						39.70751	-104.92341									DEAN FOODS CO		NO	DDAIRIES@AOL.COM	
2013	ENVIRONMENTAL MANAGER	BILL PARK	80110BRDNN1325W	SOUTHERN FOODS GROUP LLC D/B/A MEADOW GOLD DAIRIES	1325 W OXFORD AVE	ENGLEWOOD	ARAPAHOE	CO	80110			SOUTHERN FOODS GROUP LLC D/B/A MEADOW GOLD DAIRIES	1325 W OXFORD AVE	ENGLEWOOD	CO		80110	YES	NO	NO	NO	RALPH LEE	3037612110	2026							311511						39.642417	-105.003278									DEAN FOODS CO		NO	RALPH_LEE@DEANFOODS.COM	
2013	ENVIRONMENTAL MANAGER	BILL PARK	80631BRDNN45025	SOUTHERN FOODS GROUP LLC D/B/A MEADOW GOLD DAIRIES	450 25TH ST	GREELEY	WELD	CO	80631			SOUTHERN FOODS GROUP LLC D/B/A MEADOW GOLD DAIRIES	450 25TH ST	GREELEY	CO		80631	YES	NO	NO	NO	TERRY RETTELE	9703527860	2026							311511						40.3972	-104.68482									DEAN FOODS CO		NO	TERRY_RETTELE@DEANFOODS.COM	
2013	OPERATIONS MANAGER	JESSE GANZ	80504DLPHM43WCR	SPARTON MEDICAL SYSTEMS COLORADO OPS	4300 WCR 18	LONGMONT	WELD	CO	80504			SPARTON MEDICAL SYSTEMS COLORADO OPS	4300 WCR 18	LONGMONT	CO		80504	YES	NO	NO	NO	JESSE GANZ	3036788585	3841	3672	3679					339112	334418					40.116389	-104.973611	963466656								SPARTON CORP	005356548	NO	JGANZ@SPARTON.COM	
2013	VICE PRESIDENT - OPERATIONS	ROBERT BUEHLER	80011NVRSL14002	SPG INTERNATIONAL LLC BR #X032 UNIVERSAL BRAND	14002 E 33RD PL	AURORA	ADAMS	CO	80011			SPG INTERNATIONAL LLC BR #X032 UNIVERSAL BRAND	14002 E 33RD PL	AURORA	CO		80011	YES	NO	NO	NO	VALERIE MCKENNEY	3033751511	3444							332322						39.76781	-104.8244	800610235										NO	VALERIE.MCKENNEY@SPGUSA.COM	
2013	SAFETY AND ENVIRONMENTAL MANAGER	JEFFREY WICKERSHAM	80751STRLN45ANG	STERLING ETHANOL LLC	450 ANGUS AVE	STERLING	LOGAN	CO	80751			STERLING ETHANOL LLC	450 ANGUS AVE	STERLING	CO		80751	YES	NO	NO	NO	COLBY NEELEY	9705221666	2869							325193						40.6375	-103.190556	198025939										NO	COLBY.NEELEY@YUMAETHANOL.COM	
2013	MANAGER OF EHS	STEVEN PENN	80112STLLM6949S	STOLLE MACHINERYCO CENTENNIAL	6949 S POTOMAC ST	CENTENNIAL	ARAPAHOE	CO	80112			STOLLE MACHINERYCO CENTENNIAL	6949 S POTOMAC ST	CENTENNIAL	CO		80112	YES	NO	NO	NO	STEVEN PENN	3037085111								333513						39.59049	-104.83123									STOLLE MACHINERY CO		NO	STEVEN.PENN@STOLLEMACHINERY.COM	
2013	MANAGER OF EHS	STEVEN PENN	80110STLLM373SK	STOLLE MACHINERYCO ENGLEWOOD	3730 S KALAMATH	ENGLEWOOD	ARAPAHOE	CO	80110			STOLLE MACHINERYCO ENGLEWOOD	6949 S POTOMAC ST	CENTENNIAL	CO		80112	YES	NO	NO	NO	STEVEN PENN	3037085111								333513						39.64876	-105.00054									STOLLE MACHINERY CO		NO	STEVEN.PENN@STOLLEMACHINERY.COM	
2013	CHIEF OPERATING OFFICER	MATTHEW WELTE	81001SMMTP13THE	SUMMIT PRESSED BRICK & TILE CO	601 E 13TH ST	PUEBLO	PUEBLO	CO	81001			SUMMIT PRESSED BRICK & TILE CO	PO BOX 533	PUEBLO	CO		810020533	YES	NO	NO	NO	ED HENNE	7195428278	3251							327120						38.27906	-104.60008											NO	EHENNE@SUMMITBRICK.COM	
2013	ENVIRONMENTAL TEAM LEAD	JAMES MCNEIL	80022CNCDN5801B	SUNCOR ENERGY COMMERCE CITY REFINERY	5801 BRIGHTON BLVD	COMMERCE CITY	ADAMS	CO	80022			SUNCOR ENERGY COMMERCE CITY REFINERY	5801 BRIGHTON BLVD	COMMERCE CITY	CO		80022	YES	NO	NO	NO	SHELLEY POWELL	3032865788	2911	5171						324110	424710					39.805556	-104.944444	241804681								SUNCOR ENERGY (USA) INC	241804681	NO	SAPOWELL@SUNCOR.COM	
2013	GM SUNDYNE AMERICAS	SHAWN OLSON	80007SNDYN14845	SUNDYNE LLC	14845 W 64TH AVE	ARVADA	JEFFERSON	CO	80007			SUNDYNE LLC	14845 W 64TH AVE	ARVADA	CO		80007	YES	NO	NO	NO	SARAH KAIMAN	3034032044	3561	3563	3594					333911	333912					39.81254	-105.16736	956640395								ACCUDYNE INDUSTRIES	800525772	NO	SARAH.KAIMAN@SUNDYNE.COM	
2013	VP	CHRISTINA FERDOWS	81052FBRGL800ST	SUTRAK	800 STONE TREE DR	LAMAR	PROWERS	CO	81052			SUTRAK	6899 E 49TH AVE	COMMERCE CITY	CO		80022	YES	NO	NO	NO	CHRISTINA FERDOWS	3032872799	3082							326121						38.09962	-102.60912									SUTRAK CORP	126255389	NO	CFERDOWS@SUTRAKUSA.COM	
2013	GM	BILL DANLEY	80631MNFRT100NO	SWIFT BEEF CO	800 N 8TH AVE	GREELEY	WELD	CO	80631			SWIFT BEEF CO	PO BOX 1450 ATTENTION: GENE CURTIS	GREELEY	CO		806321450	YES	NO	NO	NO	CAMERON BRUETT	9705067801	2011							311611	311612	311613				40.434093	-104.690782	048124978								JBS USA LLC	048124978	NO	CAMERON.BRUETT@JBSSA.COM	
2013	PLANT MANAGER	JON SEULEAN	80215CBSTR11308	TERUMO BCT STERILIZATION SERVICES INC	11308 W COLLINS AVE	LAKEWOOD	JEFFERSON	CO	80215			TERUMO BCT STERILIZATION SERVICES INC	11308 W COLLINS AVE	LAKEWOOD	CO		80215	YES	NO	NO	NO	LISA HAYES	3032314201	3841							339112						39.73477	-105.12099	801679200								TERUMO BCT INC	801679200	NO	LISA.HAYES@TERUMOBCT.COM	
2013	VP OF OPERATIONS	DONALD KEEFER	80223MDNWS2390W	THERMAL SOLUTIONS MANUFACTURING INC	2390 W 4TH AVE UNIT 1	DENVER	DENVER	CO	80223			THERMAL SOLUTIONS MANUFACTURING INC	2390 W 4TH AVE UNIT 1	DENVER	CO		80223	YES	NO	NO	NO	JIM MARNIN	3039368335	3714							336399						39.72205	-105.015178									THERMAL SOLUTIONS MANUFACTURING INC.	078415541	NO	JIM.MARNIN@THERMALSOLUTIONSMFG.COM	
2013	TOTAL HSSE ENVIRONMENTAL COORDINATOR	ANDREW LILLIE	81503CLRDC56924	TOTAL PETROCHEMICALS & REFINING USA INC (TOTAL CRAY VALLEY)	569  24 1/4  RD	GRAND JUNCTION	MESA	CO	81505			TOTAL PETROCHEMICALS & REFINING USA INC (TOTAL CRAY VALLEY)	569  24 1/4  RD	GRAND JUNCTION	CO		81505	YES	NO	NO	NO	GREG NOSKE	4097281997	2821							325212						39.08733	-108.604156	361555725								TOTAL HOLDINGS USA INC	037810702	NO	GREG.NOSKE@TOTAL.COM	
2013	GENERAL MANAGER	LYCINDA MCDANIEL	81001TRNC 101WI	TRANE CO	101 WILLIAM WHITE BLVD	PUEBLO	PUEBLO	CO	81001			TRANE CO	101 WILLIAM WHITE BLVD	PUEBLO	CO		81001	YES	NO	NO	NO	DAVID MEMINGER	7195853824	3585							333415						38.27928	-104.51845									INGERSOLL-RAND CO	001368026	NO	DAVIDM.MEMINGER@TRANE.COM	
2013	PRESIDENT AND GENERAL MANAGER	JAMES MATTERN	81625TRPPR65MIL	TRAPPER MINING INC	6.5 MILES SW OF CRAIG, LOCATED OFF STATE HWY 13	CRAIG	MOFFAT	CO	81625			TRAPPER MINING INC	PO BOX 187	CRAIG	CO		81626	YES	NO	NO	NO	FORREST LUKE	9708266140	1221							212111						40.416944	-107.545556	108488966										NO	FORREST@TRAPPERMINE.COM	
2013	SENIOR VICE PRESIDENT POLICY AND COMPLIANCE	BARBARA WALZ	81626TRSTT2201R	TRI-STATE GENERATION & TRANSMISSION - CRAIG STATION	2101 S RANNEY ST	CRAIG	MOFFAT	CO	81626			TRI-STATE GENERATION & TRANSMISSION - CRAIG STATION	PO BOX 33695	DENVER	CO		802330695	YES	NO	NO	NO	LEE BOUGHEY	3034526111	4911							221112						40.4625	-107.589722	042634378										NO	LBOUGHEY@TRISTATEGT.ORG	
2013	SENIOR VICE PRESIDENT POLICY AND COMPLIANCE	BARBARA WALZ	81424TRSTT30739	TRI-STATE GENERATION & TRANSMISSION - NUCLA STATION	30739 DD30 RD	NUCLA	MONTROSE	CO	81424			TRI-STATE GENERATION & TRANSMISSION - NUCLA STATION	PO BOX 33695	DENVER	CO		802330695	YES	NO	NO	NO	LEE BOUGHEY	3034526111	4911							221112						38.238889	-108.508056	042634378										NO	LBOUGHEY@TRISTATEGT.ORG	
2013	GERNERAL MANAGER OF OPERATIONS	CHAD EASTIN	80550NVRSL15WAL	UFP WINDSOR LLC	15 WALNUT ST	WINDSOR	WELD	CO	80550			UFP WINDSOR LLC	2801 E BELTLINE NE	GRAND RAPIDS	MI		49525	YES	NO	NO	NO	LYNN AFENDOULIS	6163646161	2491							321114						40.478376	-104.895457	799746250								UNIVERSAL FOREST PRODUCTS INC	017104670	NO	LAFENDOULIS@UFPI.COM	
2013	GENERAL MANAGER	KERRY BODE	80120NCRCT8192S	UNICIRCUIT INC	8192 S PARK LN	LITTLETON	ARAPAHOE	CO	80120			UNICIRCUIT INC	8122 S PARK LN, SUITE 107	LITTLETON	CO		80120	YES	NO	NO	NO	KERRY BODE	3037300505	3672							334412						39.56857	-105.00366	000013482								ANAREN INC	042352922	NO	KBODE@UNICIRCUIT.COM	
2013	REGIONAL REGULATORY MANAGER	TAHSEEN KHAN	80216VNWTR4300H	UNIVAR USA INC DENVER	4300 HOLLY ST	DENVER	DENVER	CO	802164533			UNIVAR USA INC DENVER	PO BOX 5287	DENVER	CO		802175287	YES	NO	NO	NO	TAHSEEN KHAN	9729382028	5169							424690						39.77642	-104.9223	102971785								UNIVAR USA INC	102971785	NO	TAHSEEN.KHAN@UNIVARUSA.COM	
2013	DIRECTOR MANUFACTURING	JOSE FERNANDO HADDAD	80125GRCMM8101W	UOP LLC LITTLETON MEMBRANES	8101 W MIDWAY DR	LITTLETON	DOUGLAS	CO	80125			UOP LLC LITTLETON MEMBRANES	8101 W MIDWAY DR	LITTLETON	CO		80125	YES	NO	NO	NO	FERNANDO HADDAD	8473912639	3089							326199						39.54773	-105.03888	139691877		COD982588485						HONEYWELL INTERNATIONAL INC	139691877	NO	JOSEFERNANDO.HADDAD@HONEYWELL.COM	
2013	DEPUTY COMMANDER	KEITH BUTALA	80840SRFRC8034E	US AIR FORCE ACADEMY	8120 EDGERTON DR	U S A F ACADEMY	EL PASO	CO	808402400			US AIR FORCE ACADEMY	8120 EDGERTON DR	U S A F ACADEMY	CO		80840-2400	YES	NO	YES	NO	PUBLIC AFFAIRS	7193337731	9711							928110						38.990611	-104.860572									US DEPARTMENT OF DEFENSE		YES	MEDIA.PAM@US.AF.MIL	
2013	CHIEF, PREVENTION AND RESTORATION SECTION	JOSEPH GALLEGOS	80913FRTCRCOMMA	US ARMY FORT CARSON	RT 2 WILDERNESS RD BLDG 9550	FORT CARSON	EL PASO	CO	809134000			US ARMY FORT CARSON	RT 2 WILDERNESS RD BLDG 9550	FORT CARSON	CO		80913-4000	NO	YES	YES	NO	DAVID KELLEY	7195261686	9711							928110						38.753333	-104.765556			CO2210020150		CO0021181	CO0034771			US DEPARTMENT OF DEFENSE		YES	DAVID.KELLEY8@US.ARMY.MIL	
2013	CHIEF, ENVIRONMENTAL MANAGEMENT OFFICE	CHRIS PULSKAMP	8100WSRMYP45825	US ARMY PUEBLO CHEMICAL DEPOT	45825 HWY 96 E  ATTN: EMO, BLDG 49N	PUEBLO	PUEBLO	CO	810069330			US ARMY PUEBLO CHEMICAL DEPOT	45825 HWY 96 E  ATTN: EMO, BLDG 49N	PUEBLO	CO		81006-9330	YES	NO	YES	NO	KEN ROQUE	7195494118								928110						38.2925	-104.32246									US DEPARTMENT OF DEFENSE		YES	KENNETH.D.ROQUE2.CIV@MAIL.MIL	
2013	ENVIRONMENTAL MANAGER	JOHN HANKINS	80204NTDST320WE	US DEPARTMENT OF THE TREASURY US MINT DENVER	320 W COLFAX AVE	DENVER	DENVER	CO	802042693			US DEPARTMENT OF THE TREASURY US MINT DENVER	320 W COLFAX AVE	DENVER	CO		80204-2693	YES	NO	YES	NO	TOM JURKOWSKY	2023547720	3469							332119	332116					39.74001	-104.99231									US DEPARTMENT OF THE TREASURY		YES	TOM.JURKOWSKY@USMINT.TREAS.GOV	
2013	DEPUTY BASE CIVIL ENGINEER	GREGORY LONG	80011SRFRC18401	US DOD USAF BUCKLEY AFB CO	660 S ASPEN ST MS 86	AURORA	ARAPAHOE	CO	800119564			US DOD USAF BUCKLEY AFB CO	660 S ASPEN ST MS 86	AURORA	CO		80011-9564	YES	NO	YES	NO	TREVOR ZAKRZEWSKI	7208479226	9711							928110						39.722215	-104.77239									US DEPARTMENT OF DEFENSE		YES	TREVOR.ZAKRZEWSKI.2@US.AF.MIL	
2013	ENVIRONMENTAL COMPLIANCE COORDINATOR	BRIAN SLOCUM	80216VNCBR38W62	VANCE BROTHERS INC	380 W 62ND AVE	DENVER	ADAMS	CO	80216			VANCE BROTHERS INC	PO BOX 300107	KANSAS CITY	MO		64130	YES	NO	NO	NO	BRIAN SLOCUM	8169228024								324121						39.80909	-104.99077	008808743								VANCE BROTHERS INC		NO	BSLOCUM@VANCEBROTHERS.COM	
2013	GENERAL MANAGER	THOMAS ANCKNER	80640NYXNV9131E	VEOLIA ES TECHNICAL SOLUTIONS LLC	9131 E 96TH AVE	HENDERSON	ADAMS	CO	80640			VEOLIA ES TECHNICAL SOLUTIONS LLC	9131 E 96TH AVE	HENDERSON	CO		80640	YES	NO	NO	NO	TOM M. ANCKNER	3032894827	4953							562211						39.87075	-104.88168	080278380								VEOLIA ENVIRONMENTAL SERVICES		NO	TOM.ANCKNER@VEOLIAES.COM	
2013	VICE PRESIDENT	BO JENSEN	8060WVSTSB15BEA	VESTAS BLADES AMERICA INC BRIGHTON	1500-B E CROWN PRINCE BLVD	BRIGHTON	WELD	CO	806039379			VESTAS BLADES AMERICA INC BRIGHTON	1500-B E CROWN PRINCE BLVD	BRIGHTON	CO		80603-9379	YES	NO	NO	NO	MEGAN NEW	3036555797								326199						40.02944	-104.80797	004901651								VESTAS AMERICA HOLDING INC.	004901651	NO	MANWB@VESTAS.COM	
2013	VP / GM	HANS JESPERSEN	80550VSTSB1114E	VESTAS BLADES AMERICA INC WINDSOR	11140 EASTMAN PARK DR	WINDSOR	WELD	CO	80550			VESTAS BLADES AMERICA INC WINDSOR	11140 EASTMAN PARK DR	WINDSOR	CO		80550	YES	NO	NO	NO	HANS JESPERSEN	9706746200								326199						40.46147	-104.84689	004901651								VESTAS AMERICA HOLDING INC.	004901651	NO	HJS@VESTAS.COM	
2013	VICE PRESIDENT, VESTAS TOWERS AMERICA	TONY KNOPP	8100WVSTST1TWER	VESTAS TOWERS AMERICA	100 TOWERS RD	PUEBLO	PUEBLO	CO	81004			VESTAS TOWERS AMERICA	100 TOWERS RD	PUEBLO	CO		81004	YES	NO	NO	NO	ANTHONY KNOPP	7192882212								332312						38.1685	-104.6189									VESTAS TOWERS AMERICA INC		NO	ANJKN@VESTAS.COM	
2013	ENVIRONMETAL HEALTH AND SAFETY MANAGER	ROBERT PARRISH	80127SSCRC10570	VIASYSTEMS DENVER CORP	10570 BRADFORD RD	LITTLETON	JEFFERSON	CO	80127			VIASYSTEMS DENVER CORP	10570 BRADFORD RD	LITTLETON	CO		80127	YES	NO	NO	NO	EMAD YOUSSEF	7146887297	3672							334412						39.56875	-105.11692	144419041								VIASYSTEMS GROUP INC.	006644199	NO	EMAD.YOUSSEF@VIASYSTEMS.COM	
2013	PLANT MANAGER	DONALD MOON	8011WGHLTH1139E	VITAL SIGNS INC	11039 E LANSING CIR	ENGLEWOOD	DOUGLAS	CO	80112			VITAL SIGNS INC	11039 E LANSING CIR	ENGLEWOOD	CO		80112	YES	NO	NO	NO	DONALD MOON	7208734938	3841							339112						39.54965	-104.86118	095749503								CAREFUSION CORP	829964563	NO	DONALD.MOON@CAREFUSION.COM	
2013	SR. ENVIRONMENTAL MANAGER - GSC	JOSEPH DANDY	80915XLSNN3445N	WEATHERFORD ARTIFICIAL LIFT SYSTEMS LLC	2385 CAPITAL DR	COLORADO SPRINGS	EL PASO	CO	80922			WEATHERFORD ARTIFICIAL LIFT SYSTEMS LLC	PO BOX 76420	COLORADO SPRINGS	CO		80970	YES	NO	NO	NO	JOE DANDY	2812601937	3533							332813						38.882924	-104.682747	062157284								WEATHERFORD INTERNATIONAL	062157284	NO	JOE.DANDY@WEATHERFORD.COM	
2013	GENERAL MANAGER	THOMAS HERBERG	80907WSTRN4607F	WESTERN FORGE CORP	4607 FORGE RD	COLORADO SPRINGS	EL PASO	CO	80907			WESTERN FORGE CORP	4607 FORGE RD	COLORADO SPRINGS	CO		80907	YES	NO	NO	NO	SARAH SILLMAN	7195985070	3423							332212						38.89873	-104.84102	007092513								IDEAL INDUSTRIES INC	005509468	NO	SARAH.SILLMAN@WESTERNFORGE.COM	
2013	DIRECTOR OF MANUFACTURING	JACK WILFLEY	80521WSTRN100MA	WESTERN FOUNDRIES INC	100 MARTIN ST	LONGMONT	BOULDER	CO	80501			WESTERN FOUNDRIES INC	PO BOX 599	LONGMONT	CO		80501	YES	NO	NO	NO	CHUCK HOPLEY	3038897107	3325							331511						40.16028	-105.09309	007073695										NO	C.HOPLEY@ATT.NET	
2013	FACTORY MANAGER	DONALD GORSEK	80701WSTRN18317	WESTERN SUGAR COOPERATIVE	18317 HWY 144	FORT MORGAN	MORGAN	CO	80701			WESTERN SUGAR COOPERATIVE	18317 HWY 144	FORT MORGAN	CO		80701	YES	NO	NO	NO	SHAWN SULLIVAN	9703046027	2063							311313						40.261207	-103.809929	112140624								WESTERN SUGAR COOPERATIVE		NO	SSULLIVAN@WESTERNSUGAR.COM	
2013	CORPORATE DIRECTOR OF ENVIRONMENTAL RESPONSIB	CLIFFORD FLEENER	80011WHRLP3550O	WJ WHATLEY INC	3550 ODESSA WAY, STE A	AURORA	ADAMS	CO	80011			WJ WHATLEY INC	3550 ODESSA WAY, STE A	AURORA	CO		80011	YES	NO	NO	NO	CLIFFORD FLEENER	4023592201	2434							326199						39.76535	-104.74118									VALMONT INDUSTRIES INC	007267214	NO	CLIFFORD.FLEENER@VALMONT.COM	
2013	PRESIDENT, ENGINE SYSTEMS	CHAD PREISS	8053WWDWRD38WIL	WOODWARD INC	3800 WILSON AVE	LOVELAND	LARIMER	CO	80538			WOODWARD INC	1000 E DRAKE RD	FORT COLLINS	CO		80525	YES	NO	NO	NO	TROY SCHROEDER	9704983951								333618						40.4323	-105.11555	030359256								WOODWARD INC	030359256	NO	TROY.SCHROEDER@WOODWARD.COM	
2013	PRESIDENT ITS	JIM RUDOLPH	80525WDWRD1000E	WOODWARD INC	1000 E DRAKE RD	FORT COLLINS	LARIMER	CO	80525			WOODWARD INC	1000 E DRAKE RD	FORT COLLINS	CO		80525	YES	NO	NO	NO	TROY SCHROEDER	9704983951	3519							333618						40.55249	-105.0592	030359256		COD007070055		C00043338				WOODWARD INC	030359256	NO	TROY.SCHROEDER@WOODWARD.COM	
2013	VICE PRESIDENT, MANUFACTURING AND ENGINEERING	JOE BARTELL	80216WRGHT4245E	WRIGHT & MCGILL CO	4245 E 46TH AVE	DENVER	DENVER	CO	80216			WRIGHT & MCGILL CO	4245 E 46TH AVE	DENVER	CO		80216	YES	NO	NO	NO	JOE BARTELL	7209418714	3949							339920						39.78118	-104.93954	007056252										NO	JBARTELL@EAGLECLAW.COM	
2013	SAFETY AND ENVIRONMENTAL MANAGER	JEFFREY WICKERSHAM	80759YMTHN3848C	YUMA ETHANOL LLC	38480 COUNTY RD H	YUMA	YUMA	CO	80759			YUMA ETHANOL LLC	38480 COUNTY RD H	YUMA	CO		80759	YES	NO	NO	NO	COLBY NEELEY	9708480605								325193						40.124196	-102.737802	614672207										NO	COLBY.NEELEY@YUMAETHANOL.COM	
2013	PRESIDENT	MARK ZIMMERMAN	80216ZMMRM201EA	ZIMMERMAN METALS INC	201 E 58TH AVE	DENVER	ADAMS	CO	80216			ZIMMERMAN METALS INC	201 E 58TH AVE	DENVER	CO		80216	YES	NO	NO	NO	CAROLYN O'DOHERTY	3032940180	3441							332312						39.804166	-104.983333	007064314										NO	CAROLYNO@ZIMMERMAN-METALS.COM	
2013	PLANT MANAGER	DOMINIQUE SEXTON	80501DRSSL1301I	ZOETIS	1301 IOWA AVE	LONGMONT	BOULDER	CO	80501			ZOETIS	1301 IOWA AVE	LONGMONT	CO		80501	YES	NO	NO	NO	DOMINIQUE SEXTON	3036787112	2834							325412						40.14869	-105.11406	070954094	090610770							ZOETIS INC.		NO	DOMINIQUE.SEXTON@ZOETIS.COM	
