REPORTING YEAR	TRADE SECRET INDICATOR	TRIFID	FACILITY NAME	FACILITY STREET	FACILITY CITY	FACILITY COUNTY	FACILITY STATE	FACILITY ZIP CODE	ENTIRE FACILITY IND	PARTIAL FACILITY IND	FEDERAL FACILITY IND	GOCO FACILITY FLAG	PRIMARY SIC CODE	SIC CODE 2	SIC CODE 3	SIC CODE 4	SIC CODE 5	SIC CODE 6	NAICS ORIGIN	PRIMARY NAICS CODE	NAICS CODE 2	NAICS CODE 3	NAICS CODE 4	NAICS CODE 5	NAICS CODE 6	LATITUDE	LONGITUDE	DB NR A	DB NR B	RCRA NR A	RCRA NR B	NPDES NR A	NPDES NR B	UIC NR A	UIC NR B	PARENT COMPANY NAME	PARENT COMPANY DB NR	DOCUMENT CONTROL NUMBER	CAS NUMBER	CHEMICAL NAME	CLASSIFICATION	UNIT OF MEASURE	DIOXIN DISTRIBUTION 1	DIOXIN DISTRIBUTION 2	DIOXIN DISTRIBUTION 3	DIOXIN DISTRIBUTION 4	DIOXIN DISTRIBUTION 5	DIOXIN DISTRIBUTION 6	DIOXIN DISTRIBUTION 7	DIOXIN DISTRIBUTION 8	DIOXIN DISTRIBUTION 9	DIOXIN DISTRIBUTION 10	DIOXIN DISTRIBUTION 11	DIOXIN DISTRIBUTION 12	DIOXIN DISTRIBUTION 13	DIOXIN DISTRIBUTION 14	DIOXIN DISTRIBUTION 15	DIOXIN DISTRIBUTION 16	DIOXIN DISTRIBUTION 17	STREAM 1 - WASTE STREAM CODE	STREAM 1 - TRTMT METHOD -  SEQUENCE 1	STREAM 1 - TRTMT METHOD -  SEQUENCE 2	STREAM 1 - TRTMT METHOD -  SEQUENCE 3	STREAM 1  -TRTMT METHOD -  SEQUENCE 4	STREAM 1 - TRTMT METHOD -  SEQUENCE 5	STREAM 1 - TRTMT METHOD -  SEQUENCE 6	STREAM 1 - TRTMT METHOD -  SEQUENCE 7	STREAM 1 - TRTMT METHOD -  SEQUENCE 8	STREAM 1 - RANGE INFLUENT CONCENT	STREAM 1 - TRTMT EFFICIENCY EST	STREAM 1 - BASED ON OPERATING DATA?	STREAM 2 - WASTE STREAM CODE	STREAM 2 - TRTMT METHOD -  SEQUENCE 1	STREAM 2 - TRTMT METHOD -  SEQUENCE 2	STREAM 2 - TRTMT METHOD -  SEQUENCE 3	STREAM 2  -TRTMT METHOD -  SEQUENCE 4	STREAM 2 - TRTMT METHOD -  SEQUENCE 5	STREAM 2 - TRTMT METHOD -  SEQUENCE 6	STREAM 2 - TRTMT METHOD -  SEQUENCE 7	STREAM 2 - TRTMT METHOD -  SEQUENCE 8	STREAM 2 - RANGE INFLUENT CONCENT	STREAM 2 - TRTMT EFFICIENCY EST	STREAM 2 - BASED ON OPERATING DATA?	STREAM 3 - WASTE STREAM CODE	STREAM 3 - TRTMT METHOD -  SEQUENCE 1	STREAM 3 - TRTMT METHOD -  SEQUENCE 2	STREAM 3 - TRTMT METHOD -  SEQUENCE 3	STREAM 3  -TRTMT METHOD -  SEQUENCE 4	STREAM 3 - TRTMT METHOD -  SEQUENCE 5	STREAM 3 - TRTMT METHOD -  SEQUENCE 6	STREAM 3 - TRTMT METHOD -  SEQUENCE 7	STREAM 3 - TRTMT METHOD -  SEQUENCE 8	STREAM 3 - RANGE INFLUENT CONCENT	STREAM 3 - TRTMT EFFICIENCY EST	STREAM 3 - BASED ON OPERATING DATA?	STREAM 4 - WASTE STREAM CODE	STREAM 4 - TRTMT METHOD -  SEQUENCE 1	STREAM 4 - TRTMT METHOD -  SEQUENCE 2	STREAM 4 - TRTMT METHOD -  SEQUENCE 3	STREAM 4  -TRTMT METHOD -  SEQUENCE 4	STREAM 4 - TRTMT METHOD -  SEQUENCE 5	STREAM 4 - TRTMT METHOD -  SEQUENCE 6	STREAM 4 - TRTMT METHOD -  SEQUENCE 7	STREAM 4 - TRTMT METHOD -  SEQUENCE 8	STREAM 4 - RANGE INFLUENT CONCENT	STREAM 4 - TRTMT EFFICIENCY EST	STREAM 4 - BASED ON OPERATING DATA?	STREAM 5 - WASTE STREAM CODE	STREAM 5 - TRTMT METHOD -  SEQUENCE 1	STREAM 5 - TRTMT METHOD -  SEQUENCE 2	STREAM 5 - TRTMT METHOD -  SEQUENCE 3	STREAM 5  -TRTMT METHOD -  SEQUENCE 4	STREAM 5 - TRTMT METHOD -  SEQUENCE 5	STREAM 5 - TRTMT METHOD -  SEQUENCE 6	STREAM 5 - TRTMT METHOD -  SEQUENCE 7	STREAM 5 - TRTMT METHOD -  SEQUENCE 8	STREAM 5 - RANGE INFLUENT CONCENT	STREAM 5 - TRTMT EFFICIENCY EST	STREAM 5 - BASED ON OPERATING DATA	ASSIGNED FED. FACILITY FLAG	PUBLIC CONTACT EMAIL	REVISION CODE 1	REVISION CODE 2	METAL INDICATOR	10-18-2012	
2011	NO	17868MRCKC100AV	CHEROKEE PHARMACEUTICALS LLC	100 AVE C	RIVERSIDE	NORTHUMBERLAND	PA	17868	YES	NO	NO	NO								325110	325414	325320				40.96228	-76.63392	001317064		PAD003043353		PA0008419				MERCK & CO INC	003043353	1311209174313	000075092	DICHLOROMETHANE	TRI	Pounds																		A	H040	H121	A03						N 	E2		A	A02								N 	E5																																						NO	JANET.H.FRIDAY@MERCK.COM			NO	 	
2011	NO	18064CPLYCEASTO	ESSROC CEMENT CORP	3938 EASTON NAZARETH HWY	NAZARETH	NORTHAMPTON	PA	18064	YES	NO	NO	NO								327310						40.728472	-75.293472	002389625								ESSROC CEMENT CORP		1311209698568	N420	LEAD COMPOUNDS	PBT	Pounds																		NA									N 																																																			NO	RADU.LUNGU@ESSROC.COM			YES	 	
2011	NO	15644GNCRPCHAMB	OMNOVA SOLUTIONS INC JEANNETT E PA PLANT	1001 CHAMBERS AVE	JEANNETTE	WESTMORELAND	PA	15644	YES	NO	NO	NO								326113						40.325218	-79.612593	088498618								OMNOVA SOLUTIONS INC	088498618	1311209457670	N010	ANTIMONY COMPOUNDS	TRI	Pounds																		NA									N 																																																			NO	TIM.PELLEGRINO@OMNOVA.COM			YES	 	
2011	NO	17325GWYNC1892Y	COOPERATIVE MILLING	1892 YORK RD	GETTYSBURG	ADAMS	PA	17325	YES	NO	NO	NO								311119						39.849022	-77.176258	008964637								SOUTHERN STATES COOP INC	008964637	1311209072875	N450	MANGANESE COMPOUNDS	TRI	Pounds																																																																														NO	ROGER.SCHOLTEN@SSCOOP.COM			YES	 	
2011	NO	15461HTFLDRD1BO	HATFIELD POWER STATION	2907 E ROY FURMAN HWY	MASONTOWN	GREENE	PA	15461	YES	NO	NO	NO								221112						39.853889	-79.927778	007911050								ALLEGHENY ENERGY INC	006979660	1311209109774	N090	CHROMIUM COMPOUNDS(EXCEPT CHROMITE ORE MINED IN THE TRANSVAAL REGION)	TRI	Pounds																		A	A05	A07							N 	E5																																																		NO	DURBINM@FIRSTENERGYCORP.COM			YES	 	
2011	NO	15061SBVRV394FR	AES BEAVER VALLEY LLC	394 FRANKFORT RD	MONACA	BEAVER	PA	15061	YES	NO	NO	NO								221112						40.65554	-80.34946	043857812								AES CORP	043857812	1311209701503	N040	BARIUM COMPOUNDS	TRI	Pounds																		A	A07								N 	E4		A	A07								N 	E3		A	A05	A03							N 	E3																										NO				YES	 	
2011	NO	15061SBVRV394FR	AES BEAVER VALLEY LLC	394 FRANKFORT RD	MONACA	BEAVER	PA	15061	YES	NO	NO	NO								221112						40.65554	-80.34946	043857812								AES CORP	043857812	1311209701566	N150	DIOXIN AND DIOXIN-LIKE COMPOUNDS	DIOXIN	Grams																		NA									N 																																																			NO				NO	 	
2011	NO	15061SBVRV394FR	AES BEAVER VALLEY LLC	394 FRANKFORT RD	MONACA	BEAVER	PA	15061	YES	NO	NO	NO								221112						40.65554	-80.34946	043857812								AES CORP	043857812	1311209701705	N982	ZINC COMPOUNDS	TRI	Pounds																		A	A07								N 	E3		A	A05	A03							N 	E3		A	A07								N 	E4																										NO				YES	 	
2011	NO	17404GTPRD1128R	OSRAM SYLVANIA INC	1128 ROOSEVELT AVE	YORK	YORK	PA	17404	YES	NO	NO	NO								332116	335110					39.97498	-76.75486	011436953								OSRAM SYLVANIA INC	001495928	1311209013465	007440473	CHROMIUM	TRI	Pounds																		W	H129	H124	H121	H124	H123	H101			N 	E1																																																		NO	DAVID.RUST@SYLVANIA.COM			YES	 	
2011	NO	15521CRTVPPLEAS	CREATIVE PULTRUSIONS INC	214 INDUSTRIAL LN	ALUM BANK	BEDFORD	PA	155218304	YES	NO	NO	NO								326199						40.181721	-78.611158	077491942										1311209031842	N010	ANTIMONY COMPOUNDS	TRI	Pounds																		NA									N 																																																			NO	SWEYANT@PULTRUDE.COM			YES	 	
2011	NO	17814BNTNFRD2BO	BENTON FOUNDRY INC	5297 STATE RT 487	BENTON	COLUMBIA	PA	17814	YES	NO	NO	NO								331511						41.26138	-76.34594	003039286										1311209104785	N120	DIISOCYANATES	TRI	Pounds																		NA									N 																																																			NO	BENTON@EPIX.NET			NO	 	
2011	NO	17214GFCHMRT116	SPECIALTY GRANULES INC	1455 OLD WAYNESBORO RD	BLUE RIDGE SUMMIT	ADAMS	PA	17214	YES	NO	NO	NO								327992						39.756944	-77.455556	003926763								SPECIALTY GRANULES INC	964378459	1311209254313	N450	MANGANESE COMPOUNDS	TRI	Pounds																																																																														NO	HBRAY@SPECIALTYGRANULES.COM			YES	 	
2011	NO	18370CNNGHRT611	SANOFI PASTEUR INC	DISCOVERY DR	SWIFTWATER	MONROE	PA	18370	YES	NO	NO	NO								325414						41.09066	-75.32245	086723285		PAD086723285		PA0060071						1311209260746	N458	MERCURY COMPOUNDS	PBT	Pounds																		W	H077	H123	H082	H129					N 	E6		W	H077	H081	H123	H082	H129				N 	E6		S	H081	H123	H101						N 	E6																										NO	LEN.LAVENDA@SANOFIPASTEUR.COM			YES	 	
2011	NO	1806WSTLMN345BA	STEEL MANAGEMENT SYSTEMS LLC	3045 BATH PIKE	NAZARETH	NORTHAMPTON	PA	18064	YES	NO	YES	NO								332812						40.729775	-75.358427											1311209435522	001330207	XYLENE (MIXED ISOMERS)	TRI	Pounds																		NA									N 																																																			NO	WCONDOSTA@AOL.COM			NO	 	
2011	NO	17552MNTJY1088E	MOUNT JOY MILL	1088 E MAIN ST	MOUNT JOY	LANCASTER	PA	17552	NO	NO	NO	NO								311119						40.11046	-76.47101	054143706								PENNFIELD CORP	054143706	1311209789991	N982	ZINC COMPOUNDS	TRI	Pounds																																																																														NO				YES	 	
2011	NO	16873SHWVLRTE97	SHAWVILLE STATION	250 POWER PLANT DR	SHAWVILLE	CLEARFIELD	PA	16873	YES	NO	NO	NO								221112						41.057778	-78.370833	790875629								GENON ENERGY INC	082679788	1311209246558	N458	MERCURY COMPOUNDS	PBT	Pounds																		A	A05								N 	E6		W	H129	H121	H123						N 	E6																																						NO	SCOTT.PALIAN@GENON.COM			YES	 	
2011	NO	15225CLGNC200NE	CALGON CARBON CORP NEVILLE ISLAND PLANT	200 NEVILLE RD	PITTSBURGH	ALLEGHENY	PA	15225	YES	NO	NO	NO								325998						40.49214	-80.07991	004319810								CALGON CARBON CORP		1311209252752	N100	COPPER COMPOUNDS	TRI	Pounds																		NA									N 																																																			NO				YES	 	
2011	NO	15632DVNCD1003C	METALOR ELECTROTECHNICS (USA) CORP	1003 CORPORATE LN	EXPORT	WESTMORELAND	PA	15632	YES	NO	NO	NO								332117	332116					40.4075	-79.581389	961576829								METALOR TECHNOLOGIES (USA) CORP	361313943	1311209389675	N100	COPPER COMPOUNDS	TRI	Pounds																		L	H077	H123	H101						N 	E2																																																		NO	FRED.NINCKE@METALOR.COM			YES	 	
2011	NO	19464HMMND10SOU	HAMMOND LEAD PRODUCTS	10 S GROSSTOWN RD	POTTSTOWN	MONTGOMERY	PA	19464	YES	NO	NO	NO								325998	327910					40.24507	-75.68926	005226790								HAMMOND GROUP INC	005226790	1311209503655	000096457	ETHYLENE THIOUREA	TRI	Pounds																		NA									N 																																																			NO	JBANDSTRA@HMNDGROUP.COM			NO	 	
2011	NO	19007RHMNDOLDRT	ROHM & HAAS CHEMICALS LLC	200 RT 413	BRISTOL	BUCKS	PA	19007	YES	NO	NO	NO								325211	325199					40.094102	-74.870534	001381581								THE DOW CHEMICAL CO	001381581	1311209599430	000080626	METHYL METHACRYLATE	TRI	Pounds																		W	H129	H121	H081	H077	H123	H101			N 	E3		A	A03								N 	E5		A	H040								N 	E4																										NO				NO	 	
2011	NO	17512CLNLM2NDLI	COLONIAL METALS CO	217 LINDEN ST	COLUMBIA	LANCASTER	PA	17512	YES	NO	NO	NO								331492						40.0365	-76.50896	003002631										1311209776069	N495	NICKEL COMPOUNDS	TRI	Pounds																		A	A06								N 	E6																																																		NO				YES	 	
2011	NO	15067MTCHL50ELE	MITCHELL POWER STATION	50 ELECTRIC WAY	COURTNEY	WASHINGTON	PA	15067	YES	NO	NO	NO								221112						40.215261	-79.962337	007911050								ALLEGHENY ENERGY INC	006979660	1311209110143	N982	ZINC COMPOUNDS	TRI	Pounds																		A	A05	A07	A03						N 	E4																																																		NO	DURBINM@FIRSTENERGYCORP.COM			YES	 	
2011	NO	17954SBRFPRT81S	US BUREAU OF PRISONS  FCI SCHUYLKILL	RT 81S & 901 FEDERAL CORRECTIONAL INSTITUTION	MINERSVILLE	SCHUYLKILL	PA	17954	YES	NO	YES	NO								922140						40.733324	-76.344359									US DEPARTMENT OF JUSTICE		1311209019330	002837890	2-CHLORO-1,1,1,2-TETRAFLUOROETHANE	TRI	Pounds																		NA									N 																																																			YES	DPAUL@BOP.GOV			NO	 	
2011	NO	15144PPGND125CO	PPG INDUSTRIES,INC-SPRINGDALE COMPLEX	125 COLFAX ST	SPRINGDALE	ALLEGHENY	PA	15144	YES	NO	NO	NO								325510						40.53696	-79.78391	004336319								PPG INDUSTRIES INC	001344803	1311209126693	000067561	METHANOL	TRI	Pounds																																																																														NO	JOSEPHFRANK@PPG.COM			NO	 	
2011	NO	18083HRCLS501CE	BUZZI UNICEM STOCKERTOWN PLANT	501 CENTER ST	STOCKERTOWN	NORTHAMPTON	PA	18083	YES	NO	NO	NO								327310						40.75287	-75.26529	044202687								BUZZI UNICEM USA		1311209374293	007439965	MANGANESE	TRI	Pounds																		NA									N 																																																			NO	RICHARD.ZIMMEL@BUZZIUNICEMUSA.COM			YES	 	
2011	NO	16115NVRTR118PA	SIEMENS INDUSTRY INC DARLINGTON FACILITY	118 PARK RD	DARLINGTON	BEAVER	PA	16115	YES	NO	NO	NO								562211						40.79611	-80.46785	187894373								SIEMENS AG		1311209557026	000079016	TRICHLOROETHYLENE	TRI	Pounds																		A	H040	A03							N 	E2																																																		NO	DAVID.M.ADAMS@SIEMENS.COM			NO	 	
2011	NO	17356GNRLD200EH	GENERAL DYNAMICS - OTS	200 E HIGH ST	RED LION	YORK	PA	17356	YES	NO	NO	NO								332995						39.904932	-76.603663	018600531								GENERAL DYNAMICS CORP	001381284	1311209575238	N090	CHROMIUM COMPOUNDS(EXCEPT CHROMITE ORE MINED IN THE TRANSVAAL REGION)	TRI	Pounds																		W	H071	H101	H123						N 	E5																																																		NO	TU.DAM@GD-OTS.COM			YES	 	
2011	NO	18011VCTLC8023Q	VICTAULIC CO - ALBURTIS FACILITY	8023 QUARRY RD	ALBURTIS	LEHIGH	PA	18011	YES	NO	NO	NO								331511						40.51457	-75.59848	002136117								VICTAULIC CO	002136117	1311209138243	N420	LEAD COMPOUNDS	PBT	Pounds																		NA									N 																																																			NO	ELUFTIG@VICTAULIC.COM			YES	 	
2011	NO	16123VKNC0100VE	VEKA INC	100 VEKA DR	FOMBELL	BEAVER	PA	16123	YES	NO	NO	NO								326199						40.79576	-80.17357	108896069								VEKA HOLDINGS	804136646	1311209144551	N090	CHROMIUM COMPOUNDS(EXCEPT CHROMITE ORE MINED IN THE TRANSVAAL REGION)	TRI	Pounds																		NA									N 																																																			NO	ESHAY@VEKAINC.COM			YES	 	
2011	NO	15857STRNS126AC	EASTERN SINTERED ALLOYS INC	126 ACCESS RD	SAINT MARYS	ELK	PA	158573370	YES	NO	NO	NO								332117						41.45638	-78.5442	097649818										1311209175355	007440508	COPPER	TRI	Pounds																		NA									N 																																																			NO	DLINDBERG_ESA@NCENTRAL.COM			YES	 	
2011	NO	19510CNCRPEXCEL	CAN CORP OF AMERICA INC	326 JUNE AVE	BLANDON	BERKS	PA	19510	YES	NO	NO	NO								332431						40.44143	-75.89843	084859883										1311209220173	N230	CERTAIN GLYCOL ETHERS	TRI	Pounds																		NA									N 																																																			NO	MDESAI@CANCORPAM.COM			NO	 	
2011	NO	19510CNCRPEXCEL	CAN CORP OF AMERICA INC	326 JUNE AVE	BLANDON	BERKS	PA	19510	YES	NO	NO	NO								332431						40.44143	-75.89843	084859883										1311209220185	000100414	ETHYLBENZENE	TRI	Pounds																		NA									N 																																																			NO	MDESAI@CANCORPAM.COM			NO	 	
2011	NO	15024RDLND230RI	REDLAND BRICK INC HARMAR PLANT	26 RICH HILL RD	CHESWICK	ALLEGHENY	PA	15024	YES	NO	NO	NO								327121						40.559779	-79.840226	003062403								THE BELDEN BRICK CO	004468690	1311208983775	007440393	BARIUM	TRI	Pounds																																																																														NO	WES.FRAVEL@REDLANDBRICK.COM			YES	 	
2011	NO	18071CRBNRPOBOX	AIRGAS SPECIALTY PRODUCTS - PALMERTON PA	900 DELAWARE AVE (HORSEHEAD INDUSTRIES COMPLEX)	PALMERTON	CARBON	PA	18071	YES	NO	NO	NO								424690						40.808866	-75.5854									AIRGAS INC	024492860	1311209039989	007664417	AMMONIA	TRI	Pounds																		NA									N 																																																			NO				NO	 	
2011	NO	19530MCCNWRAILR	MCCONWAY & TORLEY LLC KUTZTOWN PLT 1804	230 RAILROAD ST	KUTZTOWN	BERKS	PA	195301117	YES	NO	NO	NO								331513						40.521282	-75.776361	003061470								TRINITY INDUSTRIES INC	007324254	1311209072545	007440473	CHROMIUM	TRI	Pounds																		NA									N 																																																			NO				YES	 	
2011	NO	18974PNNRCJOHNF	PANNIER GRAPHICS	345 OAK RD	GIBSONIA	ALLEGHENY	PA	15044	YES	NO	NO	NO								326112						40.631081	-79.884859	004320982		PAR000005207						PANNIER CORP	004320982	1311209093032	000100425	STYRENE	TRI	Pounds																		NA									N 																																																			NO	JKH@PANNIER.COM			NO	 	
2011	NO	17046RGLCS307N9	REGAL CAST INC	307 N 9TH. AVE	LEBANON	LEBANON	PA	17046	YES	NO	NO	NO								331513						40.343385	-76.42678	361114127								PRL INC	101671915	1311209291273	007440020	NICKEL	TRI	Pounds																																																																														NO	ROBERT-T@PRLINC.COM			YES	 	
2011	NO	17751VRYCHDRAKE	AVERY DENNISON MILL HALL	171 DRAKETOWN RD	MILL HALL	CLINTON	PA	17751	YES	NO	NO	NO								325520						41.1153	-77.468133	008256364								AVERY DENNISON CORP	008256364	1311209306974	000100414	ETHYLBENZENE	TRI	Pounds																																																																														NO	BHAVIN.PATEL@AVERYDENNISON.COM			NO	 	
2011	NO	15061RMMTL27PEN	ATI PRECISION FINISHING LLC - MONACA	2070 PENNSYLVANIA AVE	MONACA	BEAVER	PA	15061	YES	NO	NO	NO								332312						40.684807	-80.267329	170757251								ALLEGHENY TECHNOLOGIES INC	004335154	1311209343983	N090	CHROMIUM COMPOUNDS(EXCEPT CHROMITE ORE MINED IN THE TRANSVAAL REGION)	TRI	Pounds																		NA									N 																																																			NO				YES	 	
2011	NO	16433LRDCRSOUTH	LORD CORP	601 S ST	SAEGERTOWN	CRAWFORD	PA	164331050	YES	NO	NO	NO								325520	325510					41.713056	-80.141944	048203822								LORD CORP	048203822	1311209426651	N420	LEAD COMPOUNDS	PBT	Pounds																		NA									N 																																																			NO	DAWN_ASTORINO@LORD.COM			YES	 	
2011	NO	16323JYTCH925BU	JOY TECHNOLOGIES INC	325 BUFFALO ST	FRANKLIN	VENANGO	PA	16323	YES	NO	NO	NO								333131						41.38261	-79.82366	172920225								JOY GLOBAL INC	153550793	1311209445889	007439965	MANGANESE	TRI	Pounds																		NA									N 																																																			NO	VICKIE.WEBER@JOYGLOBAL.COM			YES	 	
2011	NO	18240PNTHRRTE54	PANTHER CREEK PARTNERS	4 DENNISON RD	NESQUEHONING	CARBON	PA	18240	YES	NO	NO	NO								221112						40.855556	-75.877222	622464493										1311209500976	N090	CHROMIUM COMPOUNDS(EXCEPT CHROMITE ORE MINED IN THE TRANSVAAL REGION)	TRI	Pounds																		NA									N 																																																			NO	GENLMGR4@NETSCAPE.NET			YES	 	
2011	NO	15061RCCHMFRANK	NOVA CHEMICALS INC	400 FRANKFORT RD	MONACA	BEAVER	PA	15061	YES	NO	NO	NO								325211						40.655278	-80.356389	104000625								NOVA CHEMICALS CORP	249297938	1311209534027	000094360	BENZOYL PEROXIDE	TRI	Pounds																																																																														NO	FERACOJ@NOVACHEM.COM			NO	 	
2011	NO	17601RRDNN216GR	RR DONNELLEY LANCASTER EAST	216 GREENFIELD RD	LANCASTER	LANCASTER	PA	17601	YES	NO	NO	NO								323111	323110					40.047717	-76.25562	039755251								R R DONNELLEY & SONS CO	005119573	1311209592601	N982	ZINC COMPOUNDS	TRI	Pounds																		NA									N 																																																			NO	STACEY.L.HAEFNER@RRD.COM			YES	 	
2011	NO	1502WFLBGS221SW	FLABEG SOLAR US CORP	2201 SWEENEY DR	CLINTON	ALLEGHENY	PA	15026	YES	NO	NO	NO								327215						40.4972	-80.286											1311209704434	000071363	N-BUTYL ALCOHOL	TRI	Pounds																		NA									N 																																																			NO	CHRIS.TULLY@FLABEG.COM			NO	 	
2011	NO	18104PTMNMNORTH	GEO SPECIALTY CHEMICALS TRIMET PRODUCTS GROUP	2409 N CEDAR CREST BLVD	ALLENTOWN	LEHIGH	PA	18104	YES	NO	NO	NO								325199						40.636389	-75.5325	929483709	858451347							GEO SPECIALTY CHEMICALS INC		1311209386388	N511	NITRATE COMPOUNDS	TRI	Pounds																		W	H081								N 	E5																																																		NO	BRAD.OSBORNE@GEOSC.COM			NO	 	
2011	NO	16503CLSCT1707G	BASF CORP	1729 E AVE	ERIE	ERIE	PA	16503	YES	NO	NO	NO								325188						42.127074	-80.056047	041399403								BASF CORP	071014385	1311209218799	007632000	SODIUM NITRITE	TRI	Pounds																		NA									N 																																																			NO	RONALD.OROSZ@BASF.COM			YES	 	
2011	NO	15412MRCNR2WHEE	AMERICAN IRON OXIDE CO ALLENPORT	2 WHEELING PITTSBURGH STEEL DR	ALLENPORT	WASHINGTON	PA	15412	YES	NO	NO	NO								325188						40.086444	-79.846066	943331496								AMERICAN IRON OXIDE CO	943331496	1311209330101	007647010	HYDROCHLORIC ACID (1995 AND AFTER "ACID AEROSOLS" ONLY)	TRI	Pounds																		NA									N 																																																			NO	FMULLINGS@ISSI-AMROX-USA.COM			NO	 	
2011	NO	18014KYSTNRT329	KEYSTONE CEMENT CO	RT 329	BATH	NORTHAMPTON	PA	180140058	YES	NO	NO	NO								327310						40.716007	-75.398719	869563304								GIANT CEMENT HOLDING INC	869563304	1311209692829	000091203	NAPHTHALENE	TRI	Pounds																		NA									N 																																																			NO	JWSMITH@KEYSTONE-CEMENT.COM			NO	 	
2011	NO	15926PBSCL664CO	PBS COALS - SHADE CREEK PREPAR ATION PLANT	664 COOK RD	CENTRAL CITY	SOMERSET	PA	15926	YES	NO	NO	NO								212111						40.07227	-78.81181	016089138								SEVERSTAL NA INC	016089138	1311209351257	N420	LEAD COMPOUNDS	PBT	Pounds																		NA									N 																																																			NO	KBETCHER@PBSCOALS.COM			YES	 	
2011	NO	19440HTFLD2700F	HATFIELD QUALITY MEATS INC HATFIELD FACILITY	2700 CLEMENS RD	HATFIELD	MONTGOMERY	PA	19440	YES	NO	NO	NO								311611						40.269604	-75.320374	002356632								THE CLEMENS FAMILY CORP	118996037	1311209377124	N511	NITRATE COMPOUNDS	TRI	Pounds																		W	H081	H129	H123	H124					N 	E5																																																		NO				NO	 	
2011	NO	17517LPPRT1658D	LIPPERT COMPONENTS INC PLANT 7	1675 DRY TAVERN RD	DENVER	LANCASTER	PA	17517	YES	NO	NO	NO								332312						40.22229	-76.06378	043222470								DREW INDUSTRIES INC	007871643	1311209495365	007439921	LEAD	TRI	Pounds																		NA									N 																																																			NO	ECLICK@LCI1.COM			YES	 	
2011	NO	18071HRSHDDELAW	HORSEHEAD CORP	900 DELAWARE AVE	PALMERTON	CARBON	PA	18071	YES	NO	NO	NO								331492	325188	331423				40.80833	-75.58333	609074703								HORSEHEAD HOLDING CORP		1311209260443	N150	DIOXIN AND DIOXIN-LIKE COMPOUNDS	DIOXIN	Grams																		NA									N 																																																			NO	MFOSTER@HORSEHEAD.NET			NO	 	
2011	NO	15944SWRDS595PL	SEWARD POWER PLANT	595 PLANT RD	NEW FLORENCE	INDIANA	PA	15944	YES	NO	NO	NO								221112						40.399911	-79.037225									GENON ENERGY INC	082679788	1311209306683	N458	MERCURY COMPOUNDS	PBT	Pounds																		S	H129								N 	E6		A	A06								N 	E4																																						NO	STEVEN.YUHAS@GENON.COM			YES	 	
2011	NO	18509NTDGL1396J	UNITED GILSONITE LABORATORIES	1396 JEFFERSON AVE	DUNMORE	LACKAWANNA	PA	18509	YES	NO	NO	NO								325510						41.421614	-75.644547	003033339								UNITED GILSONITE LABORATORIES		1311209123645	N230	CERTAIN GLYCOL ETHERS	TRI	Pounds																																																																														NO	UGLPR@UGL.COM			NO	 	
2011	NO	18848GTPRDHAWES	GLOBAL TUNGSTEN & POWDERS CORP	1 HAWES ST	TOWANDA	BRADFORD	PA	188482134	YES	NO	NO	NO								331419	331491	331492	325188	325312	332813	41.786389	-76.445278	827467866								PLANSEE HOLDING AG	300616315	1311209078854	N100	COPPER COMPOUNDS	TRI	Pounds																		NA									N 																																																			NO	CRAIG.RIEDER@GLOBALTUNGSTEN.COM			YES	 	
2011	NO	16514LRDCR1635W	LORD CORP	1635 W 12TH ST	ERIE	ERIE	PA	16505	YES	NO	NO	NO								326291						42.11025	-80.11718	005031281								LORD CORP	005031281	1311209457593	001330207	XYLENE (MIXED ISOMERS)	TRI	Pounds																		NA									N 																																																			NO	DAWN_ASTORINO@LORD.COM			NO	 	
2011	NO	15059MDLNDRTE68	MARATHON PETROLEUM CO - MIDLAND PA TERMINAL	3852 RT 68	MIDLAND	BEAVER	PA	15059	YES	NO	NO	NO								424710						40.63	-80.441944	068212752								MARATHON PETROLEUM CORP	968393996	1311209607769	000191242	BENZO(G,H,I)PERYLENE	PBT	Pounds																		NA									N 																																																			NO				NO	 	
2011	NO	15059MDLNDRTE68	MARATHON PETROLEUM CO - MIDLAND PA TERMINAL	3852 RT 68	MIDLAND	BEAVER	PA	15059	YES	NO	NO	NO								424710						40.63	-80.441944	068212752								MARATHON PETROLEUM CORP	968393996	1311209607807	000091203	NAPHTHALENE	TRI	Pounds																		NA									N 																																																			NO				NO	 	
2011	NO	17931GLBRT50ELE	GILBERTON POWER CO	50 ELEANOR AVE	FRACKVILLE	SCHUYLKILL	PA	179312301	YES	NO	NO	NO								221112						40.786597	-76.197278	174196121										1311209012739	N040	BARIUM COMPOUNDS	TRI	Pounds																		NA									N 																																																			NO	JKHART@CULM2ENERGY.COM			YES	 	
2011	NO	18240MTKWSGREEN	AMETEK CHEMICAL PRODUCTS DIV	42 MOUNTAIN AVE	NESQUEHONING	CARBON	PA	182402201	YES	NO	NO	NO								325991	326191	326220				40.859596	-75.839862	073652422								AMETEK INC	001345149	1311209290319	000108316	MALEIC ANHYDRIDE	TRI	Pounds																		NA									N 																																																			NO	BOB.BLASKO@AMETEK.COM			NO	 	
2011	NO	15774KYSTNRTE21	KEYSTONE POWER PLANT	313 KEYSTONE DR	SHELOCTA	ARMSTRONG	PA	157747625	YES	NO	NO	NO								221112						40.651756	-79.332283									GENON ENERGY INC	082679788	1311209280748	N100	COPPER COMPOUNDS	TRI	Pounds																		A	A05								N 	E4		W	H129	H121	H071	H123	H101				N 	E4																																						NO	MARK.JACKLIN@GENON.COM			YES	 	
2011	NO	18936MYCSN2CMME	SAINT GOBAIN ABRASIVES INC	200 COMMERCE DR	MONTGOMERYVILLE	MONTGOMERY	PA	18936	YES	NO	NO	NO								327910						40.2309	-75.228271									SAINT-GOBAIN CORP		1311209540412	000108883	TOLUENE	TRI	Pounds																		A	H040								N 	E4																																																		NO	WAYNE.E.SHAW@SAINT-GOBAIN.COM			NO	 	
2011	NO	17013CRLSL1509R	CARLISLE SYNTEC INC	1295 RITNER HWY	CARLISLE	CUMBERLAND	PA	17013	YES	NO	NO	NO								326299						40.19979	-77.21703	961921806								CARLISLE COS INC	003005766	1311209466287	N982	ZINC COMPOUNDS	TRI	Pounds																		NA									N 																																																			NO	LIGHTFOOT@SYNTEC.CARLISLE.COM			YES	 	
2011	NO	16323MNYCHTWOMI	OMG AMERICAS	TWO MILE RUN RD	FRANKLIN	VENANGO	PA	163230111	YES	NO	NO	NO								325199	325188					40.873	-75.65252	004165742	556869238							OM GROUP INC	556869238	1311209726342	N230	CERTAIN GLYCOL ETHERS	TRI	Pounds																		NA									N 																																																			NO	JAMES.DAUGHERTY@NA.OMGI.COM			NO	 	
2011	NO	1682WTHRMF32RLL	THERMO FISHER SCIENTIFIC	320 ROLLING RIDGE DR	BELLEFONTE	CENTRE	PA	16823	YES	NO	NO	NO								334516						40.886727	-77.775484	118522176								THERMO FISHER SCIENTIFIC INC	001408673	1311209161660	000067561	METHANOL	TRI	Pounds																		NA									N 																																																			NO	JENNIFER.BOUGHTON@THERMOFISHER.COM			NO	 	
2011	NO	17059MPRKSRD3RI	EMPIRE KOSHER POULTRY INC	247 EMPIRE DR	MIFFLINTOWN	JUNIATA	PA	17059	YES	NO	NO	NO								311615						40.535205	-77.352335	003044567										1311209240290	000075456	CHLORODIFLUOROMETHANE	TRI	Pounds																		NA									N 																																																			NO	HAZARDG@EMPIREKOSHER.COM			NO	 	
2011	NO	19007DNMRC145WH	DUNMORE CORP	145 WHARTON RD	BRISTOL	BUCKS	PA	19007	YES	NO	NO	NO								326113						40.117669	-74.884036	049863244								DUNMORE CORP		1311209285271	001330207	XYLENE (MIXED ISOMERS)	TRI	Pounds																		A	H040								N 	E4																																																		NO	TRIMEL@DUNMORE.COM			NO	 	
2011	NO	16365NTDRFPOBOX	UNITED REFINING CO	15 BRADLEY ST	WARREN	WARREN	PA	16365	YES	NO	NO	NO								324110						41.82949	-79.12468	118331149								UNITED REFINING CO	118331149	1311209616503	000127184	TETRACHLOROETHYLENE	TRI	Pounds																																																																														NO	RKAEMMERER@URC.COM			NO	 	
2011	NO	17402HRLYD1425E	HARLEY-DAVIDSON MOTOR CO OPERATIONS INC	1425 EDEN RD	YORK	YORK	PA	17402	YES	NO	NO	NO								336991						39.98485	-76.71854	062629324								HARLEY-DAVIDSON MOTOR CO		1311209816990	000071363	N-BUTYL ALCOHOL	TRI	Pounds																		A	H040								N 	E4																																																		NO	SHARON.FISHER@HARLEY-DAVIDSON.COM			NO	 	
2011	NO	18974CRCCH885LO	CRC INDUSTRIES INC	885 LOUIS DR	WARMINSTER	BUCKS	PA	189742869	YES	NO	NO	NO								325998						40.208122	-75.080612	069880029								BERWIND CORP	007913213	1311209442300	N230	CERTAIN GLYCOL ETHERS	TRI	Pounds																		NA									N 																																																			NO	CRC@CRCINDUSTRIES.COM			NO	 	
2011	NO	15059WSTHMONE12	WHEMCO-STEEL CASTINGS INC	12 TH ST	MIDLAND	BEAVER	PA	15059	YES	NO	NO	NO								331513						40.631111	-80.449722									WHEMCO INC		1311209502828	N090	CHROMIUM COMPOUNDS(EXCEPT CHROMITE ORE MINED IN THE TRANSVAAL REGION)	TRI	Pounds																		A	A06								N 	E4		A	A06								N 	E4		A	A06								N 	E4																										NO	CCOHOLICH@WHEMCO.COM			YES	 	
2011	NO	19440PNNCL2755B	PENN COLOR INC	2755 BERGEY RD	HATFIELD	MONTGOMERY	PA	19440	YES	NO	NO	NO								325510						40.29554	-75.29838	054711163								PENN COLOR INC	054711163	1311209456781	N090	CHROMIUM COMPOUNDS(EXCEPT CHROMITE ORE MINED IN THE TRANSVAAL REGION)	TRI	Pounds																		NA									N 																																																			NO	MRUBEO@PENNCOLOR.COM			YES	 	
2011	NO	17404NVRTF730VO	ENVIRITE OF PENNSYLVANIA INC	730 VOGELSONG RD	YORK	YORK	PA	17404	YES	NO	NO	NO								562211						39.986769	-76.748829									EQ HOLDINGS CO	022528553	1311209569300	007697372	NITRIC ACID	TRI	Pounds																		W	H129	H071	H121	H073	H077	H111	H124		N 	E1																																																		NO	WILLIAM.MOLANDER@EQONLINE.COM			NO	 	
2011	NO	17257WNGRS1122M	WENGER'S FEED MILL INC SHIPPENSBURG	1122 MT ROCK RD	SHIPPENSBURG	FRANKLIN	PA	17257	YES	NO	NO	NO								311119						40.016385	-77.534288									WENGER'S FEED MILL INC		1311209165669	N100	COPPER COMPOUNDS	TRI	Pounds																																																																														NO	MLUTZ@WENGERFEEDS.COM			YES	 	
2011	NO	16933THMRSPOBOX	MURUS CO	3234 RT 549	MANSFIELD	TIOGA	PA	169330220	YES	NO	NO	NO								321992						41.865556	-76.968611	185387529										1311209193705	N120	DIISOCYANATES	TRI	Pounds																																																																														NO	J_JENKINS@MURUS.COM			NO	 	
2011	NO	16137CHVRN7320W	CHEVRON INC	7320 W MARKET ST	MERCER	MERCER	PA	16137	YES	NO	NO	NO								336211						41.236192	-80.347812	079042511								CHEVRON CORP		1311209348046	007439921	LEAD	TRI	Pounds																		NA									N 																																																			NO	DSEBASTIAN@MILLERIND.COM			YES	 	
2011	NO	17931WHLBRMOREA	WHEELABRATOR FRACKVILLE ENERGY CO INC	475 MOREA RD	FRACKVILLE	SCHUYLKILL	PA	17931	YES	NO	NO	NO								221112						40.782778	-76.18	188414303								WASTE MANAGEMENT INC	047577416	1311209458001	N090	CHROMIUM COMPOUNDS(EXCEPT CHROMITE ORE MINED IN THE TRANSVAAL REGION)	TRI	Pounds																		NA									N 																																																			NO	TPORCZYNSKI@WM.COM			YES	 	
2011	NO	17931WHLBRMOREA	WHEELABRATOR FRACKVILLE ENERGY CO INC	475 MOREA RD	FRACKVILLE	SCHUYLKILL	PA	17931	YES	NO	NO	NO								221112						40.782778	-76.18	188414303								WASTE MANAGEMENT INC	047577416	1311209458090	N982	ZINC COMPOUNDS	TRI	Pounds																		NA									N 																																																			NO	TPORCZYNSKI@WM.COM			YES	 	
2011	NO	19612CRPNT101WB	CARPENTER TECHNOLOGY CORP	101 W BERN ST	READING	BERKS	PA	19601	YES	NO	NO	NO								331111						40.351723	-75.944917	002344315								CARPENTER TECHNOLOGY CORP		1311209342486	N106	CYANIDE COMPOUNDS	TRI	Pounds																		S	H101								N 	E6		W	H073	H121	H123						N 	E3																																						NO				NO	 	
2011	NO	15656LLGHNPOBOX	ALLEGHENY LUDLUM CORP	1 KISKI AVE PO BOX 565	LEECHBURG	WESTMORELAND	PA	15656	YES	NO	NO	NO								331111						40.641389	-79.6	004335162								ALLEGHENY TECHNOLOGIES INC	949262737	1311209345267	N495	NICKEL COMPOUNDS	TRI	Pounds																		A	A06								N 	E3		W	H129	H077	H121	H123	H101				N 	E3																																						NO				YES	 	
2011	NO	16329NTNLF1FRON	ELLWOOD NATIONAL FORGE CO	1 FRONT ST	IRVINE	WARREN	PA	16329	YES	NO	NO	NO								332111	332710					41.8397	-79.26828	128603664								THE ELLWOOD GROUP INC	004341087	1311209593300	007439965	MANGANESE	TRI	Pounds																		NA									N 																																																			NO	RVALENTINE@ELWD.COM			YES	 	
2011	NO	17566STNRN1070R	STONER INC	1070 ROBERT FULTON HWY	QUARRYVILLE	LANCASTER	PA	175660065	YES	NO	NO	NO								325998						39.86055	-76.15258	003008778										1311209787466	000079016	TRICHLOROETHYLENE	TRI	Pounds																		NA									N 																																																			NO	HZECHMAN@STONERSOLUTIONS.COM			NO	 	
2011	NO	17405NWYRK829LO	NEW YORK WIRE - WIRE FACILITY	829 LOUCKS MILL RD	YORK	YORK	PA	17402	YES	NO	NO	NO								331222						39.97723	-76.72307	003010428								WIRE CO HOLDINGS INC	003010428	1311209819034	007440508	COPPER	TRI	Pounds																		NA									N 																																																			NO	FGAITERI@NEWYORKWIRE.COM			YES	 	
2011	NO	15521CRTVPPLEAS	CREATIVE PULTRUSIONS INC	214 INDUSTRIAL LN	ALUM BANK	BEDFORD	PA	155218304	YES	NO	NO	NO								326199						40.181721	-78.611158	077491942										1311209031879	000080626	METHYL METHACRYLATE	TRI	Pounds																		NA									N 																																																			NO	SWEYANT@PULTRUDE.COM			NO	 	
2011	NO	15301DRKNFWESTW	FERRO CORP	251 W WYLIE AVE	WASHINGTON	WASHINGTON	PA	153010519	YES	NO	NO	NO								325131	325132					40.179107	-80.271785									FERRO CORP	004161477	1311209366929	N010	ANTIMONY COMPOUNDS	TRI	Pounds																		NA									N 																																																			NO	SHEILA.SCOTT@FERRO.COM			YES	 	
2011	NO	17552MNTJY1088E	MOUNT JOY MILL	1088 E MAIN ST	MOUNT JOY	LANCASTER	PA	17552	NO	NO	NO	NO								311119						40.11046	-76.47101	054143706								PENNFIELD CORP	054143706	1311209789902	N450	MANGANESE COMPOUNDS	TRI	Pounds																																																																														NO				YES	 	
2011	NO	19020NTNLR539DU	NATIONAL REFRIGERATION & A/C PRODUCTS	539 DUNKSFERRY RD	BENSALEM	BUCKS	PA	19020	YES	NO	NO	NO								333415						40.079879	-74.925138	195582853										1311209285927	007440473	CHROMIUM	TRI	Pounds																		NA									N 																																																			NO	ECARRUTHERS@NRAC.COM			YES	 	
2011	NO	15650STNDR107GE	LEHIGH SPECIALTY MELTING INC	107 GERTRUDE ST	LATROBE	WESTMORELAND	PA	15650	YES	NO	NO	NO								331111						40.309573	-79.382325									WHEMCO INC		1311209425192	N090	CHROMIUM COMPOUNDS(EXCEPT CHROMITE ORE MINED IN THE TRANSVAAL REGION)	TRI	Pounds																		A	A06								N 	E4		A	A06								N 	E4																																						NO	CCOHOLICH@WHEMCO.COM			YES	 	
2011	NO	17833WDMTL1SECO	WOOD-MODE INC	1 SECOND ST	KREAMER	SNYDER	PA	17833	YES	NO	NO	NO								337110						40.80314	-76.96265	003019114										1311209074994	000100414	ETHYLBENZENE	TRI	Pounds																		A	H040								N 	E3																																																		NO	JASOND@WOODMODE.COM			NO	 	
2011	NO	15017CYTMPMAYER	UNIVERSAL STAINLESS & ALLOY PRODUCTS INC	600 MAYER ST	BRIDGEVILLE	ALLEGHENY	PA	15017	YES	NO	NO	NO								331221						40.36483	-80.10521	861336501								UNIVERSAL STAINLESS & ALLOY PRODUCTS INC		1311209129966	007440473	CHROMIUM	TRI	Pounds																		A	A07								N 	E4		W	H082	H123							N 	E4																																						NO	P.MCGRATH@UNIVSTAINLESS.COM			YES	 	
2011	NO	19148NLXCHJACKS	INOLEX CHEMICAL CO	JACKSON & SWANSON ST	PHILADELPHIA	PHILADELPHIA	PA	191483497	YES	NO	NO	NO								325199						39.92012	-75.14641	059766675								INOLEX CHEMICAL CO	059766675	1311209500432	000107211	ETHYLENE GLYCOL	TRI	Pounds																		NA									N 																																																			NO	RKNERR@INOLEX.COM			NO	 	
2011	NO	16740LLGHNRD1HU	TEMPLE-INLAND-MTJEWETT COMPLE X-MDF	149 TEMPLE DR	MOUNT JEWETT	MCKEAN	PA	16740	YES	NO	NO	NO								321219						41.676111	-78.643611	126484422								TEMPLE-INLAND INC	103844346	1311209647686	N120	DIISOCYANATES	TRI	Pounds																		A	H040								N 	E5																																																		NO	HEATHERREITER@TEMPLEINLAND.COM			NO	 	
2011	NO	19464BSTWL40ROB	BESTWELD INC	40 ROBINSON ST	POTTSTOWN	MONTGOMERY	PA	19464	YES	NO	NO	NO								332996						40.25762	-75.66228	108847161										1311209832043	007440473	CHROMIUM	TRI	Pounds																		NA									N 																																																			NO	RBAYARD@BESTWELD.COM			YES	 	
2011	NO	15501RXCLR631HR	PBS COALS ROYTOWN MINE	631 HORNER RD	SOMERSET	SOMERSET	PA	15501	YES	NO	NO	NO								212111						40.105026	-79.139383	016089138								SEVERSTAL NA INC	016089138	1311209351372	N458	MERCURY COMPOUNDS	PBT	Pounds																		NA									N 																																																			NO	KBETCHER@PBSCOALS.COM			YES	 	
2011	NO	19551RDNGLPOBOX	READING ALLOYS INC	220 OLD W PENN AVE	ROBESONIA	BERKS	PA	19551	YES	NO	NO	NO								331314						40.343024	-76.117646	002333490								AMETEK INC	001345149	1311209270483	N770	VANADIUM COMPOUNDS	TRI	Pounds																		NA									N 																																																			NO				YES	 	
2011	NO	17756WNGRS6829R	WENGER'S FEED MILL INC MUNCY	6829 RT 405 HWY	MUNCY	LYCOMING	PA	17756	YES	NO	NO	NO								311119						41.195	-76.822778									WENGER'S FEED MILL INC		1311209164274	N725	SELENIUM COMPOUNDS	TRI	Pounds																																																																														NO	MLUTZ@WENGERFEEDS.COM			YES	 	
2011	NO	16433LRDCRSOUTH	LORD CORP	601 S ST	SAEGERTOWN	CRAWFORD	PA	164331050	YES	NO	NO	NO								325520	325510					41.713056	-80.141944	048203822								LORD CORP	048203822	1311209426636	N120	DIISOCYANATES	TRI	Pounds																																																																														NO	DAWN_ASTORINO@LORD.COM			NO	 	
2011	NO	18240PNTHRRTE54	PANTHER CREEK PARTNERS	4 DENNISON RD	NESQUEHONING	CARBON	PA	18240	YES	NO	NO	NO								221112						40.855556	-75.877222	622464493										1311209500949	007664417	AMMONIA	TRI	Pounds																		NA									N 																																																			NO	GENLMGR4@NETSCAPE.NET			NO	 	
2011	NO	18240PNTHRRTE54	PANTHER CREEK PARTNERS	4 DENNISON RD	NESQUEHONING	CARBON	PA	18240	YES	NO	NO	NO								221112						40.855556	-75.877222	622464493										1311209501055	007439976	MERCURY	PBT	Pounds																		NA									N 																																																			NO	GENLMGR4@NETSCAPE.NET			YES	 	
2011	NO	17876SNBRYOLDSU	SUNBURY GENERATION LP	OLD SUSQUEHANNA TRAIL	SHAMOKIN DAM	SNYDER	PA	17876	YES	NO	NO	NO								221112						40.836944	-76.825	110843567								CORONA POWER LLC		1311209534217	N090	CHROMIUM COMPOUNDS(EXCEPT CHROMITE ORE MINED IN THE TRANSVAAL REGION)	TRI	Pounds																		NA									N 																																																			NO	ED.GRIEGEL@SUNBURYGEN.COM			YES	 	
2011	NO	16701KNDLL77NKE	AMERICAN REFINING GROUP INC	77 N KENDALL AVE	BRADFORD	MCKEAN	PA	16701	YES	NO	NO	NO								324110						41.966389	-78.629444	021957329										1311209629880	000110543	N-HEXANE	TRI	Pounds																		NA									N 																																																			NO	SSHERK@AMREF.COM			NO	 	
2011	NO	16701KNDLL77NKE	AMERICAN REFINING GROUP INC	77 N KENDALL AVE	BRADFORD	MCKEAN	PA	16701	YES	NO	NO	NO								324110						41.966389	-78.629444	021957329										1311209629942	001330207	XYLENE (MIXED ISOMERS)	TRI	Pounds																		NA									N 																																																			NO	SSHERK@AMREF.COM			NO	 	
2011	NO	1502WFLBGS221SW	FLABEG SOLAR US CORP	2201 SWEENEY DR	CLINTON	ALLEGHENY	PA	15026	YES	NO	NO	NO								327215						40.4972	-80.286											1311209704461	000108883	TOLUENE	TRI	Pounds																		NA									N 																																																			NO	CHRIS.TULLY@FLABEG.COM			NO	 	
2011	NO	19145TLNTC3144P	SUNOCO INC (R&M)  PHILADELPHIA REFINERY	3144 PASSYUNK AVE	PHILADELPHIA	PHILADELPHIA	PA	19145	YES	NO	NO	NO								324110						39.920115	-75.198503	620263855								SUNOCO INC	057152217	1311209708256	000100414	ETHYLBENZENE	TRI	Pounds																		W	H123	H124	H081	H123	H129				N 	E3		S	H101								N 	E5		A	A04								N 	E4		A	A01								N 	E4		W	H123	H124	H081	H123					N 	E3		NO	CLCORLEY@SUNOCOINC.COM			NO	 	
2011	NO	15074THVLS372CL	ENGINEERED POLYMER SOLUTIONS INC D/B/A VALSPAR COATINGS	372 CLEVELAND ST	ROCHESTER	BEAVER	PA	15074	YES	NO	NO	NO								325510						40.71136	-80.28807	113429062								THE VALSPAR CORP	050736453	1311209712456	000079107	ACRYLIC ACID	TRI	Pounds																		NA									N 																																																			NO	SETHIER@VALSPAR.COM			NO	 	
2011	NO	19381MTLLR810LI	METALLURGICAL PRODUCTS CO	810 LINCOLN AVE	WEST CHESTER	CHESTER	PA	19380	YES	NO	NO	NO								331423						39.97158	-75.59416											1311209750948	007723140	PHOSPHORUS (YELLOW OR WHITE)	TRI	Pounds																		NA									N 																																																			NO	MGOODMAN@METPRODCO.COM			NO	 	
2011	NO	16033BSFCR1424M	BASF CORP	1424 MARS-EVANS CITY RD	EVANS CITY	BUTLER	PA	160339360	YES	NO	NO	NO								325188						40.748009	-80.035698	001307032								BASF CORP		1311209773934	000110827	CYCLOHEXANE	TRI	Pounds																		NA									N 																																																			NO	JUDY.BRINKMAN@BASF.COM			NO	 	
2011	NO	18052BRDSBFRONT	BRIDESBURG FOUNDRY CO	FRONT & GRAPE ST	WHITEHALL	LEHIGH	PA	18052	YES	NO	NO	NO								331525						40.636667	-75.467222	00340256										1311209787124	007440508	COPPER	TRI	Pounds																		A	A06	NA								E4																																																		NO	TOM@BRIDESBURG.COM			YES	 	
2011	NO	18017NHLNP3950S	PIRAMAL CRITICAL CARE	3950 SCHELDEN CIR	BETHLEHEM	NORTHAMPTON	PA	18017	YES	NO	NO	YES								325412						40.67552	-75.3775	160044640								PIRAMAL HEALTHCARE	160044640	1311209112541	007782505	CHLORINE	TRI	Pounds																		NA									N 																																																			NO	WILLIAM.ALLISON@PIRAMAL.COM			NO	 	
2011	NO	18017NHLNP3950S	PIRAMAL CRITICAL CARE	3950 SCHELDEN CIR	BETHLEHEM	NORTHAMPTON	PA	18017	YES	NO	NO	YES								325412						40.67552	-75.3775	160044640								PIRAMAL HEALTHCARE	160044640	1311209112554	000075456	CHLORODIFLUOROMETHANE	TRI	Pounds																		NA									N 																																																			NO	WILLIAM.ALLISON@PIRAMAL.COM			NO	 	
2011	NO	15944CNMGHRTE20	CONEMAUGH POWER PLANT	1442 POWER PLANT RD	NEW FLORENCE	INDIANA	PA	15944	YES	NO	NO	NO								221112						40.388176	-79.056787	118301233								GENON ENERGY INC	082679788	1311209280926	007647010	HYDROCHLORIC ACID (1995 AND AFTER "ACID AEROSOLS" ONLY)	TRI	Pounds																		A	H082	A05	A03						N 	E4																																																		NO	JAMES.BRUNSON@GENON.COM			NO	 	
2011	NO	17856THRML2821L	SPX THERMAL PRODUCT SOLUTIONS	2821 OLD RT 15	NEW COLUMBIA	UNION	PA	17856	YES	NO	NO	NO								333994	333999					41.061609	-76.869949	106206857								SPX CORP		1311209330998	007440020	NICKEL	TRI	Pounds																		NA									N 																																																			NO	KELLI.LYTLE@SPX.COM			YES	 	
2011	NO	16365SPRRT1818P	SUPERIOR TIRE & RUBBER CORP	1818 PENNSYLVANIA AVE W	WARREN	WARREN	PA	16365	YES	NO	NO	NO								326211						41.83782	-79.17304	002131357										1311209192727	007439965	MANGANESE	TRI	Pounds																		NA									N 																																																			NO				YES	 	
2011	NO	18255WTHRLCOMME	WEATHERLY CASTING & MACHINE CO	300 COMMERCE ST	WEATHERLY	CARBON	PA	18255	YES	NO	NO	NO								331513						40.94485	-75.82704	002390219										1311208977710	007440473	CHROMIUM	TRI	Pounds																																																																														NO	MLEIB@WECAST.COM			YES	 	
2011	NO	17604JLCLR303NO	JL CLARK LANCASTER DIV	303 N PLUM ST	LANCASTER	LANCASTER	PA	17602	YES	NO	NO	NO								332431						40.04418	-76.2981	003025327								CLARCOR INC	005162417	1311209154778	000095636	1,2,4-TRIMETHYLBENZENE	TRI	Pounds																		A	A07								N 	E5		A	A07								N 	E4																																						NO	WSHEAFFER@JLCLARK.COM			NO	 	
2011	NO	15944SWRDS595PL	SEWARD POWER PLANT	595 PLANT RD	NEW FLORENCE	INDIANA	PA	15944	YES	NO	NO	NO								221112						40.399911	-79.037225									GENON ENERGY INC	082679788	1311209306733	N725	SELENIUM COMPOUNDS	TRI	Pounds																		A	A06								N 	E4		S	H129								N 	E6																																						NO	STEVEN.YUHAS@GENON.COM			YES	 	
2011	NO	19512CBTCRCOUNT	CABOT SUPERMETALS	650 COUNTY LINE RD	BOYERTOWN	BERKS	PA	195121608	YES	NO	NO	NO								331419	325188					40.33212	-75.62317	075292409								CABOT CORP	001013580	1311209374673	000108101	METHYL ISOBUTYL KETONE	TRI	Pounds																		A	A02								N 	E5		W	H077	H123	H121						N 	E6																																						NO	TKNAPP@GLOBALADVANCEDMETALS.COM			NO	 	
2011	NO	18951CLVLN350MI	CLEVELAND STEEL CONTAINER CORP	350 MILL ST	QUAKERTOWN	BUCKS	PA	18951	YES	NO	NO	NO								332439						40.44659	-75.337486			PAD053276085		PAR200024				CLEVELAND STEEL CONTAINER CORP		1311209546403	001330207	XYLENE (MIXED ISOMERS)	TRI	Pounds																		A	H040								N 	E5																																																		NO	BHARDING@CSCPAIL.COM			NO	 	
2011	NO	18517SCDYNSTAUF	POLYCHEMIE INC	10 STAUFFER INDUSTRIAL PARK	TAYLOR	LACKAWANNA	PA	18517	YES	NO	NO	NO								325998						41.393608	-75.70189	945724672								SNF HOLDING CO	878930965	1311209410430	000050000	FORMALDEHYDE	TRI	Pounds																																																																														NO	BHANSON@SNFHC.COM			NO	 	
2011	NO	17777HGNSCYURIS	HOEGANAES CORP	4330 PARADISE RD	WATSONTOWN	NORTHUMBERLAND	PA	17777	YES	NO	NO	NO								331111						41.061111	-76.836111	001519107								GKN NA INC	071754337	1311209236304	007440020	NICKEL	TRI	Pounds																		NA									N 																																																			NO				YES	 	
2011	NO	16686QLTYCINDUS	ALBEMARLE CORP	2858 BACK VAIL RD	TYRONE	BLAIR	PA	166860216	YES	NO	NO	NO								325110						40.693056	-78.230556	825080096								ALBEMARLE CORP		1311209031552	001330207	XYLENE (MIXED ISOMERS)	TRI	Pounds																		NA									N 																																																			NO	JENNIFER_FORDICK@ALBEMARLE.COM			NO	 	
2011	NO	19440SCHLS2641T	SCHLOSSER STEEL,INC	2641 TOWNSHIP LINE RD	HATFIELD	MONTGOMERY	PA	19440	YES	NO	NO	NO								332312						40.29841	-75.30937											1311209097017	007439921	LEAD	TRI	Pounds																		NA									N 																																																			NO	PSCHLOSSER@SCHLOSSERSTEEL.COM			YES	 	
2011	NO	15020SNCCHBUNOL	UNIVAR USA INC - BUNOLA BRANCH	328 BUNOLA RIVER RD	BUNOLA	ALLEGHENY	PA	15020	YES	NO	NO	NO								424690						40.237222	-79.961389									UNIVAR USA INC	102971785	1311209122997	000067561	METHANOL	TRI	Pounds																		NA									N 																																																			NO	STEVEN.BERG@UNIVARUSA.COM			NO	 	
2011	NO	17545FLSMD262SC	FL SMIDTH INC	262 S CHERRY ST	MANHEIM	LANCASTER	PA	17545	YES	NO	NO	NO								333912						40.15758	-76.39259											1311209338072	007440473	CHROMIUM	TRI	Pounds																		NA									N 																																																			NO	JOHN.HOUGENDOBLER@FLSMIDTH.COM			YES	 	
2011	NO	15748MHMRC1750P	EME HOMER CITY GENERATION LP	1750 POWER PLANT RD	HOMER CITY	INDIANA	PA	15748	YES	NO	NO	NO								221112						40.51104	-79.197481	077011539								EDISON INTERNATIONAL	195138458	1311209376920	000064186	FORMIC ACID	TRI	Pounds																		NA									N 																																																			NO	DMCFARLAN@MWGEN.COM			NO	 	
2011	NO	15201MCCNW10948	MCCONWAY & TORLEY CORP PLT 1403	109 48TH ST	PITTSBURGH	ALLEGHENY	PA	15201	YES	NO	NO	NO								331513						40.47857	-79.96154	003061470								TRINITY INDUSTRIES INC	007324254	1311209075581	N420	LEAD COMPOUNDS	PBT	Pounds																		NA									N 																																																			NO	DAVID.WEST@TRIN.NET			YES	 	
2011	NO	16512MRDRV1802P	AMERIDRIVES INTERNATIONAL COUPLING PRODUCTS	1802 PITTSBURGH AVE	ERIE	ERIE	PA	16512	YES	NO	NO	NO								333613						42.09952	-80.12705									AMERIDRIVES INTERNATIONAL	964147078	1311209178488	007440473	CHROMIUM	TRI	Pounds																		NA									N 																																																			NO				YES	 	
2011	NO	18252RPRDCPOBOX	AIR PRODUCTS & CHEMICALS INC ELECTRONICS SPECIALTY MATERIALS	357 MARIAN AVE	TAMAQUA	SCHUYLKILL	PA	182520351	YES	NO	NO	NO								325120						40.833808	-76.023228	003001070								AIR PRODUCTS & CHEMICALS INC	003001070	1311209307711	007782492	SELENIUM	TRI	Pounds																		NA									N 																																																			NO	KECKBR@AIRPRODUCTS.COM			YES	 	
2011	NO	16673PPLTN100PA	APPLETON PAPERS INC	100 PAPER MILL RD	ROARING SPRING	BLAIR	PA	16673	YES	NO	NO	NO								322121						40.3375	-78.405833	089581557								APPLETON PAPERS INC	089581557	1311209354719	N458	MERCURY COMPOUNDS	PBT	Pounds																		A	A03								N 	E4		A	A03								N 	E3		A	A06	A03							N 	E5		W	H129	H123	H129	H081	H123				N 	E4		A	A05								N 	E6		NO	TCHURBOCK@APPLTONIDEAS.COM			YES	 	
2011	NO	15321MLLRC110CE	MILLER CENTRIFUGAL CASTING CO	110 CENTRIFUGAL LN	MC DONALD	WASHINGTON	PA	15057	YES	NO	NO	NO								331525						40.319444	-80.213333	831568246								MCC INTERNATIONAL INC	831568246	1311209308675	N100	COPPER COMPOUNDS	TRI	Pounds																		NA									N 																																																			NO	ISADLER@MILLERCENTRIFUGAL.COM			YES	 	
2011	NO	19021GRGSC3015S	GEORGE S COYNE CHEMICAL CO INC	3015 STATE RD	CROYDON	BUCKS	PA	19021	YES	NO	NO	NO								424690						40.094774	-74.879791	014667240										1311209652205	000110827	CYCLOHEXANE	TRI	Pounds																																																																														NO	TCOYNE@COYNECHEMICAL.COM			NO	 	
2011	NO	19320CGSMC1245M	CIGAS MACHINE SHOP INC	1245 MANOR RD	COATESVILLE	CHESTER	PA	19320	YES	NO	NO	NO								332710						40.01903	-75.81837	002387116								CIGAS MACHINE SHOP INC		1311209226707	007440020	NICKEL	TRI	Pounds																		NA									N 																																																			NO	CRAIG@CIGASMACHINE.COM			YES	 	
2011	NO	16329NTNLF1FRON	ELLWOOD NATIONAL FORGE CO	1 FRONT ST	IRVINE	WARREN	PA	16329	YES	NO	NO	NO								332111	332710					41.8397	-79.26828	128603664								THE ELLWOOD GROUP INC	004341087	1311209593274	007440484	COBALT	TRI	Pounds																		NA									N 																																																			NO	RVALENTINE@ELWD.COM			YES	 	
2011	NO	17405NWYRK829LO	NEW YORK WIRE - WIRE FACILITY	829 LOUCKS MILL RD	YORK	YORK	PA	17402	YES	NO	NO	NO								331222						39.97723	-76.72307	003010428								WIRE CO HOLDINGS INC	003010428	1311209819061	007440020	NICKEL	TRI	Pounds																		NA									N 																																																			NO	FGAITERI@NEWYORKWIRE.COM			YES	 	
2011	NO	17404GTPRD1128R	OSRAM SYLVANIA INC	1128 ROOSEVELT AVE	YORK	YORK	PA	17404	YES	NO	NO	NO								332116	335110					39.97498	-76.75486	011436953								OSRAM SYLVANIA INC	001495928	1311209013503	000079016	TRICHLOROETHYLENE	TRI	Pounds																		A	A04								N 	E4		W	H124	H083	H082						N 	E3																																						NO	DAVID.RUST@SYLVANIA.COM			NO	 	
2011	NO	18109MPRDC44UNI	MI PRODUCTS INC	404 UNION BLVD	ALLENTOWN	LEHIGH	PA	18109	YES	NO	NO	NO								332710						40.61846	-75.45524									METEM INTERNATIONAL	886062398	1311209705159	007440020	NICKEL	TRI	Pounds																		W	H077	H121	H071	H129	H123	H101			N 	E3																																																		NO	MARK.SCHNABEL@OUTLOOKSERVER.NET			YES	 	
2011	NO	19510LLNTWFOOTO	LEHIGH CEMENT CO - EVANSVILLE	537 EVANSVILLE RD	FLEETWOOD	BERKS	PA	19522	YES	NO	NO	NO								327310						40.47511	-75.8931	967342197								LEHIGH HANSON	967342197	1311209119294	N150	DIOXIN AND DIOXIN-LIKE COMPOUNDS	DIOXIN	Grams																		NA									N 																																																			NO	CBORTZ@LEHIGHCEMENT.COM			NO	 	
2011	NO	15225CLGNC200NE	CALGON CARBON CORP NEVILLE ISLAND PLANT	200 NEVILLE RD	PITTSBURGH	ALLEGHENY	PA	15225	YES	NO	NO	NO								325998						40.49214	-80.07991	004319810								CALGON CARBON CORP		1311209252749	N090	CHROMIUM COMPOUNDS(EXCEPT CHROMITE ORE MINED IN THE TRANSVAAL REGION)	TRI	Pounds																		NA									N 																																																			NO				YES	 	
2011	NO	17543PRCSN148WE	PRECISIONFORM INC	148 W AIRPORT RD	LITITZ	LANCASTER	PA	17543	YES	NO	NO	NO								332721	332722					40.11635	-76.31175	154332811										1311209301567	007439921	LEAD	TRI	Pounds																																																																														NO	RFREY@PRECISIONFORM.COM			YES	 	
2011	NO	15025RSTCH400ST	KOPPERS INC CLAIRTON TAR PLANT	300 N STATE ST	CLAIRTON	ALLEGHENY	PA	15025	YES	NO	NO	NO								325110						40.30695	-79.88639	938682853								KOPPERS INC	196991582	1311209391186	000071432	BENZENE	TRI	Pounds																		A	A07								N 	E4																																																		NO				NO	 	
2011	NO	15377BLYNL332EN	BAILEY/ENLOW FORK MINING COMPL EX	332 ENON CHURCH RD	WEST FINLEY	GREENE	PA	15377	YES	NO	NO	NO								212112						39.974672	-80.420907	803896752								CONSOL ENERGY INC	787008408	1311209799269	007647010	HYDROCHLORIC ACID (1995 AND AFTER "ACID AEROSOLS" ONLY)	TRI	Pounds																		A	A03								N 	E5																																																		NO	LYNNSEAY@CONSOLENERGY.COM			NO	 	
2011	NO	19087JHNSN43645	JOHNSON MATTHEY INC	434, 436, 456 DEVON PARK DR	WAYNE	CHESTER	PA	19087	YES	NO	NO	NO								336399						40.074238	-75.416916	069889657								JOHNSON MATTHEY INC	099079063	1311209176650	N511	NITRATE COMPOUNDS	TRI	Pounds																		W	H123								N 	E5																																																		NO	LACKESE@JMUSA.COM			NO	 	
2011	NO	17066BRTLCLENAP	FCI USA LLC HUNTINGDON COUNTY	11823 LENAPE DR	MOUNT UNION	HUNTINGDON	PA	17066	YES	NO	NO	NO								334417						40.363889	-77.857222	879289478								FCI USA LLC	001184167	1311209233055	007664939	SULFURIC ACID (1994 AND AFTER "ACID AEROSOLS" ONLY)	TRI	Pounds																		A	A03								N 	E3		A	A02								N 	E3																																						NO	SCOTT.DURNIN@FCI.COM			NO	 	
2011	NO	15632BSTFL6015E	DORMONT MANUFACTURING CO	6015 ENTERPRISE DR	EXPORT	WESTMORELAND	PA	156328969	YES	NO	NO	NO								331210						40.403889	-79.614722	004396909								WATTS WATER TECHNOLOGIES	152163093	1311209722317	007439965	MANGANESE	TRI	Pounds																		NA									N 																																																			NO	SRAMER@DORMONT.COM			YES	 	
2011	NO	1911WPHLDL1915S	PHILADELPHIA SHIP REPAIR LLC	1915 S 19 TH ST	PHILADELPHIA	PHILADELPHIA	PA	19112	YES	NO	NO	NO								336611						39.92741	-75.17721	965190825								NORTHEAST SHIP REPAIR LLC	965190825	1311209324856	N100	COPPER COMPOUNDS	TRI	Pounds																		NA									N 																																																			NO	PGILES@NORTHEASTSHIP.COM			YES	 	
2011	NO	15104SSDGRBRADD	USS MON VALLEY WORKS - EDGAR THOMSON PLANT	BRADDOCK AVE & 13TH ST	BRADDOCK	ALLEGHENY	PA	15104	YES	NO	NO	NO								331111						40.390833	-79.860556	060682606								US STEEL CORP	029990699	1311209407648	N420	LEAD COMPOUNDS	PBT	Pounds																		A	A07								N 	E5		A	A06								N 	E4		A	A03								N 	E3		A	A07	A03							N 	E5		W	H101								N 	E3		NO				YES	 	
2011	NO	15104SSDGRBRADD	USS MON VALLEY WORKS - EDGAR THOMSON PLANT	BRADDOCK AVE & 13TH ST	BRADDOCK	ALLEGHENY	PA	15104	YES	NO	NO	NO								331111						40.390833	-79.860556	060682606								US STEEL CORP	029990699	1311209407725	007632000	SODIUM NITRITE	TRI	Pounds																		W	H101								N 	E1																																																		NO				YES	 	
2011	NO	16229BRGNDSILVE	OBERG FREEPORT	2301 SILVERVILLE RD	FREEPORT	BUTLER	PA	16229	YES	NO	NO	NO								333514	339112					40.67292	-79.71297	004344644								OBERG INDUSTRIES INC	004344644	1311209825330	007440020	NICKEL	TRI	Pounds																		A	A06									E4																																																		NO	GREG.CHAMBERS@OBERG.COM			YES	 	
2011	NO	15522BDFRDRD2BO	BEDFORD REINFORCED PLASTICS INC	264 REYNOLDSDALE RD	BEDFORD	BEDFORD	PA	15522	YES	NO	NO	NO								326130						40.105472	-78.532721											1311209036868	000100425	STYRENE	TRI	Pounds																		S	H111								N 	E4																																																		NO	DANA@BEDFORDPLASTICS.COM			NO	 	
2011	NO	15601MRMRFBROAD	MOORE & MORFORD INC	1030 BROAD ST	GREENSBURG	WESTMORELAND	PA	15601	YES	NO	NO	NO								332312						40.284034	-79.545618	004344685										1311209154741	007439965	MANGANESE	TRI	Pounds																																																																														NO	JPM@MMSTEELFAB.COM			YES	 	
2011	NO	18974MLTNR201IV	MILTON ROY AMERICAS	201 IVYLAND RD	IVYLAND	BUCKS	PA	18974	YES	NO	NO	NO								333911						40.20866	-75.07572	004097309								UNITED TECHNOLOGIES CORP	001344142	1311209331242	007440020	NICKEL	TRI	Pounds																		NA									N 																																																			NO	DFRANKE@MILTONROY.COM			YES	 	
2011	NO	19460CRMBYTOWNA	EXELON CORP CROMBY GENERATING STATION	100 CROMBY RD	PHOENIXVILLE	CHESTER	PA	194601841	YES	NO	NO	NO								221112						40.152977	-75.528931	196748938								EXELON CORP	001807150	1311209447477	007664939	SULFURIC ACID (1994 AND AFTER "ACID AEROSOLS" ONLY)	TRI	Pounds																		A	A03	A05	A07						N 	E5																																																		NO	WILLIAM.SWAHL@EXELONCORP.COM			NO	 	
2011	NO	16365WSTPN1425M	WEST PENN OIL CO,INC130130	2305 MARKET ST EXT.	WARREN	WARREN	PA	16365	YES	NO	NO	NO								324191						41.86069	-79.152953	097653349										1311209121464	000095636	1,2,4-TRIMETHYLBENZENE	TRI	Pounds																		NA									N 																																																			NO	LALANG@WESTPENN.COM			NO	 	
2011	NO	18020MHNNC2513H	POLYONE CORP	2513 HIGHLAND AVE	BETHLEHEM	NORTHAMPTON	PA	18020	YES	NO	NO	NO								325991						40.674727	-75.363339	800967705								POLYONE CORP	800967705	1311209329679	N040	BARIUM COMPOUNDS	TRI	Pounds																																																																														NO	JOE.SIRIANNI@POLYONE.COM			YES	 	
2011	NO	1704WLFLVL8CHES	ALFA LAVAL INC	300 CHESNUT ST	LYKENS	DAUPHIN	PA	17048	YES	NO	NO	NO								332410						40.568142	-76.694251	001328236								ALFA LAVAL INC	001328236	1311209420886	007440020	NICKEL	TRI	Pounds																		NA									N 																																																			NO	WAYNE.HEYER@ALFALAVAL.COM			YES	 	
2011	NO	15301JSSPS500GR	JESSOP STEEL LLC	500 GREEN ST	WASHINGTON	WASHINGTON	PA	15301	YES	NO	NO	NO								331111						40.06427	-79.88909	004322343								ALLEGHENY TECHNOLOGIES INC	949262737	1311209343526	007664393	HYDROGEN FLUORIDE	TRI	Pounds																		W	H077	H129	H123	H101					N 	E3																																																		NO	DAN.GREENFIELD@ATIMETALS.COM			NO	 	
2011	NO	15301JSSPS500GR	JESSOP STEEL LLC	500 GREEN ST	WASHINGTON	WASHINGTON	PA	15301	YES	NO	NO	NO								331111						40.06427	-79.88909	004322343								ALLEGHENY TECHNOLOGIES INC	949262737	1311209343538	N450	MANGANESE COMPOUNDS	TRI	Pounds																		W	H077	H129	H123	H101					N 	E3		A	A06								N 	E3																																						NO	DAN.GREENFIELD@ATIMETALS.COM			YES	 	
2011	NO	19320LKNSSMODEN	ARCELORMITTAL PLATE LLC COATESVILLE FACILITY	139 MODENA RD	COATESVILLE	CHESTER	PA	19320	YES	NO	NO	NO								331111						39.983013	-75.827911	062557892								ARCELORMITTAL USA	107970886	1311209809526	N450	MANGANESE COMPOUNDS	TRI	Pounds																		A	A06	NA										W	H077	H123	H121	NA																																												NO	RAY.AJALLI@ARCELORMITTAL.COM			YES	 	
2011	NO	15024RDLND230RI	REDLAND BRICK INC HARMAR PLANT	26 RICH HILL RD	CHESWICK	ALLEGHENY	PA	15024	YES	NO	NO	NO								327121						40.559779	-79.840226	003062403								THE BELDEN BRICK CO	004468690	1311208983787	007440473	CHROMIUM	TRI	Pounds																																																																														NO	WES.FRAVEL@REDLANDBRICK.COM			YES	 	
2011	NO	17815KLRDX6685L	KYDEX LLC	6685 LOW ST	BLOOMSBURG	COLUMBIA	PA	17815	YES	NO	NO	NO								326113						41.0281	-76.347313	180020901								SEKISUI AMERICA CORP		1311209075187	N010	ANTIMONY COMPOUNDS	TRI	Pounds																		NA									N 																																																			NO	VOLPED@KYDEX.COM			YES	 	
2011	NO	19428CHMLLCONSH	CHEMALLOY CO INC	1301 CONSHOHOCKEN RD	CONSHOHOCKEN	MONTGOMERY	PA	19428	YES	NO	NO	NO								331112						40.10242	-75.31823	043566777								CHEMALLOY CO INC	043566777	1311209087004	000554132	LITHIUM CARBONATE	TRI	Pounds																																																																														NO				YES	 	
2011	NO	17033HRSHY1033O	HERSHEY CO WEST HERSHEY PLANT	1033 OLD W CHOCOLATE AVE	HERSHEY	DAUPHIN	PA	17033	YES	NO	NO	NO								311330						40.278333	-76.675833	003002052								HERSHEY CO	003002052	1311209219827	N511	NITRATE COMPOUNDS	TRI	Pounds																		NA									N 																																																			NO	JBECKMAN@HERSHEYS.COM			NO	 	
2011	NO	15931CMBRC243RU	CAMBRIA COGEN CO	243 RUBISCH RD	EBENSBURG	CAMBRIA	PA	15931	YES	NO	NO	NO								221112						40.473611	-78.701389	148629848								NORTHERN STAR GENERATION SERVICES LLC		1311209221199	N450	MANGANESE COMPOUNDS	TRI	Pounds																		NA									N 																																																			NO	SHAWN.SIMMERS@NSGEN.COM			YES	 	
2011	NO	17601CLRKF3649H	CLARK FILTER	3649 HEMPLAND RD	LANCASTER	LANCASTER	PA	17601	YES	NO	NO	NO								336510						40.0455	-76.40893	095370740		PAD095370748						CLARCOR INC	005162417	1311209287489	000108952	PHENOL	TRI	Pounds																		A	A07								N 	E5																																																		NO	RKURCINA@CLARKFILTER.COM			NO	 	
2011	NO	18653PPTLBMAINS	CASCADES TISSUE GROUP PA INC RANSOM MILL	1 MAIN ST	RANSOM	LACKAWANNA	PA	18653	YES	NO	NO	NO								322121						41.390278	-75.814722									CASCADES TISSUE GROUP		1311209531728	N150	DIOXIN AND DIOXIN-LIKE COMPOUNDS	DIOXIN	Grams																		NA									N 																																																			NO	YVES_LAMOTHE@CASCADES.COM			NO	 	
2011	NO	1903WBNGTN55LDB	ABINGTON RELDAN METALS LLC	550 OLD BORDENTOWN RD	FAIRLESS HILLS	BUCKS	PA	19030	YES	NO	NO	NO								331419						40.1675	-74.758056											1311209593209	007439921	LEAD	TRI	Pounds																		NA									N 																																																			NO	RKORODAN@ARMETALS.COM			YES	 	
2011	NO	16701KNDLL77NKE	AMERICAN REFINING GROUP INC	77 N KENDALL AVE	BRADFORD	MCKEAN	PA	16701	YES	NO	NO	NO								324110						41.966389	-78.629444	021957329										1311209629841	000100414	ETHYLBENZENE	TRI	Pounds																		W	H081								N 	E4																																																		NO	SSHERK@AMREF.COM			NO	 	
2011	NO	19145TLNTC3144P	SUNOCO INC (R&M)  PHILADELPHIA REFINERY	3144 PASSYUNK AVE	PHILADELPHIA	PHILADELPHIA	PA	19145	YES	NO	NO	NO								324110						39.920115	-75.198503	620263855								SUNOCO INC	057152217	1311209708407	000115071	PROPYLENE	TRI	Pounds																		NA									N 																																																			NO	CLCORLEY@SUNOCOINC.COM			NO	 	
2011	NO	19145TLNTC3144P	SUNOCO INC (R&M)  PHILADELPHIA REFINERY	3144 PASSYUNK AVE	PHILADELPHIA	PHILADELPHIA	PA	19145	YES	NO	NO	NO								324110						39.920115	-75.198503	620263855								SUNOCO INC	057152217	1311209708419	000100425	STYRENE	TRI	Pounds																		NA									N 																																																			NO	CLCORLEY@SUNOCOINC.COM			NO	 	
2011	NO	18064MRCNT599DA	AMERICAN TUBE	603 GREMAR RD	NAZARETH	NORTHAMPTON	PA	18064	YES	NO	NO	NO								331210						40.71296	-75.33283											1311209797366	007439965	MANGANESE	TRI	Pounds																		NA																																																												NO	SALES@AMTUBECO.COM			YES	 	
2011	NO	15095TRCTHCRANB	ALCOA COMMERCIAL WINDOWS LLC (DBA TRACO)	71 PROGRESS AVE	CRANBERRY TOWNSHIP	BUTLER	PA	16066	YES	NO	NO	NO								332321						40.70856	-80.1099									ALCOA INC	001339472	1311209424276	000131113	DIMETHYL PHTHALATE	TRI	Pounds																		A	H040								N 	E4																																																		NO	DAN.HUTTON@ALCOA.COM			NO	 	
2011	NO	15717BLRSV200MA	SPECIALTY BAR PRODUCTS CO	200 MARTHA ST	BLAIRSVILLE	INDIANA	PA	15717	YES	NO	NO	NO								332999						40.42474	-79.26008									SPECIALTY BAR PRODUCTS CO		1311209512730	007440473	CHROMIUM	TRI	Pounds																		NA									N 																																																			NO	GFELTMATE@SPECIALTY-BAR.COM			YES	 	
2011	NO	18411SNDVKIVYIN	SANDVIK MATERIALS TECHNOLOGY	982 GRIFFIN POND RD	CLARKS SUMMIT	LACKAWANNA	PA	18411	YES	NO	NO	NO								331210	331222	332611				41.525	-75.66	041023700								SANDVIK INC	041023700	1311209282425	007440473	CHROMIUM	TRI	Pounds																		W	H071	H077	H101	H123	H124				N 	E5																																																		NO	JIM.RUSK@SANDVIK.COM			YES	 	
2011	NO	19605HYCMTRD916	HEYCO METALS INC	1069 STINSON DR	READING	BERKS	PA	19605	YES	NO	NO	NO								331421						40.392478	-75.982555	002185007								HEYCO INC	002185007	1311209105067	007440508	COPPER	TRI	Pounds																		NA									N 																																																			NO	DMANDLE@HEYCOMETALS.COM			YES	 	
2011	NO	16365SPRRT1818P	SUPERIOR TIRE & RUBBER CORP	1818 PENNSYLVANIA AVE W	WARREN	WARREN	PA	16365	YES	NO	NO	NO								326211						41.83782	-79.17304	002131357										1311209192741	000108883	TOLUENE	TRI	Pounds																		NA									N 																																																			NO				NO	 	
2011	NO	17605HGHSTPOBOX	HIGH STEEL STRUCTURES - LANCASTER FACILITY	GREENFIELD RD & RT 340	LANCASTER	LANCASTER	PA	17601	YES	NO	NO	NO								332312						40.042222	-76.239167	182181917								HIGH INDUSTRIES INC	084877505	1311209364633	001344281	ALUMINUM OXIDE (FIBROUS FORMS)	TRI	Pounds																		NA									N 																																																			NO	CWEYLAND@HIGH.NET			YES	 	
2011	NO	18042PLYTK55HIL	POLYTEK DEVELOPMENT CORP	55 HILTON ST	EASTON	NORTHAMPTON	PA	18042	YES	NO	NO	NO								325211	325212					40.670517	-75.220772	118862747										1311209395298	N458	MERCURY COMPOUNDS	PBT	Pounds																		NA									N 																																																			NO	CSALISBURY@POLYTEK.COM			YES	 	
2011	NO	17777WTSNTRTE40	WATSONTOWN BRICK CO	RT 405	WATSONTOWN	NORTHUMBERLAND	PA	17777	YES	NO	NO	NO								327121						41.062778	-76.848056											1311209810249	N450	MANGANESE COMPOUNDS	TRI	Pounds																		A	H123									E4																																																		NO	MFISHER@WATSONTOWNBRICK.COM			YES	 	
2011	NO	18067NRTHM1HORW	NORTHAMPTON GENERATING PLANT	1 HORWITH DR	NORTHAMPTON	NORTHAMPTON	PA	18067	YES	NO	NO	NO								221112						40.69036	-75.47736	877477257								EIF CALYPSO LLC		1311209543103	N420	LEAD COMPOUNDS	PBT	Pounds																		A	A07								N 	E3																																																		NO	TOM.BROWN@NORTHGENCO.COM			YES	 	
2011	NO	15834PNNSYONECA	GKN SINTER METALS CAMERON RD	15420 RT 120 CAMERON RD	EMPORIUM	CAMERON	PA	15834	YES	NO	NO	NO								332117						41.507778	-78.222222	002131837								GKN NA INC	785952995	1311209134840	007440020	NICKEL	TRI	Pounds																		NA									N 																																																			NO	TONY.CASILIO@GKNSINTERMETALS.COM			YES	 	
2011	NO	16103FRSTN1EWAS	NEW CASTLE POWER PLANT	STATE RT 168 S PO BOX 325	WEST PITTSBURG	LAWRENCE	PA	161600325	YES	NO	NO	NO								221112						40.936667	-80.37									GENON ENERGY INC	082679788	1311209305580	N150	DIOXIN AND DIOXIN-LIKE COMPOUNDS	DIOXIN	Grams																		A	A05								N 	E6																																																		NO	THOMAS.SENEDAK@GENON.COM			NO	 	
2011	NO	19512JDSNS85786	JUDSON A SMITH CO	857-863 SWEINHART RD	BOYERTOWN	MONTGOMERY	PA	19512	YES	NO	NO	NO								332999						40.309188	-75.637332	114740706		PAD981108210						ATW COS	001188754	1311209822319	007440508	COPPER	TRI	Pounds																		NA									N 																																																			NO	DOTTOLINI@JUDSONSMITH.COM			YES	 	
2011	NO	15774KYSTNRTE21	KEYSTONE POWER PLANT	313 KEYSTONE DR	SHELOCTA	ARMSTRONG	PA	157747625	YES	NO	NO	NO								221112						40.651756	-79.332283									GENON ENERGY INC	082679788	1311209280724	N040	BARIUM COMPOUNDS	TRI	Pounds																		S	H101								N 	E6		W	H129	H121	H071	H123	H101				N 	E5		A	A05								N 	E4																										NO	MARK.JACKLIN@GENON.COM			YES	 	
2011	NO	17104TRTMP1500S	AMES TRUE TEMPER INC	1500 S CAMERON ST	HARRISBURG	DAUPHIN	PA	17104	YES	NO	NO	NO								332212						40.24454	-76.85978	621297563								CASTLE HARLAN	621297563	1311209255809	N230	CERTAIN GLYCOL ETHERS	TRI	Pounds																		NA									N 																																																			NO	BILL.BABBS@AMESTRUETEMPER.COM			NO	 	
2011	NO	17517MGSNC178MU	MGS INC	178 MUDDY CREEK CHURCH RD	DENVER	LANCASTER	PA	17517	YES	NO	NO	NO								336999						40.22724	-76.0876											1311209254630	007440020	NICKEL	TRI	Pounds																		NA									N 																																																			NO	FKIRKPATRICK@MGSMAIL.COM			YES	 	
2011	NO	19106NTDST151NI	US DEPARTMENT OF THE TREASURY US MINT AT PHILADELPHIA	151 N INDEPENDENCE MALL E	PHILADELPHIA	PHILADELPHIA	PA	19106	YES	NO	YES	NO								332116						39.95396	-75.14789			PAI201332243						US DEPARTMENT OF THE TREASURY		1311209356296	007439921	LEAD	TRI	Pounds																		W	H082								N 	E4																																																		YES	TOM.JURKOWSKY@USMINT.TREAS.GOV			YES	 	
2011	NO	17042LBNNC1600E	LEBANON SEABOARD CORP	1600 E CUMBERLAND ST	LEBANON	LEBANON	PA	17042	YES	NO	NO	NO								325314						40.3475	-76.385556	003005477								LEBANON SEABOARD CORP		1311209481441	001582098	TRIFLURALIN	PBT	Pounds																		NA									N 																																																			NO				NO	 	
2011	NO	15522KNNMTRD1CH	KENNAMETAL INC  BEDFORD FACIL ITY	442 CHALYBEATE RD	BEDFORD	BEDFORD	PA	155228637	YES	NO	NO	NO								333131						40.031139	-78.486136	004397683								KENNAMETAL INC	004397659	1311209133673	007440484	COBALT	TRI	Pounds																		NA									N 																																																			NO	JERRY.BURKHART@KENNAMETAL.COM			YES	 	
2011	NO	1760WNTNLB1596M	NATIONAL BEARINGS CO	1596 MANHEIM PIKE	LANCASTER	LANCASTER	PA	17601	YES	NO	NO	NO								332991						40.0801	-76.33918	003003472										1311209272210	007439921	LEAD	TRI	Pounds																		NA									N 																																																			NO	JMAY@NATIONALBEARINGS.COM			YES	 	
2011	NO	1700WBLSCP4NRTH	BLUESCOPE BUILDINGS NORTH AMERICA	400 N WEABER ST	ANNVILLE	LEBANON	PA	170031103	YES	NO	NO	NO								332999						40.33706	-76.49915											1311209316379	007440508	COPPER	TRI	Pounds																		NA									N 																																																			NO	WEZEIGLER@BUTLERMFG.COM			YES	 	
2011	NO	15650TLDYNROUTE	ALLEGHENY LUDLUM LLC LATROBE PLANT	RT 981 N	LATROBE	WESTMORELAND	PA	15650	YES	NO	NO	NO								331111						40.329644	-79.373592	070448204								ALLEGHENY TECHNOLOGIES INC	949262737	1311209345040	N096	COBALT COMPOUNDS	TRI	Pounds																		A	A06								N 	E4																																																		NO	DAN.GREENFIELD@ATIMETALS.COM			YES	 	
2011	NO	18707NSNNG71CRE	WYMAN GORDON MOUNTAINTOP	701 CRESTWOOD DR	MOUNTAIN TOP	LUZERNE	PA	18707	YES	NO	NO	NO								336412						41.140948	-75.889154	009027970								PRECISION CASTPARTS CORP	009027970	1311209347956	007440484	COBALT	TRI	Pounds																		W	H122								N 	E6		A	A06								N 	E2																																						NO	KKELLER@WYMAN.COM			YES	 	
2011	NO	1760WSBLRN292LD	US BOILER INC	2920 OLD TREE DR	LANCASTER	LANCASTER	PA	17603	YES	NO	NO	NO								333414						40.04988	-76.38408	130077139								BURNHAM HOLDINGS INC	001525054	1311209463660	007440020	NICKEL	TRI	Pounds																		NA									N 																																																			NO	RADAMS@USBOILER.NET			YES	 	
2011	NO	17821MNTRS18MCM	MONTOUR STEAM ELECTRIC STATION	18 MCMICHAEL RD	DANVILLE	MONTOUR	PA	17821	YES	NO	NO	NO								221122						41.069722	-76.665833	621528199								PPL CORP	144973083	1311209695257	N150	DIOXIN AND DIOXIN-LIKE COMPOUNDS	DIOXIN	Grams																		A	A05	A06	H123	A03					N 	E3																																																		NO	KJMAYLATH@PPLWEB.COM			NO	 	
2011	NO	15301RSSML259SC	ROSS MOULD INC	259 S COLLEGE ST	WASHINGTON	WASHINGTON	PA	15301	YES	NO	NO	NO								333511						40.166955	-80.241758									ROSS MOULD INC		1311209500331	007440020	NICKEL	TRI	Pounds																		NA									N 																																																			NO				YES	 	
2011	NO	15461HTFLDRD1BO	HATFIELD POWER STATION	2907 E ROY FURMAN HWY	MASONTOWN	GREENE	PA	15461	YES	NO	NO	NO								221112						39.853889	-79.927778	007911050								ALLEGHENY ENERGY INC	006979660	1311209109800	N150	DIOXIN AND DIOXIN-LIKE COMPOUNDS	DIOXIN	Grams																		A	A05	A07							N 	E6																																																		NO	DURBINM@FIRSTENERGYCORP.COM			NO	 	
2011	NO	17901WRLDRWALNU	WORLD RESOURCES CO	170 WALNUT LN	POTTSVILLE	SCHUYLKILL	PA	17901	YES	NO	NO	NO								327999						40.68812	-76.23231	048340749								WORLD RESOURCES CO		1311209120385	N458	MERCURY COMPOUNDS	PBT	Pounds																		NA									N 																																																			NO	KRIEGEL@WRCUSA.NET			YES	 	
2011	NO	17901WRLDRWALNU	WORLD RESOURCES CO	170 WALNUT LN	POTTSVILLE	SCHUYLKILL	PA	17901	YES	NO	NO	NO								327999						40.68812	-76.23231	048340749								WORLD RESOURCES CO		1311209120397	N495	NICKEL COMPOUNDS	TRI	Pounds																		NA									N 																																																			NO	KRIEGEL@WRCUSA.NET			YES	 	
2011	NO	16125SLMTBFOURT	SALEM TUBE INC	951 FOURTH ST	GREENVILLE	MERCER	PA	16125	YES	NO	NO	NO								331210						41.356731	-80.408666	044316636								TUBACEX SA		1311209146721	007440473	CHROMIUM	TRI	Pounds																		NA									N 																																																			NO				YES	 	
2011	NO	15061SBVRV394FR	AES BEAVER VALLEY LLC	394 FRANKFORT RD	MONACA	BEAVER	PA	15061	YES	NO	NO	NO								221112						40.65554	-80.34946	043857812								AES CORP	043857812	1311209701592	007647010	HYDROCHLORIC ACID (1995 AND AFTER "ACID AEROSOLS" ONLY)	TRI	Pounds																		A	A05	A03							N 	E3																																																		NO				NO	 	
2011	NO	18109MPRDC44UNI	MI PRODUCTS INC	404 UNION BLVD	ALLENTOWN	LEHIGH	PA	18109	YES	NO	NO	NO								332710						40.61846	-75.45524									METEM INTERNATIONAL	886062398	1311209705161	N511	NITRATE COMPOUNDS	TRI	Pounds																		NA									N 																																																			NO	MARK.SCHNABEL@OUTLOOKSERVER.NET			NO	 	
2011	NO	18109MPRDC44UNI	MI PRODUCTS INC	404 UNION BLVD	ALLENTOWN	LEHIGH	PA	18109	YES	NO	NO	NO								332710						40.61846	-75.45524									METEM INTERNATIONAL	886062398	1311209705173	007697372	NITRIC ACID	TRI	Pounds																		W	H077	H121	H071	H129	H123	H101			N 	E1																																																		NO	MARK.SCHNABEL@OUTLOOKSERVER.NET			NO	 	
2011	NO	15845PNNTC100CE	DOMTAR - JOHNSONBURG MILL	100 CENTER ST	JOHNSONBURG	ELK	PA	15845	YES	NO	NO	NO								322121						41.492222	-78.676667	789245110								DOMTAR CORP	789245110	1311209573587	N040	BARIUM COMPOUNDS	TRI	Pounds																		W	H123								N 	E1																																																		NO	ANDY.REDMOND@DOMTAR.COM			YES	 	
2011	NO	15845PNNTC100CE	DOMTAR - JOHNSONBURG MILL	100 CENTER ST	JOHNSONBURG	ELK	PA	15845	YES	NO	NO	NO								322121						41.492222	-78.676667	789245110								DOMTAR CORP	789245110	1311209573664	N450	MANGANESE COMPOUNDS	TRI	Pounds																		W	H123								N 	E6																																																		NO	ANDY.REDMOND@DOMTAR.COM			YES	 	
2011	NO	16354NVRSL121CA	UNIVERSAL STAINLESS & ALLOY PRODUCTS INC	121 CALDWELL ST	TITUSVILLE	CRAWFORD	PA	16354	YES	NO	NO	NO								331221						41.62677	-79.66052	861336501								UNIVERSAL STAINLESS & ALLOY PRODUCTS INC		1311209130018	007440473	CHROMIUM	TRI	Pounds																		NA									N 																																																			NO	P.MCGRATH@UNIVSTAINLESS.COM			YES	 	
2011	NO	15225GLFLL5050G	GULF OIL LP NEVILLE ISLAND TERMINAL	2620 NEVILLE RD	PITTSBURGH	ALLEGHENY	PA	15225	YES	NO	NO	NO								424710						40.49888	-80.08511	557095387								GULF OIL LP	147037154	1311209162698	000095636	1,2,4-TRIMETHYLBENZENE	TRI	Pounds																		NA									N 																																																			NO	NSTEVENS@CUMBERLANDGULF.COM			NO	 	
2011	NO	16749QKRSTINTER	INTERNATIONAL WAXES INC	45 RT 446	SMETHPORT	MCKEAN	PA	16749	YES	NO	NO	NO								324199						41.860556	-78.445	556832710								INTERNATIONAL WAXES INC		1311209223775	N420	LEAD COMPOUNDS	PBT	Pounds																		A	A05								N 	E5																																																		NO	DGOLDSMITH@IGIWAX.COM			YES	 	
2011	NO	19428CPRSCRIVER	COOPERS CREEK CHEMICAL CORP	884 RIVER RD	WEST CONSHOHOCKEN	MONTGOMERY	PA	19428	YES	NO	NO	NO								325192						40.06271	-75.269943	002843820										1311209465347	000132649	DIBENZOFURAN	TRI	Pounds																		NA									N 																																																			NO	JKINAST@COOPERSCREEKCHEMICAL.COM			NO	 	
2011	NO	19428CPRSCRIVER	COOPERS CREEK CHEMICAL CORP	884 RIVER RD	WEST CONSHOHOCKEN	MONTGOMERY	PA	19428	YES	NO	NO	NO								325192						40.06271	-75.269943	002843820										1311209465386	000108952	PHENOL	TRI	Pounds																		W	H081								N 	E5																																																		NO	JKINAST@COOPERSCREEKCHEMICAL.COM			NO	 	
2011	NO	16511LKRBF167EL	LAKE ERIE BIOFUELS	1670 E LAKE RD	ERIE	ERIE	PA	16511	YES	NO	NO	NO								325199						42.14326	-80.04902	802852546								ERIE MANAGEMENT GROUP LLC	157091110	1311209261876	000067561	METHANOL	TRI	Pounds																		NA									N 																																																			NO	MNOBLE@HEROBX.COM			NO	 	
2011	NO	15104SSDGRBRADD	USS MON VALLEY WORKS - EDGAR THOMSON PLANT	BRADDOCK AVE & 13TH ST	BRADDOCK	ALLEGHENY	PA	15104	YES	NO	NO	NO								331111						40.390833	-79.860556	060682606								US STEEL CORP	029990699	1311209407675	N458	MERCURY COMPOUNDS	PBT	Pounds																		W	H101								N 	E3		A	A06								N 	E4		A	A03								N 	E3		A	A07	A03	A07						N 	E5		A	A07	A03							N 	E5		NO				YES	 	
2011	NO	19013NRQYT800WF	NORQUAY TECHNOLOGY INC	800 W FRONT ST	CHESTER	DELAWARE	PA	19013	YES	NO	NO	NO								325199						39.840649	-75.368247	183213453										1311209149994	000110543	N-HEXANE	TRI	Pounds																		NA									N 																																																			NO	RHELDT@NORQUAYTECH.COM			NO	 	
2011	NO	17981WSTWDUSRTE	WPS WESTWOOD GENERATION LLC	490 W MAIN ST	TREMONT	SCHUYLKILL	PA	17981	YES	NO	NO	NO								221112						40.62	-76.451667	057995453								INTEGRYS ENERGY GROUP INC	877719260	1311209228764	N770	VANADIUM COMPOUNDS	TRI	Pounds																		W	H123								N 	E1		A	A04	A06							N 	E3																																						NO	LLSCHMIDT@INTEGRYSGROUP.COM			YES	 	
2011	NO	18407LBCKC166DU	QUALITY PERFORATING INC	166 DUNDAFF ST	CARBONDALE	LACKAWANNA	PA	18407	YES	NO	NO	NO								332322						41.58091	-75.50224	067096271										1311209348515	007439965	MANGANESE	TRI	Pounds																		NA									N 																																																			NO				YES	 	
2011	NO	16346MTRCL2099H	MATRIC LTD	2099 HILL CITY RD	SENECA	VENANGO	PA	16346	YES	NO	NO	NO								334412						41.38809	-79.63742	059085357								MATRIC GROUP LLC		1311209363771	007439921	LEAD	TRI	Pounds																		NA									N 																																																			NO	CHORNE@MATRIC.COM			YES	 	
2011	NO	17201SDDSRATTNS	US ARMY LETTERKENNY ARMY DEPOT	1 OVERCASH AVE, BUILDING 14	CHAMBERSBURG	FRANKLIN	PA	172014150	YES	NO	YES	NO								928110						39.9957	-77.6444									US DEPARTMENT OF DEFENSE		1311209461488	000107211	ETHYLENE GLYCOL	TRI	Pounds																		NA									N 																																																			YES	LINDSAY.M.BRYANT.CIV@MAIL.MIL			NO	 	
2011	NO	1592WPBSCL1499G	ROX COAL - AGUSTUS MINE	1499 GAHAGEN RD	CENTRAL CITY	SOMERSET	PA	15926	YES	NO	NO	NO								212112						40.065	-78.802222									ROX COAL INC	016089138	1311209290156	N420	LEAD COMPOUNDS	PBT	Pounds																		NA									N 																																																			NO	KBETCHER@PBSCOALS.COM			YES	 	
2011	NO	16115NVRTR118PA	SIEMENS INDUSTRY INC DARLINGTON FACILITY	118 PARK RD	DARLINGTON	BEAVER	PA	16115	YES	NO	NO	NO								562211						40.79611	-80.46785	187894373								SIEMENS AG		1311209556859	000071432	BENZENE	TRI	Pounds																		A	H040	A03							N 	E2																																																		NO	DAVID.M.ADAMS@SIEMENS.COM			NO	 	
2011	NO	15061ZNCCR300FR	HORSEHEAD CORP MONACA SMELTER	300 FRANKFORT RD	MONACA	BEAVER	PA	150612295	YES	NO	NO	NO								331492						40.66579	-80.33622	609074703								HORSEHEAD HOLDING CORP		1311209236811	007664393	HYDROGEN FLUORIDE	TRI	Pounds																		NA									N 																																																			NO	AALAVI@HORSEHEAD.NET			NO	 	
2011	NO	19612RDNGTROUTE	CAMBRIDGE-LEE INDUSTRIES	86 TUBE DR	READING	BERKS	PA	19605	YES	NO	NO	NO								331421						40.420556	-75.948611	075328344										1311209594276	N420	LEAD COMPOUNDS	PBT	Pounds																		NA									N 																																																			NO	EWAGNER@CAMLEE.COM			YES	 	
2011	NO	16136HRSCC6THMO	HARSCO METALS - KOPPEL	6TH & MOUNT ST C/O KOPPEL STEEL	KOPPEL	BEAVER	PA	16136	YES	NO	NO	NO								327992						40.8356	-80.32197	003952009								HARSCO CORP	003952009	1311209046263	N420	LEAD COMPOUNDS	PBT	Pounds																		NA									N 																																																			NO				YES	 	
2011	NO	15715STRRNMITCH	STAR IRON WORKS INC	135 MITCHELL AVE	BIG RUN	JEFFERSON	PA	15715	YES	NO	NO	NO								332996						40.9675	-78.875	145696972										1311209048610	007439965	MANGANESE	TRI	Pounds																		A	A07								N 	E4																																																		NO	FRANK.STOCKDALE@STARIRONWORKS.COM			YES	 	
2011	NO	19543MRGNCONEMO	MORGAN CORP	1 MORGAN WAY	MORGANTOWN	BERKS	PA	19543	YES	NO	NO	NO								336211						40.159167	-75.875833	002360485								JB POINDEXTER & CO INC	154280655	1311209077508	N096	COBALT COMPOUNDS	TRI	Pounds																		NA									N 																																																			NO	DOUG.SANDERS@MORGANCORP.COM			YES	 	
2011	NO	17517SYLVNDENVE	SYLVIN TECHNOLOGIES INC	84 DENVER RD	DENVER	LANCASTER	PA	17517	YES	NO	NO	NO								325991						40.223611	-76.113889	095367090										1311209102348	N040	BARIUM COMPOUNDS	TRI	Pounds																		A	A06								N 	E3																																																		NO	JON.NEWMAN@SYLVIN.COM			YES	 	
2011	NO	17046CRGLL320N1	CARGILL ANIMAL NUTRITION	320 N 16TH ST	LEBANON	LEBANON	PA	17046	YES	NO	NO	NO								311119						40.343215	-76.440793	006249189								CARGILL INC	006249189	1311209216771	N982	ZINC COMPOUNDS	TRI	Pounds																																																																														NO	WENDEE_J_LARSON@CARGILL.COM			YES	 	
2011	NO	17701LNZNC3500T	LONZA GROUP INC	3500 TRENTON AVE	WILLIAMSPORT	LYCOMING	PA	17701	YES	NO	NO	NO								325199	325188					41.230556	-77.080556	001643170								LONZA INC	001643170	1311209247749	000107211	ETHYLENE GLYCOL	TRI	Pounds																		NA									N 																																																			NO	JOHN.ROBERTSON@LONZA.COM			NO	 	
2011	NO	17701LNZNC3500T	LONZA GROUP INC	3500 TRENTON AVE	WILLIAMSPORT	LYCOMING	PA	17701	YES	NO	NO	NO								325199	325188					41.230556	-77.080556	001643170								LONZA INC	001643170	1311209247752	000075218	ETHYLENE OXIDE	TRI	Pounds																		NA									N 																																																			NO	JOHN.ROBERTSON@LONZA.COM			NO	 	
2011	NO	17751VRYCHDRAKE	AVERY DENNISON MILL HALL	171 DRAKETOWN RD	MILL HALL	CLINTON	PA	17751	YES	NO	NO	NO								325520						41.1153	-77.468133	008256364								AVERY DENNISON CORP	008256364	1311209306986	000096333	METHYL ACRYLATE	TRI	Pounds																		A	H040								N 	E3																																																		NO	BHAVIN.PATEL@AVERYDENNISON.COM			NO	 	
2011	NO	17751VRYCHDRAKE	AVERY DENNISON MILL HALL	171 DRAKETOWN RD	MILL HALL	CLINTON	PA	17751	YES	NO	NO	NO								325520						41.1153	-77.468133	008256364								AVERY DENNISON CORP	008256364	1311209306998	000080626	METHYL METHACRYLATE	TRI	Pounds																		A	H040								N 	E3																																																		NO	BHAVIN.PATEL@AVERYDENNISON.COM			NO	 	
2011	NO	19116MPRLM2050B	ARDEX LABORATORIES INC	2050 BYBERRY RD	PHILADELPHIA	PHILADELPHIA	PA	19116	YES	NO	NO	NO								325612						40.10995	-75.00286	002268745								ARDEX LABORATORIES INC	002268745	1311209353198	N230	CERTAIN GLYCOL ETHERS	TRI	Pounds																		NA									N 																																																			NO	ARDEXSTEVE@AOL.COM			NO	 	
2011	NO	15225SHNNG200NE	SHENANGO INC	200 NEVILLE RD	PITTSBURGH	ALLEGHENY	PA	15225	YES	NO	NO	NO								331111	324199					40.49214	-80.07991	004337465								DTE ENERGY CO	876235490	1311209405479	000105679	2,4-DIMETHYLPHENOL	TRI	Pounds																		NA									N 																																																			NO				NO	 	
2011	NO	19438PCRCR165WA	PECORA CORP	165 WAMBOLD RD	HARLEYSVILLE	MONTGOMERY	PA	19438	YES	NO	NO	NO								325520						40.262036	-75.348841	002266849										1311209422359	026471625	TOLUENE DIISOCYANATE (MIXED ISOMERS)	TRI	Pounds																		NA									N 																																																			NO	HEIMB@PECORA.COM			NO	 	
2011	NO	16301CTSML671CO	SMS MILLCRAFT	671 COLBERT AVE	OIL CITY	VENANGO	PA	16301	YES	NO	NO	NO								333511	332813					41.41641	-79.69024									SMS MILLCRAFT	111371733	1311209444746	007439921	LEAD	TRI	Pounds																		NA									N 																																																			NO	MIKE.BADGER@SMS-MILLCRAFT.US			YES	 	
2011	NO	15085CLVLN14000	CLEAVELAND/PRICE INC	14000 RT 993	TRAFFORD	WESTMORELAND	PA	150859550	YES	NO	NO	NO								335313						40.370885	-79.751296	056641327										1311209578095	007440508	COPPER	TRI	Pounds																		NA									N 																																																			NO	PETEK@CLEAVELANDPRICE.COM			YES	 	
2011	NO	17601RRDNN216GR	RR DONNELLEY LANCASTER EAST	216 GREENFIELD RD	LANCASTER	LANCASTER	PA	17601	YES	NO	NO	NO								323111	323110					40.047717	-76.25562	039755251								R R DONNELLEY & SONS CO	005119573	1311209592563	N230	CERTAIN GLYCOL ETHERS	TRI	Pounds																		A	H040								N 	E4																																																		NO	STACEY.L.HAEFNER@RRD.COM			NO	 	
2011	NO	18017PHNXT1185W	PHOENIX TUBE CO INC	1185 WIN DR	BETHLEHEM	NORTHAMPTON	PA	18017	YES	NO	NO	NO								331210						40.62775	-75.35251	039945183										1311209614890	007440473	CHROMIUM	TRI	Pounds																		NA									N 																																																			NO	UMEN99@AOL.COM			YES	 	
2011	NO	16701KNDLL77NKE	AMERICAN REFINING GROUP INC	77 N KENDALL AVE	BRADFORD	MCKEAN	PA	16701	YES	NO	NO	NO								324110						41.966389	-78.629444	021957329										1311209629892	000872504	N-METHYL-2-PYRROLIDONE	TRI	Pounds																		W	H081								N 	E4																																																		NO	SSHERK@AMREF.COM			NO	 	
2011	NO	17327PMXNC158IN	BIMAX INC	158 INDUSTRIAL RD	GLEN ROCK	YORK	PA	17327	YES	NO	NO	NO								325998						39.818601	-76.6872	127703457										1311209733272	000107186	ALLYL ALCOHOL	TRI	Pounds																		NA									N 																																																			NO	JOE.DETTINGER@BIMAX.COM			NO	 	
2011	NO	17362PHGLT228SO	P H GLATFELTER CO - SPRING GROVE MILL	228 S MAIN ST	SPRING GROVE	YORK	PA	173621000	YES	NO	NO	NO								322121						39.8712	-76.8658	003003407										1311209738273	007664417	AMMONIA	TRI	Pounds																		W	H123	H129	H081	H123					N 	E6																																																		NO	WILLIAM.YANAVITCH@GLATFELTER.COM			NO	 	
2011	NO	16063RBNSNGALLY	ROBINSON FANS	400 ROBINSON DR PO BOX 100	ZELIENOPLE	BUTLER	PA	160630100	YES	NO	NO	NO								333412						40.800278	-80.132222	004372140										1311209803143	007440508	COPPER	TRI	Pounds																		NA																																																												NO	RON.MARBURGER@ROBINSONFANS.COM			YES	 	
2011	NO	1946WCGSMC271SK	CIGAS MACHINE SHOP INC	271 S KEIM ST	POTTSTOWN	MONTGOMERY	PA	19464	YES	NO	NO	NO								332710						40.237603	-75.634555	002387116								CIGAS MACHINE SHOP INC		1311209226669	007439965	MANGANESE	TRI	Pounds																		NA									N 																																																			NO	CRAIG@CIGASMACHINE.COM			YES	 	
2011	NO	18505SDDSR156CE	US ARMY SCRANTON ARMY AMMUNITION PLANT	156 CEDAR AVE	SCRANTON	LACKAWANNA	PA	185051138	YES	NO	YES	NO								928110						41.404485	-75.663893									US DEPARTMENT OF DEFENSE		1311209223015	007440508	COPPER	TRI	Pounds																		NA									N 																																																			YES	RICHARD.P.HANSEN@US.ARMY.MIL			YES	 	
2011	NO	19440PNNCL2755B	PENN COLOR INC	2755 BERGEY RD	HATFIELD	MONTGOMERY	PA	19440	YES	NO	NO	NO								325510						40.29554	-75.29838	054711163								PENN COLOR INC	054711163	1311209456779	N230	CERTAIN GLYCOL ETHERS	TRI	Pounds																		A	H123	H040							N 	E4																																																		NO	MRUBEO@PENNCOLOR.COM			NO	 	
2011	NO	19137LLDSGMARGA	HONEYWELL RESINS & CHEMICALS LLC	2501 MARGARET	PHILADELPHIA	PHILADELPHIA	PA	191371193	YES	NO	NO	NO								325110	325192					40.005901	-75.072103	139691877								HONEYWELL INTERNATIONAL INC	139691877	1311209472214	000098828	CUMENE	TRI	Pounds																		A	H040								N 	E4																																																		NO	WILLIAM.RODEBAUGH@HONEYWELL.COM			NO	 	
2011	NO	16512RSTRY1851R	ERIE STRAYER	1851 RUDOLPH	ERIE	ERIE	PA	165121031	YES	NO	NO	NO								333120						42.100889	-80.121484	005028295										1311209166180	001330207	XYLENE (MIXED ISOMERS)	TRI	Pounds																		NA									N 																																																			NO				NO	 	
2011	NO	17931WHLBRMOREA	WHEELABRATOR FRACKVILLE ENERGY CO INC	475 MOREA RD	FRACKVILLE	SCHUYLKILL	PA	17931	YES	NO	NO	NO								221112						40.782778	-76.18	188414303								WASTE MANAGEMENT INC	047577416	1311209457997	N040	BARIUM COMPOUNDS	TRI	Pounds																		NA									N 																																																			NO	TPORCZYNSKI@WM.COM			YES	 	
2011	NO	15642CRBDCPOBOX	KENNAMETAL INC	1576 ARONA RD	IRWIN	WESTMORELAND	PA	15642	YES	NO	NO	NO								333511						40.31114	-79.67493	363869975								KENNAMETAL INC		1311208992723	007440484	COBALT	TRI	Pounds																		A	A06								N 	E3																																																		NO	JOY.CHANDLER@KENNAMETAL.COM			YES	 	
2011	NO	17961SHLMT1486A	SHALMET CORP	116 PINEDALE IND RD	ORWIGSBURG	SCHUYLKILL	PA	17961	YES	NO	NO	NO								331221						40.63577	-76.05881	068053966										1311209097740	N495	NICKEL COMPOUNDS	TRI	Pounds																		NA									N 																																																			NO				YES	 	
2011	NO	16125SLMTBFOURT	SALEM TUBE INC	951 FOURTH ST	GREENVILLE	MERCER	PA	16125	YES	NO	NO	NO								331210						41.356731	-80.408666	044316636								TUBACEX SA		1311209146745	007440020	NICKEL	TRI	Pounds																		NA									N 																																																			NO				YES	 	
2011	NO	15061SBVRV394FR	AES BEAVER VALLEY LLC	394 FRANKFORT RD	MONACA	BEAVER	PA	15061	YES	NO	NO	NO								221112						40.65554	-80.34946	043857812								AES CORP	043857812	1311209701491	N020	ARSENIC COMPOUNDS	TRI	Pounds																		A	A07								N 	E3		A	A05	A03							N 	E3		A	A07								N 	E4																										NO				YES	 	
2011	NO	17603VLLRB2599O	VALLORBS JEWEL CO	2599 OLD PHILADELPHIA PIKE	LANCASTER	LANCASTER	PA	17603	YES	NO	NO	NO								332721						40.03915	-76.19109	003011160		PAD987286036								1311209797214	007440473	CHROMIUM	TRI	Pounds																		NA																																																												NO	JSTONESIFER@VAL-CO.COM			YES	 	
2011	NO	15147FFVLN1297E	AFFIVAL INC	1967 EASTERN AVE	VERONA	ALLEGHENY	PA	15147	YES	NO	NO	NO								332618						40.51996	-79.81174									AFFIVAL INC		1311209254503	N090	CHROMIUM COMPOUNDS(EXCEPT CHROMITE ORE MINED IN THE TRANSVAAL REGION)	TRI	Pounds																																																																														NO	CARDELEAN@AFFIVALINC.COM			YES	 	
2011	NO	18707MDSTLELMWO	SAPA EXTRUDER INC	330 ELMWOOD AVE	MOUNTAIN TOP	LUZERNE	PA	18707	YES	NO	NO	NO								331316						41.137376	-75.898149	831519652								SAPA EXTRUSIONS INC	939541129	1311209254729	007439921	LEAD	TRI	Pounds																		NA									N 																																																			NO	LINDA.CAMPBELL@SAPAGROUP.COM			YES	 	
2011	NO	17701HGHST3501S	HIGH STEEL STRUCTURES - WILLIAMSPORT FACILITY	3501 W FOURTH ST	WILLIAMSPORT	LYCOMING	PA	17701	YES	NO	NO	NO								332312						41.23424	-77.08309	182181917								HIGH INDUSTRIES INC	084877505	1311209355181	007440020	NICKEL	TRI	Pounds																		NA									N 																																																			NO	CWEYLAND@HIGH.NET			YES	 	
2011	NO	18017PRTNP2290A	PURITAN PRODUCTS INC	2290 AVE A	BETHLEHEM	LEHIGH	PA	18017	YES	NO	NO	NO								325998						40.65	-75.427222	181226655										1311209396718	007664393	HYDROGEN FLUORIDE	TRI	Pounds																		A	A03								N 	E5		W	H121								N 	E1																																						NO	TSTARNER@PURITANPRODUCTS.COM			NO	 	
2011	NO	17003PNNSY422SC	CARMEUSE LIME INC	3 CLEAR SPRING RD	ANNVILLE	LEBANON	PA	17003	YES	NO	NO	NO								327410						40.324722	-76.556389	196505767								CARMEUSE LIME & STONE INC	021073510	1311209548294	N420	LEAD COMPOUNDS	PBT	Pounds																		NA									N 																																																			NO	MARK.REIDER@CARMEUSENA.COM			YES	 	
2011	NO	1610WNTRNT27FRE	KENNAMETAL ISA	207 FRENZ DR	NEW CASTLE	LAWRENCE	PA	161011107	YES	NO	NO	NO								331419						41.01231	-80.38638									KENNAMETAL INC	015744442	1311209240009	N495	NICKEL COMPOUNDS	TRI	Pounds																		A	A06								N 	E4																																																		NO	SYED.HASSAN@KENNMETAL.COM			YES	 	
2011	NO	16873SHWVLRTE97	SHAWVILLE STATION	250 POWER PLANT DR	SHAWVILLE	CLEARFIELD	PA	16873	YES	NO	NO	NO								221112						41.057778	-78.370833	790875629								GENON ENERGY INC	082679788	1311209246521	007664393	HYDROGEN FLUORIDE	TRI	Pounds																		A	A05								N 	E6																																																		NO	SCOTT.PALIAN@GENON.COM			NO	 	
2011	NO	19605GNRLBSPRIN	EXIDE TECHNOLOGIES READING SMELTER DIV	SPRING VALLEY RD & NOLAN ST	READING	BERKS	PA	19605	YES	NO	NO	NO								331492						40.379722	-75.913333	061102356	038009866	PAD990753089		PA0014672				EXIDE TECHNOLOGIES	038009866	1311209578475	007440382	ARSENIC	TRI	Pounds																		W	H077	H129	H123	H101	H121				N 	E4		A	A06	A03	H101						N 	E3																																						NO	JAMES.MILLER@EXIDE.COM			YES	 	
2011	NO	15201BRBRSNEMCC	BARBER SPRING	ONE MCCANDLESS AVE	PITTSBURGH	ALLEGHENY	PA	15201	YES	NO	NO	NO								332611						40.483611	-79.955	044609035								WABTEC CORP		1311209821519	007440473	CHROMIUM	TRI	Pounds																		NA									N 																																																			NO	DJABLONOWSKI@WABTEC.COM			YES	 	
2011	NO	18051CRPNTSNOWD	CARPENTER CO	57A OLIN WAY	FOGELSVILLE	LEHIGH	PA	18051	YES	NO	NO	NO								326150						40.580833	-75.608611	003109444								CARPENTER CO		1311209067103	026471625	TOLUENE DIISOCYANATE (MIXED ISOMERS)	TRI	Pounds																		NA									N 																																																			NO	PAT.NAIDU@CARPENTER.COM			NO	 	
2011	NO	15225SHLND2650N	ASHLAND INC	2650 NEVILLE RD	PITTSBURGH	ALLEGHENY	PA	15225	YES	NO	NO	NO								325211						40.497573	-80.091184	042311209								ASHLAND INC	005003264	1311209293327	000107211	ETHYLENE GLYCOL	TRI	Pounds																		W	H040								N 	E3																																																		NO	GLRHODES@ASHLAND.COM			NO	 	
2011	NO	16602MDSTT6THAV	UNIVAR USA INC ALTOONA PA	627 SUGAR RUN RD	ALTOONA	BLAIR	PA	166017920	YES	NO	NO	NO								424690						40.464167	-78.428611									UNIVAR USA INC	102971785	1311209086343	007632000	SODIUM NITRITE	TRI	Pounds																																																																														NO	GEORGE.SHAWL@UNIVARUSA.COM			YES	 	
2011	NO	19536STPNNDEKAR	EAST PENN MANUFACTURING CO INC	102 DEKA RD	LYON STATION	BERKS	PA	19536	YES	NO	NO	NO								335912						40.479046	-75.765462	002330165								EAST PENN MANUFACTURING CO INC	002330165	1311209348349	007439976	MERCURY	PBT	Pounds																		A	A06	A03							N 	E4																																																		NO	TRGREISS@DEKABATTERIES.COM			YES	 	
2011	NO	19601MRTNP150CO	AKZO NOBEL COATINGS	150 COLUMBIA ST	READING	BERKS	PA	19601	YES	NO	NO	NO								325510						40.353351	-75.946626	062999347								AKZO NOBEL NV	232127291	1311209197108	N982	ZINC COMPOUNDS	TRI	Pounds																		W	H071								N 	E4																																																		NO	DENNIS.SWANSON@AKZONOBEL.COM			YES	 	
2011	NO	15024RDLND230RI	REDLAND BRICK INC HARMAR PLANT	26 RICH HILL RD	CHESWICK	ALLEGHENY	PA	15024	YES	NO	NO	NO								327121						40.559779	-79.840226	003062403								THE BELDEN BRICK CO	004468690	1311208983825	001120714	PROPANE SULTONE	TRI	Pounds																																																																														NO	WES.FRAVEL@REDLANDBRICK.COM			NO	 	
2011	NO	15021NNLCTPOBOX	UNION ELECTRIC STEEL CORP	RT 18	BURGETTSTOWN	WASHINGTON	PA	150210151	YES	NO	NO	NO								332111						40.411111	-80.408611									AMPCO-PITTSBURGH CORP	004327862	1311209023720	007440473	CHROMIUM	TRI	Pounds																		A	A06								N 	E5																																																		NO	BKELLY@UNIONES.COM			YES	 	
2011	NO	19530MCCNWRAILR	MCCONWAY & TORLEY LLC KUTZTOWN PLT 1804	230 RAILROAD ST	KUTZTOWN	BERKS	PA	195301117	YES	NO	NO	NO								331513						40.521282	-75.776361	003061470								TRINITY INDUSTRIES INC	007324254	1311209072558	N100	COPPER COMPOUNDS	TRI	Pounds																		NA									N 																																																			NO				YES	 	
2011	NO	19405TBMTH416DE	TUBE METHODS INC	416 DEPOT ST	BRIDGEPORT	MONTGOMERY	PA	19405	YES	NO	NO	NO								331210						40.104874	-75.341748	150920973										1311209250253	007440473	CHROMIUM	TRI	Pounds																		NA									N 																																																			NO				YES	 	
2011	NO	17751VRYCHDRAKE	AVERY DENNISON MILL HALL	171 DRAKETOWN RD	MILL HALL	CLINTON	PA	17751	YES	NO	NO	NO								325520						41.1153	-77.468133	008256364								AVERY DENNISON CORP	008256364	1311209307026	000108883	TOLUENE	TRI	Pounds																		A	H040								N 	E3																																																		NO	BHAVIN.PATEL@AVERYDENNISON.COM			NO	 	
2011	NO	16701KNDLL77NKE	AMERICAN REFINING GROUP INC	77 N KENDALL AVE	BRADFORD	MCKEAN	PA	16701	YES	NO	NO	NO								324110						41.966389	-78.629444	021957329										1311209629815	000095636	1,2,4-TRIMETHYLBENZENE	TRI	Pounds																		NA									N 																																																			NO	SSHERK@AMREF.COM			NO	 	
2011	NO	19145TLNTC3144P	SUNOCO INC (R&M)  PHILADELPHIA REFINERY	3144 PASSYUNK AVE	PHILADELPHIA	PHILADELPHIA	PA	19145	YES	NO	NO	NO								324110						39.920115	-75.198503	620263855								SUNOCO INC	057152217	1311209708371	007440020	NICKEL	TRI	Pounds																		NA									N 																																																			NO	CLCORLEY@SUNOCOINC.COM			YES	 	
