Year,TRI Facility ID,Facility Name,Street Address,City,County,ST,ZIP,Latitude,Longitude,Primary SIC,SIC 2,SIC 3,SIC 4,SIC 5,SIC 6,Primary NAICS,NAICS 2,NAICS 3,NAICS 4,NAICS 5,NAICS 6,Doc_Ctrl_Num,Chemical,CAS #/Compound ID,Clean Air Act Chemical,Classification,Metal,Metal Category,Carcinogen,Form Type,Unit of Measure,5.1 Fugitive Air,5.2 Stack Air,5.3 Water,5.4.1 Underground Class I,5.4.2 Underground Class II-V,5.5.1A RCRA C Landfills,5.5.1B Other Landfills,5.5.2 Land Treatment,5.5.3 Surface Impoundment,5.5.3A RCRA C Surface Impoundment,5.5.3B Other Surface Impoundment,5.5.4 Other Disposal,On-site Release Total,6.1 POTW - Metals and Metal Compounds,6.1 POTW - Non-Metals,6.1 POTW - Total Transfers,6.2 M10,6.2 M41,6.2 M62,6.2 M71,6.2 M81,6.2 M82,6.2 M72,6.2 M63,6.2 M66,6.2 M67,6.2 M64,6.2 M65,6.2 M73,6.2 M79,6.2 M90,6.2 M94,6.2 M99,Off-Site Release Total,6.2 M20,6.2 M24,6.2 M26,6.2 M28,6.2 M93,Off-Site Recycled Total,6.2 M56,6.2 M92,Off-Site Recovery Total,6.2 M40,6.2 M50,6.2 M54,6.2 M61,6.2 M69,6.2 M95,Off-Site Treated Total,Total Releases,8.1 Releases,8.1a On-site Contained Releases,8.1b On-site Other Releases,8.1c Off-site Contained Releases,8.1d Off-site Other Releases,8.2 Energy Recovery On-site,8.3 Energy Recovery Off-site,8.4 Recycling On-Site,8.5 Recycling Off-Site,8.6 Treatment On-site,8.7 Treatement Off-site,Production Waste (8.1 thru 8.7),8.8 One-time Release,8.9 Production Ratio,Parent Company Name,Parent Company DB Number,3/3/2012 v10
2004,46614VNWTR59865,UNIVAR USA INC SOUTH BEND,59865 MARKET ST,SOUTH BEND,ST JOSEPH,IN,466144026,41.62458,-86.315639,5169,,,,,,424690,,,,,,1304202170926,DIETHANOLAMINE,000111422,YES,NON-PBT,NO,0,NO,A,Pounds,0,0,0,0,0,0,0,0,0,0,0,0,0,0,0,0,0,0,0,0,0,0,0,0,0,0,0,0,0,0,0,0,0,0,0,0,0,0,0,0,0,0,0,0,0,0,0,0,0,0,0,0,0,0,0,0,0,0,0,0,0,0,0,0,,UNIVAR USA INC,102971785
2004,46962NRTHM205WA,MANCHESTER METALS LLC,205 WABASH RD,NORTH MANCHESTER,WABASH,IN,46962,40.987721,-85.789405,3321,,,,,,331511,,,,,,1304202183861,MANGANESE COMPOUNDS,N450,YES,NON-PBT,YES,1,NO,A,Pounds,0,0,0,0,0,0,0,0,0,0,0,0,0,0,0,0,0,0,0,0,0,0,0,0,0,0,0,0,0,0,0,0,0,0,0,0,0,0,0,0,0,0,0,0,0,0,0,0,0,0,0,0,0,0,0,0,0,0,0,0,0,0,0,0,,NA,NA
2004,47977MNFRGCOUNT,OMNI FORGE PLANT,18325 S 580 W,REMINGTON,JASPER,IN,47977,40.746528,-87.153654,3462,,,,,,332111,,,,,,1304202201822,MANGANESE,007439965,YES,NON-PBT,YES,1,NO,R,Pounds,0,0,0,0,0,0,0,0,0,0,0,0,0,5,0,5,0,0,0,0,0,0,0,0,0,0,0,0,0,0,0,0,0,0,0,7358,0,0,0,7358,0,0,0,0,0,0,0,0,0,0,5,0,0,0,0,0,0,0,0,7358,0,0,7358,5,1,KPS CAPITAL PARTNERS LP,071159078
2004,47610QLTYC1700N,QUALITY COATINGS INC,1700 N STATE ST,CHANDLER,WARRICK,IN,47610,38.06315,-87.36781,2851,,,,,,325510,,,,,,1304202155990,METHYL ISOBUTYL KETONE,000108101,YES,NON-PBT,NO,0,NO,R,Pounds,64,0,0,0,0,0,0,0,0,0,0,0,64,0,0,0,0,0,0,0,0,0,0,0,0,0,0,0,0,0,0,0,0,0,150.68,0,0,0,0,150.68,28.92,0,28.92,0,0,0,0,0,0,0,64,0,0,64,0,0,0,28.92,0,150.68,0,0,243.6,0,1.03,NA,NA
2004,47710MRCNN2201W,SILGAN WHITE CAP CORP,2201 W MARYLAND ST,EVANSVILLE,VANDERBURGH,IN,47710,37.98568,-87.59717,3466,,,,,,332115,,,,,,1304202159683,CERTAIN GLYCOL ETHERS,N230,YES,NON-PBT,NO,0,NO,R,Pounds,2517,12170,0,0,0,0,0,0,0,0,0,0,14687,0,0,0,0,0,0,0,0,0,0,0,0,0,0,0,0,0,0,0,0,0,0,0,0,0,0,0,6319,0,6319,0,0,0,0,0,0,0,14687,0,0,14686,0,0,0,6319,0,0,299878,0,320883,0,1.9,SILGAN HOLDINGS INC,614201895
2004,47201DMTCR1751A,PMG INDIANA CORP,1751 ARCADIA DR,COLUMBUS,BARTHOLOMEW,IN,472012189,39.232431,-85.939835,3714,,,,,,332117,,,,,,1304202180271,NICKEL,007440020,YES,NON-PBT,YES,1,YES,R,Pounds,0,0,0,0,0,0,0,0,0,0,0,0,0,0,0,0,0,0,0,0,0,0,0,0,0,0,0,0,0,0,0,0,0,0,0,95760,0,0,0,95760,0,0,0,0,0,0,0,0,0,0,0,0,0,0,0,0,0,0,0,95760,0,0,95760,0,0,PLANSEE HOLDING AG,NA
2004,46721BHNPRUSHWY,CITATION CORP,600 W MAIN ST,BUTLER,DEKALB,IN,46721,41.42977,-84.86382,3365,,,,,,331524,,,,,,1304202163604,COPPER COMPOUNDS,N100,NO,NON-PBT,YES,1,NO,R,Pounds,0,5,0,0,0,0,0,0,0,0,0,0,5,0,0,0,0,0,0,0,0,0,0,0,0,0,0,0,0,0,0,0,0,0,0,11400,0,0,0,11400,0,0,0,0,0,0,0,0,0,0,5,0,0,6,0,0,0,0,5000,11400,0,0,16406,0,.91,CITATION CORP,077966950
2004,47302DLWRM700SM,DELAWARE DYNAMICS LLC,700 S MULBERRY ST,MUNCIE,DELAWARE,IN,47302,40.18849,-85.38554,3544,3714,,,,,333514,,,,,,1304202225328,LEAD,007439921,YES,PBT,YES,1,YES,R,Pounds,.021,.609,0,0,0,0,0,0,0,0,0,0,.63,0,0,0,0,0,0,0,0,0,0,0,0,0,0,0,0,0,0,0,0,0,0,44.5,0,0,0,44.5,0,0,0,0,0,0,0,0,0,0,.63,0,0,.63,0,0,0,0,0,44.5,0,0,45.13,0,1.05,NA,NA
2004,47567NDNPLRRTE1,IPL PETERSBURG,6925 N STATE RD 57,PETERSBURG,PIKE,IN,475670436,38.530556,-87.247972,4911,,,,,,221112,,,,,,1304202243109,HYDROGEN FLUORIDE,007664393,YES,NON-PBT,NO,0,NO,R,Pounds,0,41940,0,0,0,0,0,0,0,0,0,0,41940,0,0,0,0,0,0,0,0,0,0,0,0,0,0,0,0,0,0,0,0,0,0,0,0,0,0,0,0,0,0,0,0,0,0,0,0,0,41940,0,0,41940,0,0,0,0,0,0,316060,0,358000,0,1.03,AES CORP,043857812
2004,47130JFFBT1030E,JEFFBOAT LLC,1030 E MARKET ST,JEFFERSONVILLE,CLARK,IN,47130,38.277156,-85.72645,3731,,,,,,336611,,,,,,1304202148666,MANGANESE,007439965,YES,NON-PBT,YES,1,NO,R,Pounds,1019,0,0,0,0,0,0,0,0,0,0,0,1019,0,0,0,0,0,0,0,0,0,0,0,0,0,0,0,0,0,0,0,0,0,0,0,0,0,0,0,0,0,0,0,0,0,0,0,0,0,1019,0,0,1019,0,0,0,0,0,0,0,0,1019,0,1.1,AMERICAN COMMERCIAL LINES INC,NA
2004,47374SLVCS2153W,DANA CORP PERFECT CIRCLE DIV RICHMOND LINER FOUNDRY,2153 WILLAMSBURG PIKE,RICHMOND,WAYNE,IN,473751446,39.858182,-84.915509,3321,,,,,,331511,,,,,,1304202122002,NICKEL,007440020,YES,NON-PBT,YES,1,YES,A,Pounds,0,0,0,0,0,0,0,0,0,0,0,0,0,0,0,0,0,0,0,0,0,0,0,0,0,0,0,0,0,0,0,0,0,0,0,0,0,0,0,0,0,0,0,0,0,0,0,0,0,0,0,0,0,0,0,0,0,0,0,0,0,0,0,0,,DANA CORP,005040555
2004,46394PLYJH2500G,POLYJOHN ENTERPRISES CORP,2500 GASPAR AVE,WHITING,LAKE,IN,46394,41.668896,-87.494858,3088,,,,,,326121,,,,,,1304202160026,LEAD COMPOUNDS,N420,YES,PBT,YES,1,NO,R,Pounds,3,0,0,0,0,0,0,0,0,0,0,0,3,0,0,0,0,0,0,0,0,0,0,0,0,0,0,0,0,0,0,0,0,0,0,0,0,0,0,0,0,0,0,0,0,0,0,0,0,0,3,0,0,3,0,0,0,0,0,0,0,0,3,0,1.5,NA,NA
2004,47802WSTRN2525P,STELLA-JONES CORP,2525 PRAIRIETON RD,TERRE HAUTE,VIGO,IN,47802,39.439851,-87.423688,2491,2865,,,,,321114,,,,,,1304202214831,"BENZO(G,H,I)PERYLENE",000191242,YES,PBT,NO,0,YES,R,Pounds,.7,.5,0,0,0,0,0,0,0,0,0,0,1.2,0,0,0,0,0,0,0,0,0,0,0,0,0,0,0,0,0,0,0,0,0,0,0,0,0,0,0,.6,0,.6,0,0,0,0,0,0,0,1.2,0,0,1.2,0,0,0,.6,.4,0,0,0,2.2,0,1,STELLA-JONES INC,605929814
2004,47802WSTRN2525P,STELLA-JONES CORP,2525 PRAIRIETON RD,TERRE HAUTE,VIGO,IN,47802,39.439851,-87.423688,2491,2865,,,,,321114,,,,,,1304202214882,PHENANTHRENE,000085018,YES,NON-PBT,NO,0,NO,R,Pounds,336,259,0,0,0,0,0,0,0,0,0,0,595,0,1,1,0,0,0,0,0,0,0,0,0,0,0,0,0,0,0,0,0,0,0,0,0,0,0,0,0,0,0,0,0,0,0,0,0,0,595,0,0,595,0,0,0,0,0,0,0,1,596,0,1,STELLA-JONES INC,605929814
2004,47558CRNNGCR900,CORNING MINE,CR900 E CR350 S,CANNELBURG,DAVIESS,IN,47519,38.595556,-87.012861,1221,,,,,,212111,,,,,,1304202125439,NICKEL COMPOUNDS,N495,YES,NON-PBT,YES,1,NO,R,Pounds,0,0,0,0,0,0,38144,0,0,0,0,0,38144,0,0,0,0,0,0,0,0,0,0,0,0,0,0,0,0,0,0,0,0,0,0,0,0,0,0,0,0,0,0,0,0,0,0,0,0,0,38144,0,38144,0,0,0,0,0,0,0,0,0,38144,0,,PEABODY ENERGY CORP,086766789
2004,46706CPRND725W1,COOPER STANDARD AUTOMOTIVE INC,725 W 11TH ST,AUBURN,DEKALB,IN,46706,41.364592,-85.065432,3061,,,,,,326291,,,,,,1304202197164,ETHYLBENZENE,000100414,YES,NON-PBT,NO,0,NO,R,Pounds,750,12500,0,0,0,0,0,0,0,0,0,0,13250,0,0,0,0,0,0,0,0,0,0,0,0,0,0,0,0,0,0,0,0,0,0,0,0,0,0,0,1250,0,1250,0,0,0,0,0,250,250,13250,0,0,13250,0,0,0,1250,0,0,0,75,14575,0,1.03,COOPER-STANDARD AUTOMOTIVE INC,004183273
2004,47201MCLMN6875S,NIKKEI MC ALUMINUM AMERICA INC,6875 S INWOOD DR,COLUMBUS,BARTHOLOMEW,IN,47201,39.137222,-85.9525,3341,,,,,,331314,,,,,,1304202180788,COPPER,007440508,NO,NON-PBT,YES,1,NO,A,Pounds,0,0,0,0,0,0,0,0,0,0,0,0,0,0,0,0,0,0,0,0,0,0,0,0,0,0,0,0,0,0,0,0,0,0,0,0,0,0,0,0,0,0,0,0,0,0,0,0,0,0,0,0,0,0,0,0,0,0,0,0,0,0,0,0,,NA,NA
2004,47567NDNPLRRTE1,IPL PETERSBURG,6925 N STATE RD 57,PETERSBURG,PIKE,IN,475670436,38.530556,-87.247972,4911,,,,,,221112,,,,,,1304202243123,"SULFURIC ACID (1994 AND AFTER ""ACID AEROSOLS"" ONLY)",007664939,NO,NON-PBT,NO,0,NO,R,Pounds,5,1141123,0,0,0,0,0,0,0,0,0,0,1141128,0,0,0,0,0,0,0,0,0,0,0,0,0,0,0,0,0,0,0,0,0,0,0,0,0,0,0,0,0,0,0,0,0,0,0,0,0,1141128,0,0,1141128,0,0,0,0,0,0,7463046,0,8604174,0,1.03,AES CORP,043857812
2004,47567NDNPLRRTE1,IPL PETERSBURG,6925 N STATE RD 57,PETERSBURG,PIKE,IN,475670436,38.530556,-87.247972,4911,,,,,,221112,,,,,,1304202243248,NICKEL COMPOUNDS,N495,YES,NON-PBT,YES,1,NO,R,Pounds,183,990,0,0,0,0,0,0,1692,0,1692,0,2865,0,0,0,0,0,0,0,0,0,0,0,0,0,0,0,0,59300,0,0,0,59300,0,0,0,0,0,0,0,0,0,0,0,0,0,0,0,0,62165,0,0,2865,0,59300,0,0,0,0,0,0,62165,0,1.03,AES CORP,043857812
2004,47727WHRLPUSHIG,WHIRLPOOL CORP,5401 US HWY 41 N,EVANSVILLE,VANDERBURGH,IN,47727,38.026077,-87.538809,3632,,,,,,335222,,,,,,1304202129641,COPPER,007440508,NO,NON-PBT,YES,1,NO,A,Pounds,0,0,0,0,0,0,0,0,0,0,0,0,0,0,0,0,0,0,0,0,0,0,0,0,0,0,0,0,0,0,0,0,0,0,0,0,0,0,0,0,0,0,0,0,0,0,0,0,0,0,0,0,0,0,0,0,0,0,0,0,0,0,0,0,,WHIRLPOOL CORP,001288075
2004,47727WHRLPUSHIG,WHIRLPOOL CORP,5401 US HWY 41 N,EVANSVILLE,VANDERBURGH,IN,47727,38.026077,-87.538809,3632,,,,,,335222,,,,,,1304202129654,DIISOCYANATES,N120,YES,NON-PBT,NO,0,NO,R,Pounds,0,250,0,0,0,0,0,0,0,0,0,0,250,0,0,0,0,0,0,0,0,0,0,0,0,0,0,0,0,0,0,0,0,0,0,0,0,0,0,0,0,0,0,0,0,0,0,0,0,0,250,0,0,250,0,0,0,0,0,0,0,0,250,0,1.05,WHIRLPOOL CORP,001288075
2004,46725RLCRFUSBUS,REELCRAFT INDUSTRIES INC,2842 E BUSINESS HWY 30,COLUMBIA CITY,WHITLEY,IN,46725,41.138861,-85.437528,3499,,,,,,332999,,,,,,1304202153007,CHROMIUM,007440473,YES,NON-PBT,YES,1,YES,R,Pounds,0,0,0,0,0,0,0,0,0,0,0,0,0,1,0,1,0,0,0,0,0,0,0,0,0,0,0,0,0,0,0,0,0,0,0,8420,0,0,0,8420,0,0,0,0,0,0,0,0,0,0,1,0,0,0,0,1,0,0,0,8420,0,0,8421,0,1.02,NA,NA
2004,46725RLCRFUSBUS,REELCRAFT INDUSTRIES INC,2842 E BUSINESS HWY 30,COLUMBIA CITY,WHITLEY,IN,46725,41.138861,-85.437528,3499,,,,,,332999,,,,,,1304202153019,DIISOCYANATES,N120,YES,NON-PBT,NO,0,NO,A,Pounds,0,0,0,0,0,0,0,0,0,0,0,0,0,0,0,0,0,0,0,0,0,0,0,0,0,0,0,0,0,0,0,0,0,0,0,0,0,0,0,0,0,0,0,0,0,0,0,0,0,0,0,0,0,0,0,0,0,0,0,0,0,0,0,0,,NA,NA
2004,46767PJNDS149GE,P & J INDUSTRIES INC,1494 GERBER ST,LIGONIER,NOBLE,IN,46767,41.479333,-85.60275,3471,,,,,,332813,,,,,,1304202153096,LEAD,007439921,YES,PBT,YES,1,YES,R,Pounds,0,0,0,0,0,0,0,0,0,0,0,0,0,1,0,1,0,0,0,0,0,0,0,0,0,0,0,0,0,0,0,0,0,0,0,12,0,0,1,13,0,0,0,0,0,0,0,0,0,0,1,0,0,0,0,1,0,0,0,13,0,0,14,0,1,P & J INDUSTRIES,081217465
2004,46750MJSTC1000E,CFM US CORP HUNTINGTON,1000 E MARKET ST,HUNTINGTON,HUNTINGTON,IN,46750,40.88473,-85.48448,3444,,,,,,333414,,,,,,1304202118042,TOLUENE,000108883,YES,NON-PBT,NO,0,NO,A,Pounds,0,0,0,0,0,0,0,0,0,0,0,0,0,0,0,0,0,0,0,0,0,0,0,0,0,0,0,0,0,0,0,0,0,0,0,0,0,0,0,0,0,0,0,0,0,0,0,0,0,0,0,0,0,0,0,0,0,0,0,0,0,0,0,0,,NA,NA
2004,46706CPRND725W1,COOPER STANDARD AUTOMOTIVE INC,725 W 11TH ST,AUBURN,DEKALB,IN,46706,41.364592,-85.065432,3061,,,,,,326291,,,,,,1304202197240,XYLENE (MIXED ISOMERS),001330207,YES,NON-PBT,NO,0,NO,R,Pounds,3000,72000,0,0,0,0,0,0,0,0,0,0,75000,0,0,0,0,0,0,0,0,0,0,0,0,0,0,0,0,0,0,0,0,0,0,0,0,0,0,0,9000,0,9000,0,0,0,0,0,250,250,75000,0,0,75000,0,0,0,9000,0,0,0,150,84150,0,1.03,COOPER-STANDARD AUTOMOTIVE INC,004183273
2004,47374LCCLS1701W,SILGAN WHITE CAP CORP,1701 WILLIAMSBURG PIKE,RICHMOND,WAYNE,IN,47375,39.858639,-84.908556,3466,,,,,,332115,,,,,,1304202165940,N-BUTYL ALCOHOL,000071363,NO,NON-PBT,NO,0,NO,R,Pounds,1348,591,0,0,0,0,0,0,0,0,0,0,1939,0,0,0,0,0,0,0,0,0,0,0,0,0,0,0,0,0,0,0,0,0,742,0,0,0,0,742,90,0,90,0,0,0,0,0,0,0,1939,0,0,1939,0,0,0,90,0,742,17018,0,19789,0,1.5,SILGAN HOLDINGS INC,614201895
2004,46219VNWTR7425E,UNIVAR USA INC - INDIANAPOLIS,7425 E 30TH ST,INDIANAPOLIS,MARION,IN,462191110,39.81,-86.036389,5169,,,,,,424690,,,,,,1304202177390,XYLENE (MIXED ISOMERS),001330207,YES,NON-PBT,NO,0,NO,R,Pounds,4,22,0,0,0,0,0,0,0,0,0,0,26,0,0,0,0,0,0,0,0,0,0,0,0,0,0,0,0,0,0,0,0,0,0,0,0,0,0,0,0,380,380,0,0,0,0,0,0,0,26,0,0,26,0,0,0,380,0,0,0,0,406,0,1.88,UNIVAR USA INC,102971785
2004,46219VNWTR7425E,UNIVAR USA INC - INDIANAPOLIS,7425 E 30TH ST,INDIANAPOLIS,MARION,IN,462191110,39.81,-86.036389,5169,,,,,,424690,,,,,,1304202177438,M-XYLENE,000108383,YES,NON-PBT,NO,0,NO,A,Pounds,0,0,0,0,0,0,0,0,0,0,0,0,0,0,0,0,0,0,0,0,0,0,0,0,0,0,0,0,0,0,0,0,0,0,0,0,0,0,0,0,0,0,0,0,0,0,0,0,0,0,0,0,0,0,0,0,0,0,0,0,0,0,0,0,,UNIVAR USA INC,102971785
2004,46041PRNMLSTATE,LAND O'LAKES PURINA FEED LLC - FRANKFORT,2472 W STATE RD 28,FRANKFORT,CLINTON,IN,46041,40.279147,-86.552266,2048,,,,,,311119,,,,,,1304202239772,MANGANESE COMPOUNDS,N450,YES,NON-PBT,YES,1,NO,A,Pounds,0,0,0,0,0,0,0,0,0,0,0,0,0,0,0,0,0,0,0,0,0,0,0,0,0,0,0,0,0,0,0,0,0,0,0,0,0,0,0,0,0,0,0,0,0,0,0,0,0,0,0,0,0,0,0,0,0,0,0,0,0,0,0,0,,LAND O LAKES INC,006253835
2004,46580RRDNNOLDRO,R R DONNELLEY & SONS CO,2801 W OLD RD 30,WARSAW,KOSCIUSKO,IN,46580,41.247417,-85.897528,2754,,,,,,323111,,,,,,1304202172021,BARIUM COMPOUNDS,N040,NO,NON-PBT,YES,3,NO,R,Pounds,0,0,0,0,0,0,0,0,0,0,0,0,0,0,0,0,0,95,0,0,0,0,0,0,0,0,0,0,0,0,0,0,0,95,0,0,0,0,0,0,0,0,0,0,0,0,0,0,0,0,95,0,0,0,0,95,0,0,0,0,0,0,95,0,.85,R R DONNELLEY & SONS CO,005119573
2004,46312NTNLB5222I,HARSCO MINERALS - NBC,5222 INDIANAPOLIS BLVD,EAST CHICAGO,LAKE,IN,46312,41.61891,-87.48075,3399,,,,,,332999,,,,,,1304202218564,LEAD,007439921,YES,PBT,YES,1,YES,R,Pounds,26,0,0,0,0,0,0,0,0,0,0,0,26,0,0,0,0,0,0,0,0,0,0,0,0,0,0,0,0,0,0,0,0,0,0,0,0,0,0,0,0,0,0,0,0,0,0,0,0,0,26,0,0,26,0,0,0,0,0,0,0,0,26,0,1.07,HARSCO CORP,003952009
2004,46312NTNLB5222I,HARSCO MINERALS - NBC,5222 INDIANAPOLIS BLVD,EAST CHICAGO,LAKE,IN,46312,41.61891,-87.48075,3399,,,,,,332999,,,,,,1304202218590,NICKEL,007440020,YES,NON-PBT,YES,1,YES,A,Pounds,0,0,0,0,0,0,0,0,0,0,0,0,0,0,0,0,0,0,0,0,0,0,0,0,0,0,0,0,0,0,0,0,0,0,0,0,0,0,0,0,0,0,0,0,0,0,0,0,0,0,0,0,0,0,0,0,0,0,0,0,0,0,0,0,,HARSCO CORP,003952009
2004,46808DNCRP2100W,DANA LIGHT AXLE PRODUCTS LLC,2100 W STATE ST,FORT WAYNE,ALLEN,IN,46808,41.0965,-85.171861,3714,,,,,,336350,,,,,,1304202236384,NICKEL,007440020,YES,NON-PBT,YES,1,YES,R,Pounds,0,0,33,0,0,0,0,0,0,0,0,0,33,0,0,0,0,0,0,0,0,0,0,0,0,0,0,0,0,0,0,11,0,11,0,59399,0,0,0,59399,0,0,0,0,0,0,0,0,0,0,44,0,0,33,0,11,0,0,0,59399,0,0,59443,0,.89,DANA HOLDING CORP,005040555
2004,46542PRNMLSTATE,LAND O'LAKES PURINA FEED LLC - MILFORD,346 W 1350 N,MILFORD,KOSCIUSKO,IN,46542,41.428685,-85.836799,2048,,,,,,311119,,,,,,1304202239950,ZINC COMPOUNDS,N982,NO,NON-PBT,YES,1,NO,A,Pounds,0,0,0,0,0,0,0,0,0,0,0,0,0,0,0,0,0,0,0,0,0,0,0,0,0,0,0,0,0,0,0,0,0,0,0,0,0,0,0,0,0,0,0,0,0,0,0,0,0,0,0,0,0,0,0,0,0,0,0,0,0,0,0,0,,LAND O LAKES INC,006253835
2004,46804WYNCH7114H,WAYNE CHEMICAL INC,7114 HOMESTEAD RD,FORT WAYNE,ALLEN,IN,46814,41.01796,-85.285049,2842,,,,,,325612,,,,,,1304202135721,CERTAIN GLYCOL ETHERS,N230,YES,NON-PBT,NO,0,NO,A,Pounds,0,0,0,0,0,0,0,0,0,0,0,0,0,0,0,0,0,0,0,0,0,0,0,0,0,0,0,0,0,0,0,0,0,0,0,0,0,0,0,0,0,0,0,0,0,0,0,0,0,0,0,0,0,0,0,0,0,0,0,0,0,0,0,0,,NA,NA
2004,47978NWNGC1325E,NEW NGC INC D/B/A NATIONAL GYPSUM CO,1325 E MAPLE ST,RENSSELAER,JASPER,IN,47978,40.94579,-87.137471,3275,,,,,,327420,,,,,,1304202179370,LEAD COMPOUNDS,N420,YES,PBT,YES,1,NO,R,Pounds,0,0,.1,0,0,0,0,0,0,0,0,0,.1,0,0,0,0,0,0,0,0,0,0,0,0,0,0,0,0,6.5,0,0,0,6.5,0,0,0,0,0,0,0,0,0,0,0,0,0,0,0,0,6.6,0,0,0,0,0,0,0,0,0,0,0,0,0,1,NEW NGC INC,808836894
2004,46706BLLBR520HA,BALL BRASS & ALUMINUM FOUNDRY,525 HAZEL ST,AUBURN,DEKALB,IN,46706,41.362307,-85.065395,3369,,,,,,331528,,,,,,1304202183202,LEAD,007439921,YES,PBT,YES,1,YES,R,Pounds,2,35,0,0,0,0,0,0,0,0,0,0,37,0,0,0,0,0,0,0,0,0,0,0,0,0,0,0,0,0,0,42,0,42,0,0,0,0,4662,4662,0,0,0,0,0,0,0,0,0,0,79,0,0,37,0,42,0,0,0,4662,0,0,4741,0,1.1,EVANS INDUSTRIES INC,NA
2004,47933CRWNC400NW,CROWN BEVERAGE PACKAGING,400 N WALNUT ST,CRAWFORDSVILLE,MONTGOMERY,IN,47933,40.04512,-86.90287,3466,3479,,,,,332431,,,,,,1304202197594,N-BUTYL ALCOHOL,000071363,NO,NON-PBT,NO,0,NO,R,Pounds,1524,1897,0,0,0,0,0,0,0,0,0,0,3421,0,0,0,0,0,0,0,0,0,0,0,0,0,0,0,0,0,0,0,0,0,0,0,0,0,0,0,729,0,729,0,0,0,0,0,0,0,3421,0,0,3421,0,0,0,729,0,0,20185,0,24335,0,1.03,CROWN CORK & SEAL CO (USA) INC,002282341
2004,46746VNTRW3625N,LIPPERT COMPONENTS INC. PLANT 46,3625 N STATE RD 9,HOWE,LAGRANGE,IN,46746,41.69388,-85.425714,3499,,,,,,332439,,,,,,1304202145494,LEAD COMPOUNDS,N420,YES,PBT,YES,1,NO,R,Pounds,0,0,0,0,0,0,0,0,0,0,0,0,0,0,0,0,0,0,0,0,0,0,0,0,0,0,0,0,0,0,0,0,0,0,0,2,0,0,0,2,0,0,0,0,0,0,0,0,0,0,0,0,0,0,0,0,0,0,0,2,0,0,2,0,.7,LIPPERT COMPONENTS MANUFACTURING INC,043222470
2004,46933FRNKL100SC,FRANKLIN ELECTRIC CO INC,100 SCHAEFER DR,GAS CITY,GRANT,IN,46933,40.489667,-85.59218,3679,,,,,,334418,,,,,,1304202136560,LEAD COMPOUNDS,N420,YES,PBT,YES,1,NO,R,Pounds,0,0,0,0,0,0,0,0,0,0,0,0,0,0,0,0,0,0,0,0,0,0,0,0,0,0,0,0,0,0,0,6.3,0,6.3,0,0,0,0,2071,2071,0,0,0,0,0,0,0,0,0,0,6.3,0,0,0,0,6.3,0,0,0,2071,0,0,2077.3,0,1.67,FRANKLIN ELECTRIC CO,005161674
2004,46526STRCR2703C,LIPPERT COMPONENTS,2703 COLLEGE AVE,GOSHEN,ELKHART,IN,46528,41.566286,-85.793479,3716,3715,,,,,336213,,,,,,1304202157071,TOLUENE,000108883,YES,NON-PBT,NO,0,NO,R,Pounds,0,33303,0,0,0,0,0,0,0,0,0,0,33303,0,0,0,0,0,0,0,0,0,0,0,0,0,0,0,0,0,0,0,0,0,0,0,0,0,0,0,0,0,0,0,0,0,3340,0,0,3340,33303,0,0,33303,0,0,0,0,0,0,0,3340,36643,0,.99,LIPPERT COMPONENTS MANUFACTURING INC,043222470
2004,46802SSXGR1601W,ESSEX GROUP INC FORT WAYNE MAGNET WIRE PLANT,1601 WALL ST,FORT WAYNE,ALLEN,IN,46802,41.0708,-85.1596,3357,,,,,,331422,,,,,,1304202176246,COPPER,007440508,NO,NON-PBT,YES,1,NO,R,Pounds,200,50,9,0,0,0,0,0,0,0,0,0,259,36,0,36,0,0,0,0,0,0,0,0,0,0,0,5,0,0,0,120,0,125,0,3019985,0,0,0,3019985,0,0,0,0,0,0,0,0,0,0,420,0,0,259,10,156,0,0,0,3019985,0,0,3020410,0,1.04,SUPERIOR ESSEX INC,153370077
2004,46360PHLLPUS12L,ILLINOIS TOOL WORKS RAMSET/REDHEAD,1919 E US HWY 12,MICHIGAN CITY,LA PORTE,IN,46360,41.680605,-86.934968,3452,,,,,,332722,,,,,,1304202120135,CHROMIUM COMPOUNDS(EXCEPT CHROMITE ORE MINED IN THE TRANSVAAL REGION),N090,YES,NON-PBT,YES,1,NO,A,Pounds,0,0,0,0,0,0,0,0,0,0,0,0,0,0,0,0,0,0,0,0,0,0,0,0,0,0,0,0,0,0,0,0,0,0,0,0,0,0,0,0,0,0,0,0,0,0,0,0,0,0,0,0,0,0,0,0,0,0,0,0,0,0,0,0,,ILLINOIS TOOL WORKS INC,005146428
2004,47150SPWNM2049I,SPAWN MATE INC,2049 INDIANA AVE,NEW ALBANY,FLOYD,IN,47150,38.310625,-85.815496,2873,,,,,,325311,,,,,,1304202138830,FORMALDEHYDE,000050000,YES,NON-PBT,NO,0,YES,R,Pounds,5,96,0,0,0,0,0,0,0,0,0,0,101,0,0,0,0,0,0,0,0,0,0,0,0,0,0,0,0,0,0,0,0,0,0,0,0,0,0,0,0,0,0,0,0,0,0,0,0,0,101,0,0,96,0,0,0,0,0,0,0,0,96,0,1.01,MONTEREY MUSHROOMS INC,088595186
2004,46312CTGPT2500E,CITGO PETROLEUM CORP,2500 E CHICAGO AVE,EAST CHICAGO,LAKE,IN,46312,41.617917,-87.434111,5171,,,,,,424710,,,,,,1304202187023,STYRENE,000100425,YES,NON-PBT,NO,0,YES,R,Pounds,0,0,0,0,0,0,0,0,0,0,0,0,0,0,0,0,0,0,0,0,0,0,0,0,0,0,0,0,0,0,0,2,0,2,0,0,0,0,0,0,0,0,0,0,0,0,0,0,0,0,2,0,0,0,0,2,0,0,0,0,0,0,2,0,.99,CITGO PETROLEUM CORP,102417268
2004,46312CTGPT2500E,CITGO PETROLEUM CORP,2500 E CHICAGO AVE,EAST CHICAGO,LAKE,IN,46312,41.617917,-87.434111,5171,,,,,,424710,,,,,,1304202187062,CUMENE,000098828,YES,NON-PBT,NO,0,NO,R,Pounds,0,12,0,0,0,0,0,0,0,0,0,0,12,0,0,0,0,0,0,0,0,0,0,0,0,0,0,0,0,0,0,8,0,8,0,0,0,0,0,0,0,0,0,0,0,0,0,0,0,0,20,0,0,12,0,8,0,0,0,0,0,0,20,0,.99,CITGO PETROLEUM CORP,102417268
2004,46312CTGPT2500E,CITGO PETROLEUM CORP,2500 E CHICAGO AVE,EAST CHICAGO,LAKE,IN,46312,41.617917,-87.434111,5171,,,,,,424710,,,,,,1304202187124,XYLENE (MIXED ISOMERS),001330207,YES,NON-PBT,NO,0,NO,R,Pounds,12,1727,0,0,0,0,0,0,0,0,0,0,1739,0,0,0,0,0,0,0,0,0,0,0,0,0,0,0,0,0,0,34,0,34,0,0,0,0,0,0,0,0,0,0,0,0,0,0,0,0,1773,0,0,1739,0,34,0,0,0,0,0,0,1773,0,.99,CITGO PETROLEUM CORP,102417268
2004,46158GNRLSHWY67,GENERAL SHALE BRICK INC PLANT 20,148 SYCAMORE LN,MOORESVILLE,MORGAN,IN,46158,39.61467,-86.370956,3251,,,,,,327121,,,,,,1304202138261,MANGANESE COMPOUNDS,N450,YES,NON-PBT,YES,1,NO,A,Pounds,0,0,0,0,0,0,0,0,0,0,0,0,0,0,0,0,0,0,0,0,0,0,0,0,0,0,0,0,0,0,0,0,0,0,0,0,0,0,0,0,0,0,0,0,0,0,0,0,0,0,0,0,0,0,0,0,0,0,0,0,0,0,0,0,,GENERAL SHALE BRICK INC,003383361
2004,46565HBBRDMAINV,HUBBARD FEEDS INC,135 MAIN ST,SHIPSHEWANA,LAGRANGE,IN,46565,41.678056,-85.58,2048,,,,,,311000,,,,,,1304202168872,ZINC COMPOUNDS,N982,NO,NON-PBT,YES,1,NO,A,Pounds,0,0,0,0,0,0,0,0,0,0,0,0,0,0,0,0,0,0,0,0,0,0,0,0,0,0,0,0,0,0,0,0,0,0,0,0,0,0,0,0,0,0,0,0,0,0,0,0,0,0,0,0,0,0,0,0,0,0,0,0,0,0,0,0,,RIDLEY INC,NA
2004,46514CMCMF52650,CAMCO MANUFACTURING INC,52650 LEER CT,ELKHART,ELKHART,IN,465145400,41.728505,-85.949367,2899,,,,,,325998,,,,,,1304202183772,C.I. FOOD RED 15,000081889,NO,NON-PBT,NO,0,NO,R,Pounds,0,0,0,0,0,0,0,0,0,0,0,0,0,0,1,1,0,0,0,0,0,0,0,0,0,0,0,0,0,0,0,0,0,0,0,0,0,0,0,0,0,0,0,0,0,0,0,0,0,0,0,0,0,0,0,0,0,0,0,0,0,1,1,0,1,NA,NA
2004,47170MLTCLHWY31,MULTI-COLOR CORP,2281 S US 31,SCOTTSBURG,SCOTT,IN,47170,38.660146,-85.774644,2754,,,,,,323111,,,,,,1304202174948,TOLUENE,000108883,YES,NON-PBT,NO,0,NO,R,Pounds,0,5155,0,0,0,0,0,0,0,0,0,0,5155,0,0,0,0,0,0,0,0,0,0,0,0,0,0,0,0,0,0,0,0,0,0,0,0,0,0,0,0,0,0,0,0,0,0,0,0,0,5155,0,0,5155,0,0,0,0,0,0,471581,0,476736,0,.98,MULTICOLOR CORP,121298590
2004,46131SSXGR3200E,ESSEX GROUP INC,3200 ESSEX DR,FRANKLIN,JOHNSON,IN,46131,39.521813,-86.06378,3357,,,,,,331422,,,,,,1304202153868,P-CRESOL,000106445,YES,NON-PBT,NO,0,NO,R,Pounds,473,167,0,0,0,0,0,0,0,0,0,0,640,0,0,0,0,0,0,0,0,0,0,0,0,0,0,0,0,0,0,0,0,0,0,0,0,0,0,0,698,0,698,0,0,0,0,0,0,0,640,0,0,641,0,0,0,698,0,0,10989,0,12328,0,1,SUPERIOR ESSEX INC,153370077
2004,46567SYRCS1135S,PARKER HANNIFIN CORP,501 S SYCAMORE ST,SYRACUSE,KOSCIUSKO,IN,46567,41.417972,-85.750861,3069,,,,,,326291,,,,,,1304202350548,ZINC COMPOUNDS,N982,NO,NON-PBT,YES,1,NO,A,Pounds,0,0,0,0,0,0,0,0,0,0,0,0,0,0,0,0,0,0,0,0,0,0,0,0,0,0,0,0,0,0,0,0,0,0,0,0,0,0,0,0,0,0,0,0,0,0,0,0,0,0,0,0,0,0,0,0,0,0,0,0,0,0,0,0,,PARKER HANNIFIN CORP,004175500
2004,47265RLRND418ST,ERLER INDUSTRIES INC,418 STOCKWELL ST,NORTH VERNON,JENNINGS,IN,47265,39.004222,-85.631572,3089,,,,,,326199,,,,,,1304202356933,CERTAIN GLYCOL ETHERS,N230,YES,NON-PBT,NO,0,NO,R,Pounds,0,22235,0,0,0,0,0,0,0,0,0,0,22235,0,0,0,0,0,0,0,0,0,0,0,0,0,0,0,0,0,0,0,0,0,0,0,0,0,0,0,1274,0,1274,0,0,0,0,0,0,0,22235,0,0,22235,0,0,0,1274,3920,0,6271,0,33700,0,1.07,NA,NA
2004,47025TNNRSAEPDR,AMERICAN ELECTRIC POWER TANNERS CREEK PLANT,AEP DR,LAWRENCEBURG,DEARBORN,IN,47025,39.083528,-84.861722,4911,,,,,,221112,,,,,,1304202261626,ZINC COMPOUNDS,N982,NO,NON-PBT,YES,1,NO,R,Pounds,5,1700,400,0,0,0,0,34000,44000,0,44000,5,80110,1,0,1,0,0,0,0,0,0,0,0,0,0,0,0,0,0,0,0,0,0,0,0,0,0,0,0,0,0,0,0,0,0,0,0,0,0,80111,0,0,80110,1,0,0,0,0,0,0,0,80111,0,1.08,AMERICAN ELECTRIC POWER,006979868
2004,46221JCKSN1970K,JACKSON OILS & SOLVENTS,1970 KENTUCKY AVE,INDIANAPOLIS,MARION,IN,46221,39.739073,-86.19342,5171,,,,,,424710,,,,,,1304202287316,BENZENE,000071432,YES,NON-PBT,NO,0,YES,A,Pounds,0,0,0,0,0,0,0,0,0,0,0,0,0,0,0,0,0,0,0,0,0,0,0,0,0,0,0,0,0,0,0,0,0,0,0,0,0,0,0,0,0,0,0,0,0,0,0,0,0,0,0,0,0,0,0,0,0,0,0,0,0,0,0,0,,NA,NA
2004,46221JCKSN1970K,JACKSON OILS & SOLVENTS,1970 KENTUCKY AVE,INDIANAPOLIS,MARION,IN,46221,39.739073,-86.19342,5171,,,,,,424710,,,,,,1304202287367,NAPHTHALENE,000091203,YES,NON-PBT,NO,0,NO,A,Pounds,0,0,0,0,0,0,0,0,0,0,0,0,0,0,0,0,0,0,0,0,0,0,0,0,0,0,0,0,0,0,0,0,0,0,0,0,0,0,0,0,0,0,0,0,0,0,0,0,0,0,0,0,0,0,0,0,0,0,0,0,0,0,0,0,,NA,NA
2004,46221JCKSN1970K,JACKSON OILS & SOLVENTS,1970 KENTUCKY AVE,INDIANAPOLIS,MARION,IN,46221,39.739073,-86.19342,5171,,,,,,424710,,,,,,1304202287405,CYCLOHEXANE,000110827,NO,NON-PBT,NO,0,NO,A,Pounds,0,0,0,0,0,0,0,0,0,0,0,0,0,0,0,0,0,0,0,0,0,0,0,0,0,0,0,0,0,0,0,0,0,0,0,0,0,0,0,0,0,0,0,0,0,0,0,0,0,0,0,0,0,0,0,0,0,0,0,0,0,0,0,0,,NA,NA
2004,47591SSXGRESSEX,ESSEX GROUP INC,1299 E ESSEX RD,VINCENNES,KNOX,IN,47591,38.61234,-87.51063,3351,,,,,,331421,,,,,,1304202350803,COPPER COMPOUNDS,N100,NO,NON-PBT,YES,1,NO,R,Pounds,32,6084,0,0,0,0,0,0,0,0,0,0,6116,0,0,0,0,0,31,0,0,0,0,0,0,0,48,0,0,0,0,0,0,79,0,419641,0,0,0,419641,0,0,0,0,0,0,0,0,0,0,6195,0,0,6116,48,31,0,0,0,419641,0,0,425836,0,.87,SUPERIOR ESSEX INC,153370077
2004,47006BTSVLEASTP,BATESVILLE MANUFACTURING INC -DOLL PLANT,1000 E PEARL ST,BATESVILLE,RIPLEY,IN,47006,39.294444,-85.213139,3995,,,,,,339995,,,,,,1304202310203,NICKEL,007440020,YES,NON-PBT,YES,1,YES,R,Pounds,83,2,0,0,0,0,0,0,0,0,0,0,85,5,0,5,0,0,0,0,0,0,0,0,0,0,760,0,0,0,0,0,0,760,0,0,0,0,0,0,0,0,0,0,0,0,0,0,0,0,850,0,0,85,765,0,0,0,0,0,0,0,850,0,.96,HILLENBRAND INDUSTRIES,825165132
2004,47374BLDNW2200U,BELDEN CDT INC. - BEC,2200 US HWY 27 S,RICHMOND,WAYNE,IN,47374,39.863273,-84.888583,3357,,,,,,331421,,,,,,1304202280638,COPPER,007440508,NO,NON-PBT,YES,1,NO,R,Pounds,0,0,0,0,0,0,0,0,0,0,0,0,0,0,0,0,0,0,0,0,0,0,0,0,0,0,0,1,0,0,0,0,0,1,0,0,0,0,87983,87983,0,0,0,0,0,0,0,0,0,0,1,0,0,0,1,0,0,0,0,87983,0,0,87984,0,.5,BELDEN CDT INC,809182579
2004,46167QLTCH8000N,STEEL DYNAMICS INC - ENGINEERED BAR PRODUCTS DIV,8000 N COUNTY RD 225E,PITTSBORO,HENDRICKS,IN,46167,39.875511,-86.484879,3312,,,,,,331111,,,,,,1304202297949,CHROMIUM COMPOUNDS(EXCEPT CHROMITE ORE MINED IN THE TRANSVAAL REGION),N090,YES,NON-PBT,YES,1,NO,R,Pounds,24,247,0,0,0,0,0,0,0,0,0,0,271,0,0,0,0,0,0,0,0,0,0,0,0,0,0,24608,0,0,0,0,0,24608,0,0,0,0,0,0,0,0,0,0,0,0,0,0,0,0,24879,0,0,271,24608,0,0,0,0,0,0,0,24879,0,0,STEEL DYNAMICS INC,NA
2004,46803CHMCN7415N,UNIVAR USA INC FORT WAYNE EAST BRANCH,7415 NELSON RD E,FORT WAYNE,ALLEN,IN,46803,41.071892,-85.041843,5169,,,,,,424690,,,,,,1304202230583,"1,2,4-TRIMETHYLBENZENE",000095636,NO,NON-PBT,NO,0,NO,A,Pounds,0,0,0,0,0,0,0,0,0,0,0,0,0,0,0,0,0,0,0,0,0,0,0,0,0,0,0,0,0,0,0,0,0,0,0,0,0,0,0,0,0,0,0,0,0,0,0,0,0,0,0,0,0,0,0,0,0,0,0,0,0,0,0,0,,UNIVAR USA INC,102971785
2004,46714FRNKL400ES,BLUFFTON MOTOR WORKS LLC,410 E SPRING ST,BLUFFTON,WELLS,IN,467143737,40.727639,-85.166333,3621,,,,,,335312,,,,,,1304202305330,CHROMIUM,007440473,YES,NON-PBT,YES,1,YES,R,Pounds,0,0,0,0,0,0,0,0,0,0,0,0,0,0,0,0,0,41,0,0,0,0,0,0,0,0,0,0,0,0,0,0,0,41,0,31295,0,0,0,31295,0,0,0,0,0,0,0,0,0,0,41,0,0,0,0,41,0,0,0,31295,0,0,31336,0,.96,CAPITAL WORKS LLC,791054013
2004,46947SMLLP600HU,SMALL PARTS INC,600 HUMPHREY ST,LOGANSPORT,CASS,IN,46947,40.74251,-86.366955,3469,,,,,,332116,,,,,,1304202255461,ZINC COMPOUNDS,N982,NO,NON-PBT,YES,1,NO,A,Pounds,0,0,0,0,0,0,0,0,0,0,0,0,0,0,0,0,0,0,0,0,0,0,0,0,0,0,0,0,0,0,0,0,0,0,0,0,0,0,0,0,0,0,0,0,0,0,0,0,0,0,0,0,0,0,0,0,0,0,0,0,0,0,0,0,,MATERIALS PROCESSING INC,040276248
2004,47108HLSLNSTATE,NETSHAPE TECHNOLOGIES - CAMPBELLSBURG FACILITY,596 W OAK ST,CAMPBELLSBURG,WASHINGTON,IN,47108,38.65146,-86.269175,3499,,,,,,332117,,,,,,1304202332639,NICKEL,007440020,YES,NON-PBT,YES,1,YES,R,Pounds,0,0,0,0,0,0,0,0,0,0,0,0,0,0,0,0,0,0,0,0,0,0,0,0,0,500,0,0,0,0,0,0,0,500,0,0,0,0,0,0,0,0,0,0,0,0,0,0,0,0,500,0,0,0,0,20,0,0,0,0,0,0,20,0,0,NETSHAPE TECHNOLOGIES INC,830314261
2004,46746MLTPL655NS,MAGNA POWERTRAIN OF AMERICA INC MULTI-PLEX DIV,6505 N SR 9,HOWE,LAGRANGE,IN,46746,41.7359,-85.4258,3714,,,,,,336370,,,,,,1304202255776,CHROMIUM,007440473,YES,NON-PBT,YES,1,YES,R,Pounds,1,0,0,0,0,0,0,0,0,0,0,0,1,0,0,0,0,0,0,0,0,0,0,0,0,0,0,0,0,0,0,0,0,0,0,133974,0,0,0,133974,0,0,0,0,0,0,0,0,0,0,1,0,0,1,0,0,0,0,0,133974,0,0,133975,0,1.09,MAGNA POWERTRAIN,194517249
2004,46725CRBRR302FA,C & R PLATING CORP,302 FACTORY AVE,COLUMBIA CITY,WHITLEY,IN,46725,41.150694,-85.492306,3471,,,,,,332813,,,,,,1304202209870,NITRIC ACID,007697372,NO,NON-PBT,NO,0,NO,R,Pounds,0,0,0,0,0,0,0,0,0,0,0,0,0,0,0,0,0,0,0,0,0,0,0,0,0,0,0,0,0,0,0,0,0,0,0,0,0,0,0,0,0,0,0,0,0,0,0,0,0,0,0,0,0,0,0,0,0,0,0,0,13105,0,13105,0,1.25,NA,NA
2004,46151NDNPL4040B,IPL EAGLE VALLEY,4040 BLUE BLUFF RD,MARTINSVILLE,MORGAN,IN,461517887,39.488181,-86.415344,4911,,,,,,221112,,,,,,1304202295287,DIOXIN AND DIOXIN-LIKE COMPOUNDS,N150,YES,DIOXIN,NO,0,NO,R,Grams,0,.2136,0,0,0,0,0,0,0,0,0,0,.2136,0,0,0,0,0,0,0,0,0,0,0,0,0,0,0,0,0,0,0,0,0,0,0,0,0,0,0,0,0,0,0,0,0,0,0,0,0,.2136,0,0,.2136,0,0,0,0,0,0,0,0,.2136,0,.98,AES CORP,043857812
2004,46992SGNTRMILLS,THERMAFIBER INC,3711 MILL ST,WABASH,WABASH,IN,46992,40.791111,-85.862222,3296,,,,,,327993,,,,,,1304202298776,FORMALDEHYDE,000050000,YES,NON-PBT,NO,0,YES,R,Pounds,0,1091.4,0,0,0,0,0,0,0,0,0,0,1091.4,0,0,0,0,0,0,0,0,0,0,0,0,0,0,0,0,0,0,0,0,0,0,0,0,0,0,0,0,0,0,0,0,0,0,0,0,0,1091.4,0,0,1091,0,0,0,0,0,0,0,0,1091,0,.94,NA,NA
2004,47172SVNDN2100F,MANITOWOC BEVERAGE EQUIPMENT,2100 FUTURE DR,SELLERSBURG,CLARK,IN,47172,38.37078,-85.76387,3556,,,,,,333294,,,,,,1304202305532,CHROMIUM,007440473,YES,NON-PBT,YES,1,YES,R,Pounds,8,0,0,0,0,0,0,0,0,0,0,0,8,0,0,0,0,0,0,0,0,0,0,0,0,0,0,0,0,0,0,0,0,0,0,0,0,0,90521,90521,0,0,0,0,0,0,0,0,0,0,8,0,0,8,0,0,0,0,0,90521,0,0,90529,0,1.06,THE MANITOWOC CO INC,006073183
2004,46230MBLLH15271,EXXONMOBIL OIL CORP HAMMOND TERMINAL,1527 141ST ST,HAMMOND,LAKE,IN,46320,41.64,-87.492222,5171,,,,,,424710,,,,,,1304202283053,XYLENE (MIXED ISOMERS),001330207,YES,NON-PBT,NO,0,NO,R,Pounds,241,556,0,0,0,0,0,0,0,0,0,0,797,0,0,0,0,0,0,0,0,0,0,0,0,0,0,0,0,0,33,0,0,33,0,0,0,0,0,0,0,0,0,0,0,0,0,0,0,0,830,0,0,796,0,33,0,0,0,0,0,0,829,0,.55,EXXON MOBIL CORP,001213214
2004,47987MSTRG1200E,MASTER GUARD CORP,1200 E 8TH ST,VEEDERSBURG,FOUNTAIN,IN,47987,40.1178,-87.244,3714,,,,,,336399,,,,,,1304202269522,LEAD COMPOUNDS,N420,YES,PBT,YES,1,NO,R,Pounds,0,0,0,0,0,0,0,0,0,0,0,0,0,2.29,0,2.29,0,.66,9.91,0,0,0,0,0,0,0,0,0,0,0,0,0,0,10.57,0,470.1,0,0,0,470.1,0,0,0,0,0,0,0,0,0,0,12.86,0,0,0,2.29,10.57,0,0,0,470.1,0,0,482.96,0,1.05,FLEX-N-GATE CORP,011298072
2004,46733GLDSH2004P,GOLDSHIELD FIBERGLASS INC 43-2,2004 PATTERSON,DECATUR,ADAMS,IN,46733,40.824776,-84.942239,3089,,,,,,326199,,,,,,1304202285324,STYRENE,000100425,YES,NON-PBT,NO,0,YES,R,Pounds,30693,276239,0,0,0,0,0,0,0,0,0,0,306932,0,0,0,0,0,0,0,0,0,0,0,0,0,0,0,0,0,0,0,0,0,0,0,0,0,0,0,7420,0,7420,0,0,0,0,0,0,0,306932,0,0,306932,0,0,0,7420,0,0,28454,0,342806,0,1.2,AIP,NA
2004,46750WSTRN1870R,HAYES LEMMERZ INTERNATIONAL,1870 RIVERFORK DR,HUNTINGTON,HUNTINGTON,IN,46750,40.863862,-85.529564,3714,,,,,,336000,,,,,,1304202307536,LEAD,007439921,YES,PBT,YES,1,YES,A,Pounds,0,0,0,0,0,0,0,0,0,0,0,0,0,0,0,0,0,0,0,0,0,0,0,0,0,0,0,0,0,0,0,0,0,0,0,0,0,0,0,0,0,0,0,0,0,0,0,0,0,0,0,0,0,0,0,0,0,0,0,0,0,0,0,0,,HAYES LEMMERZ INTERNATIONAL INC,005357355
2004,46041SNCHMSTATE,SUN CHEMICAL CORP,2642 W  STATE RD 28,FRANKFORT,CLINTON,IN,46041,40.279172,-86.555456,2893,,,,,,325910,,,,,,1304202329797,COPPER COMPOUNDS,N100,NO,NON-PBT,YES,1,NO,R,Pounds,0,0,0,0,0,0,0,0,0,0,0,0,0,0,0,0,0,0,0,0,0,0,0,0,0,0,.23,0,0,0,0,0,0,.23,0,0,.47,0,0,.47,0,0,0,0,0,0,0,0,0,0,.23,0,0,0,.23,0,0,0,0,.47,0,0,.7,0,1.25,SUN CHEMICAL CORP,144638558
2004,47918HRRSN900MO,HARRISON STEEL CASTINGS CO,900 MOUND ST,ATTICA,FOUNTAIN,IN,47918,40.285583,-87.261306,3325,,,,,,333511,,,,,,1304202295667,NAPHTHALENE,000091203,YES,NON-PBT,NO,0,NO,R,Pounds,250,250,5,0,0,0,5,0,0,0,0,0,510,0,0,0,0,0,0,0,0,0,0,0,0,0,0,0,0,0,0,0,0,0,0,0,0,0,0,0,0,0,0,0,0,0,0,0,0,0,510,0,0,41,0,0,0,0,0,0,0,0,41,1,1.52,HARRISON STEEL CASTINGS CO,005173471
2004,46802SSXGR1601W,ESSEX GROUP INC FORT WAYNE MAGNET WIRE PLANT,1601 WALL ST,FORT WAYNE,ALLEN,IN,46802,41.0708,-85.1596,2851,,,,,,325510,,,,,,1304202302509,N-METHYL-2-PYRROLIDONE,000872504,NO,NON-PBT,NO,0,NO,R,Pounds,2166,2376,0,0,0,0,0,0,0,0,0,0,4542,0,0,0,0,0,0,0,0,0,0,0,0,0,0,0,0,0,0,0,0,0,0,0,0,0,0,0,0,7620,7620,0,0,0,0,0,0,0,4542,0,0,4542,0,0,0,7620,12610,0,0,0,24772,0,.96,SUPERIOR ESSEX INC,153370077
2004,46580WRSWCPOBOX,WARSAW CHEMICAL CO INC,390 ARGONNE RD,WARSAW,KOSCIUSKO,IN,46580,41.234359,-85.823129,2812,2842,2841,2819,,,325611,,,,,,1304202286819,TOLUENE,000108883,YES,NON-PBT,NO,0,NO,R,Pounds,250,250,0,0,0,0,0,0,0,0,0,0,500,0,0,0,0,0,0,0,0,0,0,0,0,0,0,0,0,0,0,0,0,0,0,0,0,0,0,0,250,0,250,0,0,0,0,0,0,0,500,0,0,110,0,0,0,220,0,0,0,0,330,0,1,NA,NA
2004,46226LRCHC3111N,BRENNTAG MID-SOUTH INC,3111 N POST RD,INDIANAPOLIS,MARION,IN,46226,39.814444,-86.007778,5169,,,,,,424690,,,,,,1304202286934,DICHLOROMETHANE,000075092,YES,NON-PBT,NO,0,YES,A,Pounds,0,0,0,0,0,0,0,0,0,0,0,0,0,0,0,0,0,0,0,0,0,0,0,0,0,0,0,0,0,0,0,0,0,0,0,0,0,0,0,0,0,0,0,0,0,0,0,0,0,0,0,0,0,0,0,0,0,0,0,0,0,0,0,0,,BRENNTAG NA INC,041167107
2004,46226LRCHC3111N,BRENNTAG MID-SOUTH INC,3111 N POST RD,INDIANAPOLIS,MARION,IN,46226,39.814444,-86.007778,5169,,,,,,424690,,,,,,1304202286973,METHANOL,000067561,YES,NON-PBT,NO,0,NO,R,Pounds,5,250,0,0,0,0,0,0,0,0,0,0,255,0,0,0,0,0,0,0,0,0,0,0,0,0,0,0,0,0,0,0,0,0,0,0,0,0,0,0,0,1614,1614,0,0,0,0,0,0,0,255,0,0,375,0,0,0,1614,0,0,0,0,1989,0,2.1,BRENNTAG NA INC,041167107
2004,47355STRLNEASTS,ASTRAL INDUSTRIES INC,502 E SHERMAN ST & 7375 S U.S. 27,LYNN,RANDOLPH,IN,473550638,40.050278,-84.935,3995,,,,,,339995,,,,,,1304202350082,XYLENE (MIXED ISOMERS),001330207,YES,NON-PBT,NO,0,NO,R,Pounds,1757,33377,0,0,0,0,0,0,0,0,0,0,35134,0,0,0,0,0,0,0,0,0,0,0,0,0,0,0,0,0,0,0,0,0,0,0,0,0,0,0,659,0,659,0,0,0,0,0,0,0,35134,0,0,35133,0,0,0,659,0,0,0,0,35792,0,.88,NA,NA
2004,46982WBSHV505WM,WABASH VALLEY MANUFACTURING,505 E MAIN ST PO BOX 5,SILVER LAKE,KOSCIUSKO,IN,46982,41.072861,-85.886694,2514,,,,,,337124,,,,,,1304202220644,ETHYLENE GLYCOL,000107211,YES,NON-PBT,NO,0,NO,A,Pounds,0,0,0,0,0,0,0,0,0,0,0,0,0,0,0,0,0,0,0,0,0,0,0,0,0,0,0,0,0,0,0,0,0,0,0,0,0,0,0,0,0,0,0,0,0,0,0,0,0,0,0,0,0,0,0,0,0,0,0,0,0,0,0,0,,BROWN JORDAN INTERNATIONAL INC,879704773
2004,46982WBSHV505WM,WABASH VALLEY MANUFACTURING,505 E MAIN ST PO BOX 5,SILVER LAKE,KOSCIUSKO,IN,46982,41.072861,-85.886694,2514,,,,,,337124,,,,,,1304202220695,SODIUM NITRITE,007632000,NO,NON-PBT,YES,2,NO,A,Pounds,0,0,0,0,0,0,0,0,0,0,0,0,0,0,0,0,0,0,0,0,0,0,0,0,0,0,0,0,0,0,0,0,0,0,0,0,0,0,0,0,0,0,0,0,0,0,0,0,0,0,0,0,0,0,0,0,0,0,0,0,0,0,0,0,,BROWN JORDAN INTERNATIONAL INC,879704773
2004,46268CHMCN5850W,UNIVAR USA INC INDIANAPOLIS WEST BRANCH,5850 W 82ND ST,INDIANAPOLIS,MARION,IN,46268,39.90218,-86.263927,5169,,,,,,424690,,,,,,1304202231344,ETHYLBENZENE,000100414,YES,NON-PBT,NO,0,NO,R,Pounds,2500,250,0,0,0,0,0,0,0,0,0,0,2750,0,0,0,0,0,0,0,0,0,0,0,0,0,0,0,0,0,0,0,750,750,0,0,0,0,0,0,5050,0,5050,0,0,0,0,0,0,0,3500,0,0,40,0,0,0,390,0,0,0,0,430,7000,1.36,UNIVAR USA INC,102971785
2004,47635RCKPR2791N,AMERICAN ELECTIC POWER ROCKPORT PLANT,2791 N US HWY 231,ROCKPORT,SPENCER,IN,47635,37.91175,-87.038139,4911,,,,,,221112,,,,,,1304202261323,COBALT COMPOUNDS,N096,YES,NON-PBT,YES,1,YES,R,Pounds,5,200,4,0,0,0,13000,0,1200,0,1200,5,14414,0,0,0,0,0,0,0,0,0,0,0,0,0,0,0,0,0,0,0,0,0,0,0,0,0,0,0,0,0,0,0,0,0,0,0,0,0,14414,0,13000,1414,0,0,0,0,0,0,0,0,14414,0,.95,AMERICAN ELECTRIC POWER,006979868
2004,46507CMPRM51650,DIVERSIFIED MACHINE BRISTOL INC,51650 COUNTY RD 133,BRISTOL,ELKHART,IN,46507,41.743444,-85.736833,3714,,,,,,336330,,,,,,1304202316156,COPPER COMPOUNDS,N100,NO,NON-PBT,YES,1,NO,R,Pounds,1,21,3,0,0,0,0,0,0,0,0,1,26,0,0,0,0,0,3,0,0,0,0,0,0,0,2,0,1,0,0,0,0,6,0,5858,0,0,0,5858,0,0,0,0,0,0,0,0,0,0,32,0,0,26,2,4,0,0,0,5900,0,0,5932,0,.95,DIVERSIFIED MACHINE INC,611828695
2004,46750SLTKN701NB,ISOLATEK INTERNATIONAL,701 N BROADWAY,HUNTINGTON,HUNTINGTON,IN,467505006,40.886436,-85.471137,3296,,,,,,327993,,,,,,1304202206936,CARBONYL SULFIDE,000463581,YES,NON-PBT,NO,0,NO,R,Pounds,0,124720,0,0,0,0,0,0,0,0,0,0,124720,0,0,0,0,0,0,0,0,0,0,0,0,0,0,0,0,0,0,0,0,0,0,0,0,0,0,0,0,0,0,0,0,0,0,0,0,0,124720,0,0,124720,0,0,0,0,0,0,0,0,124720,0,0,US MINERAL PRODUCTS CO,002388999
2004,46552NTK  30755,I/N TEK,30755 EDISON RD,NEW CARLISLE,ST JOSEPH,IN,465529695,41.6974,-86.4674,3316,,,,,,331221,,,,,,1304202292330,LEAD COMPOUNDS,N420,YES,PBT,YES,1,NO,R,Pounds,0,.6,0,0,0,0,0,0,0,0,0,0,.6,69,0,69,0,122,0,0,0,0,0,0,0,0,107,.06,0,0,0,0,0,229.06,0,0,0,0,0,0,0,0,0,0,0,0,0,0,0,0,298.66,0,0,1,230,69,0,0,0,0,0,0,300,0,1.02,ARCELORMITTAL USA INC,107970886
2004,46628BRNCR2001W,ROYAL ADHESIVES & SEALANTS,2001 W WASHINGTON ST,SOUTH BEND,ST JOSEPH,IN,46628,41.676876,-86.278801,2891,,,,,,325520,,,,,,1304202309757,P-XYLENE,000106423,YES,NON-PBT,NO,0,NO,R,Pounds,371,116,0,0,0,0,0,0,0,0,0,0,487,0,0,0,0,0,0,0,0,0,0,0,0,0,0,0,0,0,0,0,0,0,0,0,0,0,0,0,2612,0,2612,0,0,0,0,0,0,0,487,0,0,488,0,0,0,2612,1448,0,81,0,4629,0,1.12,ROYAL ADHESIVES & SEALANTS LLC,101119910
2004,46714MRMNMCORNI,ADM ALLIANCE NUTRITION INC,1800 W WESTERN RD,BLUFFTON,WELLS,IN,46714,40.733109,-85.194156,2048,,,,,,311119,,,,,,1304202266502,MANGANESE COMPOUNDS,N450,YES,NON-PBT,YES,1,NO,A,Pounds,0,0,0,0,0,0,0,0,0,0,0,0,0,0,0,0,0,0,0,0,0,0,0,0,0,0,0,0,0,0,0,0,0,0,0,0,0,0,0,0,0,0,0,0,0,0,0,0,0,0,0,0,0,0,0,0,0,0,0,0,0,0,0,0,,ARCHER DANIELS MIDLAND CO,001307586
2004,46268CHMCN5850W,UNIVAR USA INC INDIANAPOLIS WEST BRANCH,5850 W 82ND ST,INDIANAPOLIS,MARION,IN,46268,39.90218,-86.263927,5169,,,,,,425120,,,,,,1304202231371,N-METHYL-2-PYRROLIDONE,000872504,NO,NON-PBT,NO,0,NO,A,Pounds,0,0,0,0,0,0,0,0,0,0,0,0,0,0,0,0,0,0,0,0,0,0,0,0,0,0,0,0,0,0,0,0,0,0,0,0,0,0,0,0,0,0,0,0,0,0,0,0,0,0,0,0,0,0,0,0,0,0,0,0,0,0,0,0,,UNIVAR USA INC,102971785
2004,47905CTRPL3701S,CATERPILLAR INC,3701 STATE RD 26 E,LAFAYETTE,TIPPECANOE,IN,47905,40.417491,-86.843769,3519,,,,,,333618,,,,,,1304202234959,METHANOL,000067561,YES,NON-PBT,NO,0,NO,A,Pounds,0,0,0,0,0,0,0,0,0,0,0,0,0,0,0,0,0,0,0,0,0,0,0,0,0,0,0,0,0,0,0,0,0,0,0,0,0,0,0,0,0,0,0,0,0,0,0,0,0,0,0,0,0,0,0,0,0,0,0,0,0,0,0,0,,CATERPILLAR INC,005070479
2004,46320MRCNN25011,SILGAN CONTAINERS MANUFACTURING CORP,2501 165TH ST,HAMMOND,LAKE,IN,46320,41.59566,-87.469615,3411,,,,,,332431,,,,,,1304202258202,CERTAIN GLYCOL ETHERS,N230,YES,NON-PBT,NO,0,NO,R,Pounds,0,1300,0,0,0,0,0,0,0,0,0,0,1300,0,0,0,0,0,0,0,0,0,0,0,0,0,0,0,0,0,0,0,0,0,0,0,0,0,0,0,0,480,480,0,0,0,0,0,0,0,1300,0,0,1300,0,0,0,480,0,0,313000,0,314780,0,1.11,SILGAN HOLDINGS INC,614201895
2004,47635RCKPR2791N,AMERICAN ELECTIC POWER ROCKPORT PLANT,2791 N US HWY 231,ROCKPORT,SPENCER,IN,47635,37.91175,-87.038139,4911,,,,,,221112,,,,,,1304202261451,ZINC COMPOUNDS,N982,NO,NON-PBT,YES,1,NO,R,Pounds,5,2800,5,0,0,0,59000,0,2800,0,2800,5,64615,0,0,0,0,0,0,0,0,0,0,0,0,0,0,0,0,0,0,0,0,0,0,0,0,0,0,0,0,0,0,0,0,0,0,0,0,0,64615,0,59000,5615,0,0,0,0,0,0,0,0,64615,0,.95,AMERICAN ELECTRIC POWER,006979868
2004,47025TNNRSAEPDR,AMERICAN ELECTRIC POWER TANNERS CREEK PLANT,AEP DR,LAWRENCEBURG,DEARBORN,IN,47025,39.083528,-84.861722,4911,,,,,,221112,,,,,,1304202261513,COPPER COMPOUNDS,N100,NO,NON-PBT,YES,1,NO,R,Pounds,5,450,3700,0,0,0,0,48000,28000,0,28000,5,80160,0,0,0,0,0,0,0,0,0,0,0,0,0,0,0,0,0,0,0,0,0,0,9400,0,0,0,9400,0,0,0,0,0,0,0,0,0,0,80160,0,0,80160,0,0,0,0,0,9400,0,0,89560,0,1.08,AMERICAN ELECTRIC POWER,006979868
2004,47025TNNRSAEPDR,AMERICAN ELECTRIC POWER TANNERS CREEK PLANT,AEP DR,LAWRENCEBURG,DEARBORN,IN,47025,39.083528,-84.861722,4911,,,,,,221112,,,,,,1304202261576,MERCURY COMPOUNDS,N458,YES,PBT,YES,1,NO,R,Pounds,0,292,0,0,0,0,0,24.4,111,0,111,0,427.4,0,0,0,0,0,0,0,0,0,0,0,0,0,.1,0,0,0,0,0,0,.1,0,0,0,0,0,0,0,0,0,0,0,0,0,0,0,0,427.5,0,0,428,.1,0,0,0,0,0,0,0,428.1,0,1.08,AMERICAN ELECTRIC POWER,006979868
2004,46226LRCHC3111N,BRENNTAG MID-SOUTH INC,3111 N POST RD,INDIANAPOLIS,MARION,IN,46226,39.814444,-86.007778,5169,,,,,,424690,,,,,,1304202287049,TRICHLOROETHYLENE,000079016,YES,NON-PBT,NO,0,YES,A,Pounds,0,0,0,0,0,0,0,0,0,0,0,0,0,0,0,0,0,0,0,0,0,0,0,0,0,0,0,0,0,0,0,0,0,0,0,0,0,0,0,0,0,0,0,0,0,0,0,0,0,0,0,0,0,0,0,0,0,0,0,0,0,0,0,0,,BRENNTAG NA INC,041167107
2004,47933LTHNH1615E,ACUITY BRANDS LIGHTING,1615 E ELMORE ST,CRAWFORDSVILLE,MONTGOMERY,IN,47933,40.03226,-86.878811,3471,3646,,,,,332813,,,,,,1304202294169,COPPER,007440508,NO,NON-PBT,YES,1,NO,R,Pounds,0,0,0,0,0,0,0,0,0,0,0,0,0,0,0,0,0,0,0,0,0,0,0,0,0,0,0,0,0,0,0,0,0,0,0,1963,0,0,0,1963,0,0,0,0,0,0,0,0,0,0,0,0,0,0,0,0,0,0,0,1963,0,0,1963,0,0,ACUITY BRANDS LIGHTING,056201585
2004,46514SPRRF1030A,SUPERIOR FIBERGLASS & RESINS,1030 ALL PRO DR,ELKHART,ELKHART,IN,465148815,41.729617,-85.990146,5169,,,,,,424690,,,,,,1304202455352,"1,2,4-TRIMETHYLBENZENE",000095636,NO,NON-PBT,NO,0,NO,A,Pounds,0,0,0,0,0,0,0,0,0,0,0,0,0,0,0,0,0,0,0,0,0,0,0,0,0,0,0,0,0,0,0,0,0,0,0,0,0,0,0,0,0,0,0,0,0,0,0,0,0,0,0,0,0,0,0,0,0,0,0,0,0,0,0,0,,SUPERIOR OIL CO INC,039994975
2004,46514SPRRF1030A,SUPERIOR FIBERGLASS & RESINS,1030 ALL PRO DR,ELKHART,ELKHART,IN,465148815,41.729617,-85.990146,5169,,,,,,424690,,,,,,1304202455390,XYLENE (MIXED ISOMERS),001330207,YES,NON-PBT,NO,0,NO,R,Pounds,5,0,0,0,0,0,0,0,0,0,0,0,5,0,0,0,0,0,0,0,0,0,0,0,0,0,0,0,0,0,0,0,250,250,0,0,0,0,0,0,704,0,704,0,0,0,0,0,0,0,255,0,0,1,0,53,0,704,0,0,0,0,758,0,1.9,SUPERIOR OIL CO INC,039994975
2004,46514SPRRF1030A,SUPERIOR FIBERGLASS & RESINS,1030 ALL PRO DR,ELKHART,ELKHART,IN,465148815,41.729617,-85.990146,5169,,,,,,424690,,,,,,1304202455438,DICHLOROMETHANE,000075092,YES,NON-PBT,NO,0,YES,A,Pounds,0,0,0,0,0,0,0,0,0,0,0,0,0,0,0,0,0,0,0,0,0,0,0,0,0,0,0,0,0,0,0,0,0,0,0,0,0,0,0,0,0,0,0,0,0,0,0,0,0,0,0,0,0,0,0,0,0,0,0,0,0,0,0,0,,SUPERIOR OIL CO INC,039994975
2004,47371PTRTP201SM,PATRIOT PAINT LLC,304 S BLAINE PIKE,PORTLAND,JAY,IN,47371,40.432202,-84.98496,2851,,,,,,325510,,,,,,1304202345500,ETHYLBENZENE,000100414,YES,NON-PBT,NO,0,NO,R,Pounds,900,0,0,0,0,0,0,0,0,0,0,0,900,0,0,0,0,0,0,0,0,0,0,0,0,0,0,0,0,0,0,0,0,0,0,0,0,0,0,0,2700,0,2700,0,0,0,0,0,0,0,900,0,0,900,0,0,0,2700,2200,0,0,0,5800,0,1.8,POLYMER INC,008129202
2004,47567FRNKR6825N,FRANK E RATTS GENERATING STAT ION,6825 N BLACKBURN RD,PETERSBURG,PIKE,IN,47567,38.520194,-87.268222,4911,,,,,,221112,,,,,,1304202377178,HYDROGEN FLUORIDE,007664393,YES,NON-PBT,NO,0,NO,R,Pounds,0,94684.39,0,0,0,0,0,0,0,0,0,0,94684.39,0,0,0,0,0,0,0,0,0,0,0,0,0,0,0,0,0,0,0,0,0,0,0,0,0,0,0,0,0,0,0,0,0,0,0,0,0,94684.39,0,0,94684.39,0,0,0,0,0,0,0,0,94684.39,0,1.04,HOOSIER ENERGY REC INC,NA
2004,47567FRNKR6825N,FRANK E RATTS GENERATING STAT ION,6825 N BLACKBURN RD,PETERSBURG,PIKE,IN,47567,38.520194,-87.268222,4911,,,,,,221112,,,,,,1304202377228,"SULFURIC ACID (1994 AND AFTER ""ACID AEROSOLS"" ONLY)",007664939,NO,NON-PBT,NO,0,NO,R,Pounds,0,167719.25,0,0,0,0,0,0,0,0,0,0,167719.25,0,0,0,0,0,0,0,0,0,0,0,0,0,0,0,0,0,0,0,0,0,0,0,0,0,0,0,0,0,0,0,0,0,0,0,0,0,167719.25,0,0,167719.25,0,0,0,0,0,0,0,0,167719.25,0,1.04,HOOSIER ENERGY REC INC,NA
2004,46544RLNCL500SU,RMG FOUNDRY,500 S UNION ST,MISHAWAKA,ST JOSEPH,IN,46544,41.65753,-86.17614,3321,,,,,,331511,,,,,,1304202409506,MANGANESE,007439965,YES,NON-PBT,YES,1,NO,R,Pounds,4563,3733,0,0,0,0,0,0,0,0,0,0,8296,0,0,0,0,0,0,0,0,0,0,0,0,0,735,0,0,0,0,0,0,735,0,0,0,0,0,0,0,0,0,0,0,0,0,0,0,0,9031,0,0,8296,735,0,0,0,0,0,0,0,9031,0,1.06,NA,NA
2004,46320DVSMP1275S,DAVIES IMPERIAL COATINGS INC,1275 STATE ST,HAMMOND,LAKE,IN,46320,41.609167,-87.496667,2851,,,,,,325510,,,,,,1304202419750,CERTAIN GLYCOL ETHERS,N230,YES,NON-PBT,NO,0,NO,R,Pounds,23,0,0,0,0,0,0,0,0,0,0,0,23,0,0,0,0,0,0,0,0,0,0,0,0,0,0,0,0,0,0,0,0,0,0,0,0,0,0,0,0,0,0,0,0,0,0,0,0,0,23,0,0,23,0,0,0,0,0,0,0,0,23,0,.93,NA,NA
2004,46307BMRFR816EA,VESUVIUS USA CROWN POINT PLANT,816 E PORTER ST,CROWN POINT,LAKE,IN,46307,41.42205,-87.356606,3255,3297,,,,,327124,,,,,,1304202404695,ALUMINUM (FUME OR DUST),007429905,NO,NON-PBT,YES,4,NO,A,Pounds,0,0,0,0,0,0,0,0,0,0,0,0,0,0,0,0,0,0,0,0,0,0,0,0,0,0,0,0,0,0,0,0,0,0,0,0,0,0,0,0,0,0,0,0,0,0,0,0,0,0,0,0,0,0,0,0,0,0,0,0,0,0,0,0,,COOKSON AMERICA,001658046
2004,46680NWNRG3201W,NEW ENERGY CORP,3201 W CALVERT ST,SOUTH BEND,ST JOSEPH,IN,46613,41.65382,-86.29321,2869,,,,,,325199,,,,,,1304202414999,XYLENE (MIXED ISOMERS),001330207,YES,NON-PBT,NO,0,NO,R,Pounds,0,0,0,0,0,0,0,0,0,0,0,0,0,0,0,0,0,0,0,0,0,0,0,0,0,0,0,0,0,0,0,0,0,0,0,0,0,0,0,0,0,0,0,0,0,0,0,0,0,0,0,0,0,0,0,0,0,0,0,0,0,0,0,0,1.02,NA,NA
2004,46383WNSCR2552I,AOC LLC,2552 INDUSTRIAL DR,VALPARAISO,PORTER,IN,46383,41.445687,-87.017314,2821,,,,,,325211,,,,,,1304202389401,ETHYLENE GLYCOL,000107211,YES,NON-PBT,NO,0,NO,R,Pounds,2.366,1.538,0,0,0,0,0,0,0,0,0,0,3.904,0,0,0,0,0,0,0,0,0,0,0,0,0,0,0,0,0,0,0,0,0,0,0,0,0,0,0,0,0,0,0,0,0,0,0,0,0,3.904,0,0,3.901,0,0,0,0,0,0,0,0,3.901,0,1.02,ALPHA SERVICES LLC,007037765
2004,47882MRMGNHWY54,MEROM GENERATING STATION,5500 W OLD HWY 54,SULLIVAN,SULLIVAN,IN,47882,39.076222,-87.507806,4911,,,,,,221112,,,,,,1304202377572,BERYLLIUM COMPOUNDS,N050,YES,NON-PBT,YES,1,NO,R,Pounds,2.87,102.06,.12,0,0,0,20310.8,0,0,0,0,0,20415.85,0,0,0,0,0,0,0,0,0,0,0,0,0,0,0,0,0,0,0,0,0,0,0,0,0,0,0,0,0,0,0,0,0,0,0,0,0,20415.85,0,20310.8,105.05,0,0,0,0,0,0,0,0,20415.85,0,.93,HOOSIER ENERGY REC INC,NA
2004,47346CNSLD4359S,MAXWELL MILLING OF INDIANA INC,4359 N STATE RD 1,HAGERSTOWN,WAYNE,IN,47346,39.890406,-85.143662,2048,,,,,,311119,,,,,,1304202317107,ZINC COMPOUNDS,N982,NO,NON-PBT,YES,1,NO,A,Pounds,0,0,0,0,0,0,0,0,0,0,0,0,0,0,0,0,0,0,0,0,0,0,0,0,0,0,0,0,0,0,0,0,0,0,0,0,0,0,0,0,0,0,0,0,0,0,0,0,0,0,0,0,0,0,0,0,0,0,0,0,0,0,0,0,,GOLDSBORO MILLING CO,NA
2004,46809SCTFM3005C,FOAMEX INNOVATIONS OPERATING CO,3005 COMMERCIAL RD,FORT WAYNE,ALLEN,IN,46809,41.008611,-85.177222,3086,,,,,,326150,,,,,,1304202379335,DIISOCYANATES,N120,YES,NON-PBT,NO,0,NO,R,Pounds,5,5,0,0,0,0,0,0,0,0,0,0,10,0,0,0,0,0,0,0,0,0,0,0,0,0,0,0,0,0,0,0,0,0,0,0,0,0,0,0,0,0,0,0,476,0,0,0,0,476,10,0,0,10,0,0,0,0,0,0,0,476,486,0,1.2,FOAMEX INNOVATIONS INC,829462535
2004,46975DNFDSBOX25,DEAN DAIRY HOLDINGS LLC DBA DEAN FOODS CO OF IN LLC,1700 N OLD US 31,ROCHESTER,FULTON,IN,46975,41.079389,-86.217528,2026,,,,,,311511,,,,,,1304202381164,NITRIC ACID,007697372,NO,NON-PBT,NO,0,NO,R,Pounds,0,0,0,0,0,0,0,0,0,0,0,0,0,0,0,0,0,0,0,0,0,0,0,0,0,0,0,0,0,0,0,0,0,0,0,0,0,0,0,0,0,0,0,0,0,0,0,0,0,0,0,0,0,0,0,0,0,0,0,0,20029,0,20029,0,1,DEAN FOODS CO,NA
2004,47802THWSTPRAIR,INTERNATIONAL PAPER CO.,2401 PRAIRIETON AVE,TERRE HAUTE,VIGO,IN,47802,39.441056,-87.428833,2631,,,,,,322130,,,,,,1304202313716,NITRATE COMPOUNDS,N511,NO,NON-PBT,NO,0,NO,R,Pounds,0,0,860,0,0,0,0,0,0,0,0,0,860,0,0,0,0,0,0,0,0,0,0,0,0,0,0,0,0,0,0,0,0,0,0,0,0,0,0,0,0,0,0,0,0,0,0,0,0,0,860,0,0,860,0,0,0,0,0,0,67000,0,67860,0,.98,INTERNATIONAL PAPER,001316561
2004,46563KRPLS1400P,OASIS LIFESTYLE LLC,1400 PIDCO DR,PLYMOUTH,MARSHALL,IN,46563,41.35156,-86.3213,3088,,,,,,326191,,,,,,1304202320709,STYRENE,000100425,YES,NON-PBT,NO,0,YES,R,Pounds,7340,66060,0,0,0,0,0,0,0,0,0,0,73400,0,0,0,0,0,0,0,0,0,0,0,0,0,0,0,0,0,0,0,0,0,0,0,0,0,0,0,0,0,0,0,0,0,0,0,0,0,73400,0,0,73400,0,0,0,0,0,0,0,0,73400,0,1.01,NA,NA
2004,46214CBLCP7950R,GENERAL CABLE INDUSTRIES INC,7950 ROCKVILLE RD,INDIANAPOLIS,MARION,IN,46214,39.76416,-86.302259,3087,,,,,,325991,,,,,,1304202418760,ANTIMONY COMPOUNDS,N010,YES,NON-PBT,YES,1,NO,R,Pounds,0,3,0,0,0,0,0,0,0,0,0,0,3,0,0,0,0,0,0,0,0,0,0,0,0,0,0,0,0,0,449,0,0,449,0,0,0,0,0,0,0,0,0,0,0,0,0,0,0,0,452,0,0,0,0,449,0,0,0,0,0,0,449,3,1.33,GENERAL CABLE CORP,793463209
2004,46214CBLCP7950R,GENERAL CABLE INDUSTRIES INC,7950 ROCKVILLE RD,INDIANAPOLIS,MARION,IN,46214,39.76416,-86.302259,3087,,,,,,325991,,,,,,1304202418796,POLYCYCLIC AROMATIC COMPOUNDS,N590,YES,PBT,NO,0,YES,R,Pounds,0,0,0,0,0,0,0,0,0,0,0,0,0,0,0,0,0,0,0,0,0,0,0,0,0,0,0,0,0,0,2,0,0,2,0,0,0,0,0,0,0,0,0,0,0,0,0,0,0,0,2,0,0,0,0,2,0,0,0,0,0,0,2,0,1.3,GENERAL CABLE CORP,793463209
2004,47710NSLNC1014U,UNISEAL INC,1014 UHLHORN ST,EVANSVILLE,VANDERBURGH,IN,47710,37.995191,-87.578324,3069,,,,,,326299,,,,,,1304202388409,ZINC COMPOUNDS,N982,NO,NON-PBT,YES,1,NO,R,Pounds,0,0,0,0,0,0,0,0,0,0,0,0,0,0,0,0,0,0,0,0,0,0,0,0,0,0,7561,0,0,0,0,0,0,7561,0,0,0,0,0,0,0,0,0,0,0,0,0,0,0,0,7561,0,0,0,7888,0,0,0,3011,0,0,0,10899,0,1.11,KOCH ENTERPRISES,627465214
2004,46350NWYRK171FA,NEW YORK BLOWER CO,171 FACTORY ST,LA PORTE,LA PORTE,IN,463502622,41.62032,-86.706669,3564,,,,,,333412,,,,,,1304202348049,NICKEL,007440020,YES,NON-PBT,YES,1,YES,R,Pounds,60,0,0,0,0,0,0,0,0,0,0,0,60,0,0,0,0,0,0,0,0,0,0,0,0,0,0,0,0,0,0,0,0,0,0,0,0,0,0,0,0,0,0,0,0,0,0,0,0,0,60,0,0,60,0,0,0,0,0,0,0,0,60,0,1,NA,NA
2004,47630LMNMCHIGHW,ALCOA INC - WARRICK OPERATIONS,HWYS 66 & 61,NEWBURGH,WARRICK,IN,476290010,37.915306,-87.331028,3334,4931,3353,,,,331312,,,,,,1304202373270,ARSENIC COMPOUNDS,N020,YES,NON-PBT,YES,1,NO,R,Pounds,.43,1492,0,0,0,0,0,0,38268,0,38268,0,39760.43,0,0,0,0,58,0,0,0,0,0,0,0,6148,0,0,0,0,0,1,0,6207,0,0,0,0,0,0,0,0,0,0,0,0,0,0,0,0,45967.43,0,0,39760,0,6207,0,0,0,0,0,0,45967,0,1.1,ALCOA INC,001339472
2004,46628SFTYK2217W,SAFETY-KLEEN SYSTEMS (508201),2217 WESTERN AVE,SOUTH BEND,ST JOSEPH,IN,46628,41.67215,-86.28134,7389,,,,,,562112,,,,,,1304202390237,POLYCYCLIC AROMATIC COMPOUNDS,N590,YES,PBT,NO,0,YES,R,Pounds,0,0,0,0,0,0,0,0,0,0,0,0,0,0,0,0,0,0,0,0,0,0,0,0,0,0,0,0,0,0,0,0,0,0,0,0,1635.1,0,0,1635.1,0,0,0,0,0,0,0,0,0,0,0,0,0,0,0,0,0,0,0,1635,0,0,1635,0,1.21,SAFETY-KLEEN HOLDCO INC,053976551
2004,47553CNTRYOLDST,LAND O' LAKES FARMLAND FEED,OLD STATE RD 50,LOOGOOTEE,MARTIN,IN,47553,38.669444,-86.930556,2048,,,,,,311000,,,,,,1304202390290,ZINC COMPOUNDS,N982,NO,NON-PBT,YES,1,NO,A,Pounds,0,0,0,0,0,0,0,0,0,0,0,0,0,0,0,0,0,0,0,0,0,0,0,0,0,0,0,0,0,0,0,0,0,0,0,0,0,0,0,0,0,0,0,0,0,0,0,0,0,0,0,0,0,0,0,0,0,0,0,0,0,0,0,0,,LAND O' LAKES INC,006253835
2004,46206LLSNT4700W,ALLISON TRANSMISSION INC,4700 W 10TH ST,INDIANAPOLIS,MARION,IN,46222,39.780155,-86.238955,3714,,,,,,336350,,,,,,1304202444422,LEAD COMPOUNDS,N420,YES,PBT,YES,1,NO,R,Pounds,0,0,0,0,0,0,0,0,0,0,0,0,0,0,0,0,0,0,0,0,0,0,0,0,0,0,0,0,43,0,11,0,0,54,0,0,0,0,0,0,0,0,0,0,0,0,0,0,0,0,54,0,0,0,0,54,0,0,0,0,0,0,54,11881,1.23,CARLYLE GROUP,NA
2004,46941THCLT700WM,BPB MANUFACTURING INC,1400 MAIN ST,LAGRO,WABASH,IN,46941,40.836556,-85.734444,3296,,,,,,327993,,,,,,1304202363444,CARBONYL SULFIDE,000463581,YES,NON-PBT,NO,0,NO,R,Pounds,0,49968,0,0,0,0,0,0,0,0,0,0,49968,0,0,0,0,0,0,0,0,0,0,0,0,0,0,0,0,0,0,0,0,0,0,0,0,0,0,0,0,0,0,0,0,0,0,0,0,0,49968,0,0,49968,0,0,0,0,0,0,0,0,49968,0,1.17,NA,NA
2004,47630LMNMCHIGHW,ALCOA INC - WARRICK OPERATIONS,HWYS 66 & 61,NEWBURGH,WARRICK,IN,476290010,37.915306,-87.331028,3334,4931,3353,,,,331312,,,,,,1304202373460,METHYL ISOBUTYL KETONE,000108101,YES,NON-PBT,NO,0,NO,R,Pounds,0,2191,0,0,0,0,0,0,0,0,0,0,2191,0,0,0,0,0,0,0,0,0,0,0,0,0,0,0,0,0,0,0,0,0,0,0,0,0,0,0,0,8018,8018,0,0,0,0,0,0,0,2191,0,0,2191,0,0,412041,8018,0,0,0,0,422250,0,1.1,ALCOA INC,001339472
2004,46952TLSFNFACTO,ATLAS FOUNDRY CO INC,601 N HENDERSON AVE,MARION,GRANT,IN,46952,40.565555,-85.682777,3321,,,,,,331511,,,,,,1304202402083,LEAD,007439921,YES,PBT,YES,1,YES,R,Pounds,0,.4,0,0,0,0,0,0,0,0,0,0,.4,0,0,0,0,0,0,0,0,0,0,0,0,0,21.2,0,0,0,.6,0,0,21.8,0,0,0,0,0,0,0,0,0,0,0,0,0,0,0,0,22.2,0,0,.4,21.2,.6,0,0,0,0,0,0,22.2,0,1.67,NA,NA
2004,46368NDNPC6600U,INDIANA PICKLING & PROCESSIN G CO,6650 NAUTICAL DR,PORTAGE,PORTER,IN,46368,41.6301,-87.1561,5051,,,,,,331000,,,,,,1304202424331,"HYDROCHLORIC ACID (1995 AND AFTER ""ACID AEROSOLS"" ONLY)",007647010,YES,NON-PBT,NO,0,NO,A,Pounds,0,0,0,0,0,0,0,0,0,0,0,0,0,0,0,0,0,0,0,0,0,0,0,0,0,0,0,0,0,0,0,0,0,0,0,0,0,0,0,0,0,0,0,0,0,0,0,0,0,0,0,0,0,0,0,0,0,0,0,0,0,0,0,0,,FERALLOY CORP,NA
2004,47802HYDRT1330L,HYDRITE CHEMICAL CO,1330 LOCKPORT RD,TERRE HAUTE,VIGO,IN,478023106,39.440833,-87.395278,2819,5169,,,,,424690,,,,,,1304202431096,LEAD COMPOUNDS,N420,YES,PBT,YES,1,NO,R,Pounds,0,0,0,0,0,0,0,0,0,0,0,0,0,10,0,10,0,0,0,0,0,0,0,0,0,0,0,0,0,0,0,0,0,0,0,0,0,0,0,0,0,0,0,0,0,0,0,0,0,0,10,0,0,0,0,10,0,0,0,0,0,0,10,0,1.85,HYDRITE CHEMICAL CO,006435887
2004,46176RYBDC800MA,RYOBI DIE CASTING (USA) INC,800 W MAUSOLEUM RD,SHELBYVILLE,SHELBY,IN,46176,39.539912,-85.802376,3363,,,,,,331521,,,,,,1304202444600,LEAD,007439921,YES,PBT,YES,1,YES,R,Pounds,0,90,0,0,0,0,0,0,0,0,0,0,90,2,0,2,0,0,0,0,0,0,0,0,0,0,884,0,0,0,0,0,0,884,0,10129,0,0,0,10129,0,0,0,0,0,0,0,0,0,0,976,0,0,90,884,2,0,0,194306,10129,0,0,205411,0,.91,RYOBI NA,197619992
2004,47591SSXGRESSEX,ESSEX GROUP INC,1299 E ESSEX RD,VINCENNES,KNOX,IN,47591,38.61234,-87.51063,3357,,,,,,331422,,,,,,1304202402297,CUMENE,000098828,YES,NON-PBT,NO,0,NO,R,Pounds,270,343,0,0,0,0,0,0,0,0,0,0,613,0,0,0,0,0,0,0,0,0,0,0,0,0,0,0,0,0,0,0,0,0,0,0,0,0,0,0,0,605,605,0,0,0,0,0,0,0,613,0,0,613,0,0,0,605,0,0,21543,0,22761,0,1.15,SUPERIOR ESSEX INC,153370077
2004,46619MGNRN1302W,IMAGINEERING ENTERPRISES INC,1302 W SAMPLE ST,SOUTH BEND,ST JOSEPH,IN,466193895,41.66491,-86.268706,3471,3479,2992,2899,,,332813,,,,,,1304202402347,CHROMIUM COMPOUNDS(EXCEPT CHROMITE ORE MINED IN THE TRANSVAAL REGION),N090,YES,NON-PBT,YES,1,NO,R,Pounds,0,0,0,0,0,0,0,0,0,0,0,0,0,8,0,8,0,1,0,0,0,0,0,0,0,0,0,0,0,0,0,0,0,1,0,0,0,0,0,0,0,0,0,0,0,0,0,0,0,0,9,0,0,0,8,1,0,0,0,0,0,0,9,0,1.05,NA,NA
2004,46323HMMND3100M,HAMMOND GROUP INC - HALSTAB DIV,3100 MICHIGAN ST,HAMMOND,LAKE,IN,46323,41.609969,-87.456397,2819,,,,,,325998,,,,,,1304202428203,BARIUM COMPOUNDS,N040,NO,NON-PBT,YES,3,NO,R,Pounds,1,1,0,0,0,0,0,0,0,0,0,0,2,1,0,1,0,0,0,0,0,0,0,0,0,0,0,0,0,0,0,0,0,0,0,0,0,0,0,0,0,0,0,0,0,0,0,0,0,0,3,0,0,2,0,1,0,0,0,0,0,0,3,0,.92,HAMMOND GROUP INC,005226790
2004,47331RTSDV900WM,ROOTS-DRESSER INC,900 W MOUNT ST,CONNERSVILLE,FAYETTE,IN,47331,39.64929,-85.14223,3564,,,,,,333412,,,,,,1304202573453,XYLENE (MIXED ISOMERS),001330207,YES,NON-PBT,NO,0,NO,R,Pounds,250,250,0,0,0,0,0,0,0,0,0,0,500,0,0,0,0,0,0,0,0,0,0,0,0,0,0,0,0,0,0,0,0,0,0,0,0,0,0,0,0,0,0,0,0,0,0,0,0,0,500,0,0,500,0,0,0,0,0,0,0,0,500,0,0,GENERAL ELECTRIC CO (GE CO),001367960
2004,46278PRCDS6022C,PRC-DESOTO INTERNATIONAL INC,6022 CORPORATE WAY,INDIANAPOLIS,MARION,IN,46278,39.873002,-86.265679,2891,,,,,,325520,,,,,,1304202433619,CYCLOHEXANE,000110827,NO,NON-PBT,NO,0,NO,R,Pounds,250,0,0,0,0,0,0,0,0,0,0,0,250,0,0,0,0,0,0,0,0,0,0,0,0,0,0,0,0,0,0,0,0,0,0,0,0,0,0,0,0,0,0,0,100,0,0,0,0,100,250,0,0,450,0,0,0,0,0,0,0,100,550,0,1.01,PPG INDUSTRIES INC,001344803
2004,46304BTHLHBURNS,ARCELORMITTAL BURNS HARBOR LLC,250 W  US HWY 12,BURNS HARBOR,PORTER,IN,463049745,41.642772,-87.065154,3312,,,,,,331111,,,,,,1304202491306,BIPHENYL,000092524,YES,NON-PBT,NO,0,NO,R,Pounds,2,0,0,0,0,0,0,0,0,0,0,0,2,0,0,0,0,0,0,0,0,0,0,0,0,0,0,0,0,0,0,0,0,0,0,0,0,0,0,0,0,0,0,0,0,0,0,0,0,0,2,0,0,2,0,0,0,0,0,0,0,0,2,0,1.06,ARCELORMITTAL USA INC,107970886
2004,46750GLPCH1890R,MERIDIAN AUTOMOTIVE SYSTEMS INC-HUNTINGTON FACILITY,1890 RIVERFORK DR,HUNTINGTON,HUNTINGTON,IN,46750,40.863446,-85.529392,3089,,,,,,326199,,,,,,1304202547461,DIISOCYANATES,N120,YES,NON-PBT,NO,0,NO,R,Pounds,0,0,0,0,0,0,0,0,0,0,0,0,0,0,0,0,0,0,0,0,0,0,0,0,0,0,0,0,0,0,0,0,0,0,0,0,0,0,0,0,0,0,0,0,3708,0,0,0,0,3708,0,0,0,0,0,0,0,0,0,0,0,3708,3708,0,1.2,NA,NA
2004,46071STLCP1217W,STALCOP LLC,1217 W MAIN ST,THORNTOWN,BOONE,IN,46071,40.1296,-86.620129,3499,3444,,,,,332999,,,,,,1304202443572,TRICHLOROETHYLENE,000079016,YES,NON-PBT,NO,0,YES,R,Pounds,20340,0,0,0,0,0,0,0,0,0,0,0,20340,0,0,0,0,0,0,0,0,0,0,0,0,0,0,0,0,0,0,0,0,0,16620,0,0,0,0,16620,0,0,0,0,0,0,0,0,0,0,20340,0,0,20340,0,0,0,0,0,16620,0,0,36960,0,1.03,NA,NA
2004,46803MTLPL2413M,METAL PLATE POLISHING INC,2413 MEYER RD,FORT WAYNE,ALLEN,IN,46803,41.0641,-85.0776,3471,,,,,,332813,,,,,,1304202523573,"SULFURIC ACID (1994 AND AFTER ""ACID AEROSOLS"" ONLY)",007664939,NO,NON-PBT,NO,0,NO,R,Pounds,0,0,0,0,0,0,0,0,0,0,0,0,0,0,0,0,0,0,0,0,0,0,0,0,0,0,0,0,0,0,0,0,0,0,0,0,0,0,0,0,0,0,0,0,0,0,0,0,0,0,0,0,0,0,0,0,0,0,0,0,0,0,0,0,0,METAL PLATE POLISHING INC,8070143
2004,46304BTHLHBURNS,ARCELORMITTAL BURNS HARBOR LLC,250 W  US HWY 12,BURNS HARBOR,PORTER,IN,463049745,41.642772,-87.065154,3312,,,,,,331111,,,,,,1304202491332,CHROMIUM COMPOUNDS(EXCEPT CHROMITE ORE MINED IN THE TRANSVAAL REGION),N090,YES,NON-PBT,YES,1,NO,R,Pounds,1200,110,510,4600,0,0,15000,0,0,0,0,0,21420,0,0,0,0,0,120,0,0,0,0,0,0,0,1400,95,0,0,0,0,0,1615,0,0,0,0,0,0,0,0,0,0,0,0,0,0,0,0,23035,0,20000,1800,1600,0,0,0,77000,0,0,0,100400,0,.99,ARCELORMITTAL USA INC,107970886
2004,46304BTHLHBURNS,ARCELORMITTAL BURNS HARBOR LLC,250 W  US HWY 12,BURNS HARBOR,PORTER,IN,463049745,41.642772,-87.065154,3312,,,,,,331111,,,,,,1304202491407,ETHYLENE,000074851,NO,NON-PBT,NO,0,NO,R,Pounds,4000,0,0,0,0,0,0,0,0,0,0,0,4000,0,0,0,0,0,0,0,0,0,0,0,0,0,0,0,0,0,0,0,0,0,0,0,0,0,0,0,0,0,0,0,0,0,0,0,0,0,4000,0,0,4000,0,0,0,0,0,0,0,0,4000,0,1.06,ARCELORMITTAL USA INC,107970886
2004,46304BTHLHBURNS,ARCELORMITTAL BURNS HARBOR LLC,250 W  US HWY 12,BURNS HARBOR,PORTER,IN,463049745,41.642772,-87.065154,3312,,,,,,331111,,,,,,1304202491472,POLYCYCLIC AROMATIC COMPOUNDS,N590,YES,PBT,NO,0,YES,R,Pounds,0,5,0,0,0,0,0,0,0,0,0,0,5,0,0,0,0,0,0,0,0,0,0,0,0,0,0,0,0,0,0,0,0,0,0,0,0,0,0,0,0,0,0,0,0,0,0,0,0,0,5,0,0,5,0,0,0,0,0,0,0,0,5,0,1.06,ARCELORMITTAL USA INC,107970886
2004,46225SPRRL400WR,SUPERIOR OIL CO INC,400 W REGENT ST,INDIANAPOLIS,MARION,IN,46225,39.737778,-86.164167,5169,,,,,,424690,,,,,,1304202455806,DIBUTYL PHTHALATE,000084742,YES,NON-PBT,NO,0,NO,A,Pounds,0,0,0,0,0,0,0,0,0,0,0,0,0,0,0,0,0,0,0,0,0,0,0,0,0,0,0,0,0,0,0,0,0,0,0,0,0,0,0,0,0,0,0,0,0,0,0,0,0,0,0,0,0,0,0,0,0,0,0,0,0,0,0,0,,SUPERIOR OIL CO INC,NA
2004,46225SPRRL400WR,SUPERIOR OIL CO INC,400 W REGENT ST,INDIANAPOLIS,MARION,IN,46225,39.737778,-86.164167,5169,,,,,,424690,,,,,,1304202455832,ETHYLBENZENE,000100414,YES,NON-PBT,NO,0,NO,R,Pounds,250,5,0,0,0,0,0,0,0,0,0,0,255,0,0,0,0,0,0,0,0,0,0,0,0,0,0,0,0,0,0,0,750,750,0,0,0,0,0,0,11771,0,11771,0,0,0,0,0,0,0,1005,0,0,41,0,15,0,11771,0,0,0,0,11827,0,.8,SUPERIOR OIL CO INC,NA
2004,46225SPRRL400WR,SUPERIOR OIL CO INC,400 W REGENT ST,INDIANAPOLIS,MARION,IN,46225,39.737778,-86.164167,5169,,,,,,424690,,,,,,1304202455844,ETHYLENE GLYCOL,000107211,YES,NON-PBT,NO,0,NO,A,Pounds,0,0,0,0,0,0,0,0,0,0,0,0,0,0,0,0,0,0,0,0,0,0,0,0,0,0,0,0,0,0,0,0,0,0,0,0,0,0,0,0,0,0,0,0,0,0,0,0,0,0,0,0,0,0,0,0,0,0,0,0,0,0,0,0,,SUPERIOR OIL CO INC,NA
2004,46225SPRRL400WR,SUPERIOR OIL CO INC,400 W REGENT ST,INDIANAPOLIS,MARION,IN,46225,39.737778,-86.164167,5169,,,,,,425120,,,,,,1304202455921,NAPHTHALENE,000091203,YES,NON-PBT,NO,0,NO,A,Pounds,0,0,0,0,0,0,0,0,0,0,0,0,0,0,0,0,0,0,0,0,0,0,0,0,0,0,0,0,0,0,0,0,0,0,0,0,0,0,0,0,0,0,0,0,0,0,0,0,0,0,0,0,0,0,0,0,0,0,0,0,0,0,0,0,,SUPERIOR OIL CO INC,NA
2004,47905NDSTR120N3,INDUSTRIAL PLATING INC,120 N 36TH ST,LAFAYETTE,TIPPECANOE,IN,47905,40.418808,-86.849949,3471,,,,,,332813,,,,,,1304202440285,ZINC COMPOUNDS,N982,NO,NON-PBT,YES,1,NO,R,Pounds,60,0,0,0,0,0,0,0,0,0,0,0,60,250,0,250,0,10201,0,0,0,0,0,0,0,0,0,0,0,0,0,0,0,10201,0,0,0,0,0,0,0,0,0,0,0,0,0,0,0,0,10511,0,0,60,10073,31,0,0,0,0,0,0,10164,0,.95,NA,NA
2004,46360VTMNS1700E,VITAMINS INC,1700 E US 12,MICHIGAN CITY,LA PORTE,IN,46360,41.72649,-86.87273,2041,,,,,,311223,,,,,,1304202520298,N-HEXANE,000110543,YES,NON-PBT,NO,0,NO,R,Pounds,19000,175000,0,0,0,0,0,0,0,0,0,0,194000,0,0,0,0,0,0,0,0,0,0,0,0,0,0,0,0,0,0,0,0,0,0,0,0,0,0,0,0,0,0,0,0,0,0,0,0,0,194000,0,0,194000,0,0,0,0,2300000,0,0,0,2494000,0,.96,NA,NA
2004,46947CPLYCSTATE,ESSROC CEMENT CORP,STATE RD 25 S 3084 W CR 225 S,LOGANSPORT,CASS,IN,46947,40.733167,-86.431806,3241,,,,,,327310,,,,,,1304202522052,ETHYLBENZENE,000100414,YES,NON-PBT,NO,0,NO,R,Pounds,57,43,0,0,0,0,0,0,0,0,0,0,100,0,0,0,0,0,0,0,0,0,0,0,0,0,0,0,0,0,0,0,0,0,0,0,0,0,0,0,0,1465,1465,0,0,0,0,0,0,0,100,0,0,100,0,0,2086668,1465,0,0,7,0,2088240,0,.85,ESSROC CEMENT CORP,002389625
2004,46947CPLYCSTATE,ESSROC CEMENT CORP,STATE RD 25 S 3084 W CR 225 S,LOGANSPORT,CASS,IN,46947,40.733167,-86.431806,3241,,,,,,327310,,,,,,1304202522140,DI(2-ETHYLHEXYL) PHTHALATE,000117817,YES,NON-PBT,NO,0,YES,R,Pounds,1,1,0,0,0,0,0,0,0,0,0,0,2,0,0,0,0,0,0,0,0,0,0,0,0,0,0,0,0,0,0,0,0,0,0,0,0,0,0,0,0,35,35,0,0,0,0,0,0,0,2,0,0,2,0,0,49436,35,0,0,0,0,49473,0,.85,ESSROC CEMENT CORP,002389625
2004,47130NTDTCPOBOX,ALTEC LLC,242 AMERICA PL,JEFFERSONVILLE,CLARK,IN,47130,38.294861,-85.733056,3354,,,,,,331316,,,,,,1304202461113,XYLENE (MIXED ISOMERS),001330207,YES,NON-PBT,NO,0,NO,R,Pounds,5700,13400,0,0,0,0,0,0,0,0,0,0,19100,0,0,0,0,0,0,0,0,0,0,0,0,0,0,0,0,0,0,0,0,0,0,0,0,0,0,0,0,23800,23800,0,0,0,0,0,0,0,19100,0,0,19100,0,0,0,23800,0,0,0,0,42900,0,.82,OHIO VALLEY ALUMINUM CORP,006364558
2004,46953THMSN3301S,THOMSON MULTIMEDIA INC.,3301 S ADAMS ST,MARION,GRANT,IN,46953,40.53019,-85.65857,3671,,,,,,334411,,,,,,1304202528788,HYDROGEN FLUORIDE,007664393,YES,NON-PBT,NO,0,NO,R,Pounds,5,245,0,0,0,0,0,0,0,0,0,0,250,0,250,250,0,0,0,0,0,0,0,0,0,0,0,0,0,0,0,0,0,0,0,0,0,0,0,0,0,0,0,0,0,0,0,0,0,0,250,0,0,245,0,0,0,0,0,0,113193,15,113453,0,.25,NA,NA
2004,46304BTHLHBURNS,ARCELORMITTAL BURNS HARBOR LLC,250 W  US HWY 12,BURNS HARBOR,PORTER,IN,463049745,41.642772,-87.065154,3312,,,,,,331111,,,,,,1304202491559,XYLENE (MIXED ISOMERS),001330207,YES,NON-PBT,NO,0,NO,R,Pounds,100,0,0,0,0,0,0,0,0,0,0,0,100,0,0,0,0,0,0,0,0,0,0,0,0,0,0,0,0,0,0,0,0,0,0,0,0,0,0,0,0,0,0,0,0,0,0,0,0,0,100,0,0,100,0,0,0,0,0,0,0,0,100,0,1.06,ARCELORMITTAL USA INC,107970886
2004,46225SPRRL400WR,SUPERIOR OIL CO INC,400 W REGENT ST,INDIANAPOLIS,MARION,IN,46225,39.737778,-86.164167,5169,,,,,,424690,,,,,,1304202455984,TRICHLOROETHYLENE,000079016,YES,NON-PBT,NO,0,YES,R,Pounds,560,114,0,0,0,0,0,0,0,0,0,0,674,0,0,0,0,0,0,0,0,0,0,0,0,0,0,0,0,0,0,0,755,755,0,0,0,0,0,0,8664,0,8664,0,0,0,0,0,0,0,1429,0,0,674,0,51,0,8664,0,0,0,0,9389,0,1,SUPERIOR OIL CO INC,NA
2004,46514LKHRT1302W,ELKHART BRASS MANUFACTURING CO  INC,1302 W BEARDSLEY AVE,ELKHART,ELKHART,IN,46514,41.69268,-85.993846,3341,,,,,,331314,,,,,,1304202527382,DIISOCYANATES,N120,YES,NON-PBT,NO,0,NO,A,Pounds,0,0,0,0,0,0,0,0,0,0,0,0,0,0,0,0,0,0,0,0,0,0,0,0,0,0,0,0,0,0,0,0,0,0,0,0,0,0,0,0,0,0,0,0,0,0,0,0,0,0,0,0,0,0,0,0,0,0,0,0,0,0,0,0,,NA,NA
2004,46755CLWLL231SO,COLWELL INC,231 S PROGRESS DR E,KENDALLVILLE,NOBLE,IN,46755,41.44087,-85.221482,2752,,,,,,323110,,,,,,1304202527420,TOLUENE,000108883,YES,NON-PBT,NO,0,NO,R,Pounds,2600,1300,0,0,0,0,0,0,0,0,0,0,3900,0,0,0,0,0,0,0,0,0,0,0,0,0,0,0,0,0,0,0,0,0,0,0,0,0,0,0,225000,0,225000,0,0,0,0,0,0,0,3900,0,0,3900,0,0,0,225000,0,0,0,0,228900,0,.47,COLWELL INDUSTRIES INC,006257414
2004,46947CPLYCSTATE,ESSROC CEMENT CORP,STATE RD 25 S 3084 W CR 225 S,LOGANSPORT,CASS,IN,46947,40.733167,-86.431806,3241,,,,,,327310,,,,,,1304202522215,"2,6-DINITROTOLUENE",000606202,NO,NON-PBT,NO,0,NO,R,Pounds,1,0,0,0,0,0,0,0,0,0,0,0,1,0,0,0,0,0,0,0,0,0,0,0,0,0,0,0,0,0,0,0,0,0,0,0,0,0,0,0,0,13,13,0,0,0,0,0,0,0,1,0,0,1,0,0,19381,13,0,0,0,0,19395,0,.85,ESSROC CEMENT CORP,002389625
2004,47331RCLMD1500W,SUPERIOR OIL CO INC RECLAIMED ENERGY DIV,1500 WESTERN AVE,CONNERSVILLE,FAYETTE,IN,47331,39.651732,-85.138841,7389,,,,,,562211,,,,,,1304202514030,N-BUTYL ALCOHOL,000071363,NO,NON-PBT,NO,0,NO,R,Pounds,5,250,0,0,0,0,0,0,0,0,0,0,255,0,0,0,0,0,0,0,0,0,0,0,0,0,0,0,0,0,0,0,0,0,0,0,0,0,0,0,33420,0,33420,0,0,0,0,0,0,0,255,0,0,27,0,0,0,33411,6000,0,23,0,39461,0,.95,SUPERIOR OIL CO INC,NA
2004,47331RCLMD1500W,SUPERIOR OIL CO INC RECLAIMED ENERGY DIV,1500 WESTERN AVE,CONNERSVILLE,FAYETTE,IN,47331,39.651732,-85.138841,7389,,,,,,562211,,,,,,1304202514105,TOLUENE,000108883,YES,NON-PBT,NO,0,NO,R,Pounds,750,750,0,0,0,0,0,0,0,0,0,0,1500,0,0,0,0,0,0,0,0,0,0,0,0,0,0,0,0,0,0,0,0,0,0,0,0,0,0,0,231665,0,231665,0,0,0,0,0,0,0,1500,0,0,544,0,0,0,231500,512210,0,148,0,744402,0,.95,SUPERIOR OIL CO INC,NA
2004,46947CPLYCSTATE,ESSROC CEMENT CORP,STATE RD 25 S 3084 W CR 225 S,LOGANSPORT,CASS,IN,46947,40.733167,-86.431806,3241,,,,,,327310,,,,,,1304202522254,"2,4-DINITROTOLUENE",000121142,YES,NON-PBT,NO,0,NO,R,Pounds,0,0,0,0,0,0,0,0,0,0,0,0,0,0,0,0,0,0,0,0,0,0,0,0,0,0,0,0,0,0,0,0,0,0,0,0,0,0,0,0,0,9,9,0,0,0,0,0,0,0,0,0,0,0,0,0,14953,9,0,0,0,0,14962,0,.85,ESSROC CEMENT CORP,002389625
2004,46947CPLYCSTATE,ESSROC CEMENT CORP,STATE RD 25 S 3084 W CR 225 S,LOGANSPORT,CASS,IN,46947,40.733167,-86.431806,3241,,,,,,327310,,,,,,1304202522316,VANADIUM COMPOUNDS,N770,NO,NON-PBT,YES,1,NO,R,Pounds,15,271,0,0,0,0,11335,0,0,0,0,0,11621,0,0,0,0,0,0,0,0,0,0,0,0,0,0,0,0,0,0,1,0,1,0,0,0,0,0,0,0,0,0,0,0,0,0,0,0,0,11622,0,11335,286,0,1,0,0,0,0,0,0,11622,0,.85,ESSROC CEMENT CORP,002389625
2004,46947CPLYCSTATE,ESSROC CEMENT CORP,STATE RD 25 S 3084 W CR 225 S,LOGANSPORT,CASS,IN,46947,40.733167,-86.431806,3241,,,,,,327310,,,,,,1304202522367,"HYDROCHLORIC ACID (1995 AND AFTER ""ACID AEROSOLS"" ONLY)",007647010,YES,NON-PBT,NO,0,NO,R,Pounds,0,130680,0,0,0,0,0,0,0,0,0,0,130680,0,0,0,0,0,0,0,0,0,0,0,0,0,0,0,0,0,0,0,0,0,0,0,0,0,0,0,0,0,0,0,0,0,0,0,0,0,130680,0,0,130680,0,0,0,0,0,0,0,0,130680,0,.85,ESSROC CEMENT CORP,002389625
2004,46755SSXGR800WM,ESSEX GROUP INC,800 W MITCHELL ST,KENDALLVILLE,NOBLE,IN,46755,41.44271,-85.27521,3357,,,,,,331422,,,,,,1304202520843,P-CRESOL,000106445,YES,NON-PBT,NO,0,NO,R,Pounds,742,576,0,0,0,0,0,0,0,0,0,0,1318,0,0,0,0,0,0,0,0,0,0,0,0,0,0,0,0,0,0,0,0,0,0,0,0,0,0,0,0,936,936,0,0,0,0,0,0,0,1318,0,0,1318,0,0,0,936,0,0,28238,0,30492,0,.9,SUPERIOR ESSEX INC,153370077
2004,47250CLFTY1335C,CLIFTY CREEK STATION,1335 CLIFTY HOLLOW RD,MADISON,JEFFERSON,IN,47250,38.740722,-85.4115,4911,,,,,,221112,,,,,,1304202449637,"HYDROCHLORIC ACID (1995 AND AFTER ""ACID AEROSOLS"" ONLY)",007647010,YES,NON-PBT,NO,0,NO,R,Pounds,0,2500000,0,0,0,0,0,0,0,0,0,0,2500000,0,0,0,0,0,0,0,0,0,0,0,0,0,0,0,0,0,0,0,0,0,0,0,0,0,0,0,0,0,0,0,0,0,0,0,0,0,2500000,0,0,2500000,0,0,0,0,0,0,0,0,2500000,0,1.15,OHIO VALLEY ELECTRIC CORP,007903925
2004,46394MCLC 2815I,BP PRODUCTS NORTH AMERICA WHITING,2815 INDIANAPOLIS BLVD,WHITING,LAKE,IN,46394,41.663034,-87.484057,5171,,,,,,424710,,,,,,1304202556573,BIPHENYL,000092524,YES,NON-PBT,NO,0,NO,R,Pounds,0,0,0,0,0,0,0,0,0,0,0,0,0,0,0,0,0,0,0,0,0,0,0,0,0,0,0,0,0,0,0,0,0,0,0,0,0,0,0,0,0,0,0,0,0,0,0,0,0,0,0,0,0,0,0,0,0,0,0,0,0,0,0,0,.99,BP PRODUCTS NORTH AMERICA INC,039596507
2004,46394MCLC 2815I,BP PRODUCTS NORTH AMERICA WHITING,2815 INDIANAPOLIS BLVD,WHITING,LAKE,IN,46394,41.663034,-87.484057,5171,,,,,,424710,,,,,,1304202556647,N-HEXANE,000110543,YES,NON-PBT,NO,0,NO,R,Pounds,0,29,0,0,0,0,0,0,0,0,0,0,29,0,0,0,0,0,0,0,0,0,0,0,0,0,0,0,0,0,0,0,0,0,0,0,0,0,0,0,0,0,0,0,0,0,0,0,0,0,29,0,0,29,0,0,0,0,0,0,2400,0,2429,0,.99,BP PRODUCTS NORTH AMERICA INC,039596507
2004,46803LRCHC1615E,BRENNTAG GREAT LAKES LLC,1615 ESTELLA AVE,FORT WAYNE,ALLEN,IN,46803,41.073056,-85.061111,5169,,,,,,424690,,,,,,1304202463663,NITRATE COMPOUNDS,N511,NO,NON-PBT,NO,0,NO,A,Pounds,0,0,0,0,0,0,0,0,0,0,0,0,0,0,0,0,0,0,0,0,0,0,0,0,0,0,0,0,0,0,0,0,0,0,0,0,0,0,0,0,0,0,0,0,0,0,0,0,0,0,0,0,0,0,0,0,0,0,0,0,0,0,0,0,,BRENNTAG NA INC,092963644
2004,46626MHWKL8401E,NCH CORP MOHAWK LABS DIV,7401 E 33RD ST,INDIANAPOLIS,MARION,IN,46226,39.81652,-86.02055,2842,,,,,,325612,,,,,,1304202463752,NAPHTHALENE,000091203,YES,NON-PBT,NO,0,NO,A,Pounds,0,0,0,0,0,0,0,0,0,0,0,0,0,0,0,0,0,0,0,0,0,0,0,0,0,0,0,0,0,0,0,0,0,0,0,0,0,0,0,0,0,0,0,0,0,0,0,0,0,0,0,0,0,0,0,0,0,0,0,0,0,0,0,0,,NCH CORP,008963910
2004,46350HWMTC1110E,HOWMET LAPORTE CASTINGS,1110 E LINCOLNWAY,LA PORTE,LA PORTE,IN,46350,41.621312,-86.69872,3369,,,,,,331528,,,,,,1304202509459,ALUMINUM (FUME OR DUST),007429905,NO,NON-PBT,YES,4,NO,R,Pounds,0,120,0,0,0,0,0,0,0,0,0,0,120,0,0,0,0,0,0,0,0,0,0,0,0,0,31800,0,0,0,0,0,0,31800,0,0,0,0,0,0,0,0,0,0,0,0,0,0,0,0,31920,0,0,120,31800,0,0,0,0,0,0,0,31920,0,1.49,ALCOA INC,001339472
2004,46016GNRLM2915P,GUIDE INDIANA LLC,"2915 MARTIN LUTHER KING, JR. BLVD",ANDERSON,MADISON,IN,46016,40.088008,-85.699019,3647,3714,,,,,336321,,,,,,1304202509586,ETHYLBENZENE,000100414,YES,NON-PBT,NO,0,NO,R,Pounds,250,22000,0,0,0,0,0,0,0,0,0,0,22250,0,0,0,0,0,0,0,0,0,0,0,0,0,0,0,0,0,0,0,0,0,0,0,0,0,0,0,250,0,250,0,0,0,0,0,0,0,22250,0,0,22000,0,0,0,490,0,0,0,0,22490,0,1,GUIDE CORP,007406031
2004,47834GRTDNUSHIG,GREAT DANE TRAILERS,2664 E US HWY 40,BRAZIL,CLAY,IN,47834,39.533639,-87.062639,3715,,,,,,336212,,,,,,1304202526380,DI(2-ETHYLHEXYL) PHTHALATE,000117817,YES,NON-PBT,NO,0,YES,R,Pounds,250,0,0,0,0,0,250,0,0,0,0,0,500,0,0,0,0,0,0,0,0,0,0,0,0,0,0,0,0,0,0,0,0,0,0,0,0,0,0,0,0,0,0,0,0,0,0,0,0,0,500,0,250,250,0,0,0,0,0,0,0,0,500,0,1.1,GREAT DANE LP,964822860
2004,46910KRNFN501MA,AKRON FOUNDRY,502 E MAIN ST,AKRON,FULTON,IN,46910,41.03522,-86.024109,3321,,,,,,331511,,,,,,1304202507873,MANGANESE,007439965,YES,NON-PBT,YES,1,NO,A,Pounds,0,0,0,0,0,0,0,0,0,0,0,0,0,0,0,0,0,0,0,0,0,0,0,0,0,0,0,0,0,0,0,0,0,0,0,0,0,0,0,0,0,0,0,0,0,0,0,0,0,0,0,0,0,0,0,0,0,0,0,0,0,0,0,0,,NA,NA
2004,47805HRCLSUS41N,APPLIED EXTRUSION TECHNOLOGIES INC,3600 E HEAD RD,TERRE HAUTE,VIGO,IN,47805,39.5419,-87.3161,3081,,,,,,326112,,,,,,1304202556825,DICHLOROMETHANE,000075092,YES,NON-PBT,NO,0,YES,A,Pounds,0,0,0,0,0,0,0,0,0,0,0,0,0,0,0,0,0,0,0,0,0,0,0,0,0,0,0,0,0,0,0,0,0,0,0,0,0,0,0,0,0,0,0,0,0,0,0,0,0,0,0,0,0,0,0,0,0,0,0,0,0,0,0,0,,APPLIED EXTRUSION TECHNOLOGIES,157701350
2004,47951CPTLP307WI,BON L MANUFACTURING CO,508 W WILSON ST,KENTLAND,NEWTON,IN,47951,40.770667,-87.463833,3354,3471,3446,,,,331316,,,,,,1304202509826,CERTAIN GLYCOL ETHERS,N230,YES,NON-PBT,NO,0,NO,R,Pounds,1800,17000,0,0,0,0,0,0,0,0,0,0,18800,0,0,0,0,0,0,0,0,0,0,0,0,0,0,0,0,0,0,0,250,250,0,0,0,0,0,0,0,6340,6340,0,0,0,0,0,0,0,19050,0,0,19000,0,38,0,6300,0,0,0,0,25338,0,1.03,TREDEGAR CORP,555463785
2004,47150BLGRS895IN,BLUE GRASS CHEMICAL SPECIALTIE S LLC,895 INDUSTRIAL BLVD,NEW ALBANY,FLOYD,IN,47150,38.336597,-85.827265,2819,2865,,,,,325188,,,,,,1304202489252,MANGANESE COMPOUNDS,N450,YES,NON-PBT,YES,1,NO,A,Pounds,0,0,0,0,0,0,0,0,0,0,0,0,0,0,0,0,0,0,0,0,0,0,0,0,0,0,0,0,0,0,0,0,0,0,0,0,0,0,0,0,0,0,0,0,0,0,0,0,0,0,0,0,0,0,0,0,0,0,0,0,0,0,0,0,,BLUE GRASS CHEMICAL SPECIALTIES LLC,NA
2004,46975TPPNDHWY25,TOPP INDUSTRIES INC,HWY 25 N,ROCHESTER,FULTON,IN,46975,41.01307,-86.24707,3089,,,,,,326199,,,,,,1304202489314,STYRENE,000100425,YES,NON-PBT,NO,0,YES,R,Pounds,0,37700,0,0,0,0,0,0,0,0,0,0,37700,0,0,0,0,0,0,0,0,0,0,0,0,0,0,0,0,0,0,0,0,0,0,0,0,0,0,0,152,1038,1190,0,0,0,0,0,0,0,37700,0,0,37700,0,0,0,1190,0,0,0,0,38890,0,1.42,NA,NA
2004,47586WPCFN9856S,THYSSENKRUPP WAUPACA - PLANT 5,9856 STATE HWY 66,TELL CITY,PERRY,IN,47586,37.982972,-86.768528,3321,,,,,,331511,,,,,,1304202514725,BENZENE,000071432,YES,NON-PBT,NO,0,YES,R,Pounds,750,47000,0,0,0,0,0,0,0,0,0,0,47750,0,0,0,0,0,0,0,0,0,0,0,0,0,250,0,0,0,0,0,0,250,0,0,0,0,0,0,0,0,0,0,0,0,0,0,0,0,48000,0,0,48000,260,0,0,0,0,0,18000,0,66260,0,1.09,THYSSENKRUPP,059441428
2004,46540CRSTH437NM,CREST HOMES - MIDDLEBURY,437 N MAIN ST,MIDDLEBURY,ELKHART,IN,46540,41.688046,-85.698466,2451,,,,,,321991,,,,,,1304202657565,DIISOCYANATES,N120,YES,NON-PBT,NO,0,NO,A,Pounds,0,0,0,0,0,0,0,0,0,0,0,0,0,0,0,0,0,0,0,0,0,0,0,0,0,0,0,0,0,0,0,0,0,0,0,0,0,0,0,0,0,0,0,0,0,0,0,0,0,0,0,0,0,0,0,0,0,0,0,0,0,0,0,0,,BERKSHIRE HATHAWAY,118119528
2004,47933HCNDS1604E,WHITESVILLE MILL SERVICE CO,RURAL RT 2  BOX 314,CRAWFORDSVILLE,MONTGOMERY,IN,47933,40.025,-86.89509,3295,,,,,,327999,,,,,,1304202578860,MANGANESE COMPOUNDS,N450,YES,NON-PBT,YES,1,NO,R,Pounds,250,0,0,0,0,0,0,0,0,0,0,0,250,0,0,0,0,0,0,0,0,0,0,0,0,0,0,0,0,0,0,0,0,0,0,0,0,0,0,0,0,0,0,0,0,0,0,0,0,0,250,0,0,215,0,0,0,0,0,0,0,0,215,0,1.88,EDW C LEVY CO,005354816
2004,46517LRMDW58288,TRUCK ACCESSORIES GROUP LLC (DBA LEER MIDWEST),58288 VENTURA DR,ELKHART,ELKHART,IN,46517,41.647693,-86.019114,3792,,,,,,336214,,,,,,1304202593683,XYLENE (MIXED ISOMERS),001330207,YES,NON-PBT,NO,0,NO,R,Pounds,257,29867,0,0,0,0,0,0,0,0,0,0,30124,0,0,0,0,0,0,0,0,0,0,0,0,0,0,0,0,0,0,0,0,0,0,0,0,0,0,0,1137,0,1137,0,0,0,0,0,0,0,30124,0,0,30124,0,0,0,1137,2473,0,0,0,33734,0,1.05,TRUCK ACCESSORIES GROUP INC,NA
2004,46725STLDY2601C,STEEL DYNAMICS INC STRUCTURA L & RAIL DIV,2601 COUNTY RD 700 E,COLUMBIA CITY,WHITLEY,IN,46725,41.124556,-85.356694,3312,,,,,,331111,,,,,,1304202593758,NICKEL COMPOUNDS,N495,YES,NON-PBT,YES,1,NO,R,Pounds,341,88,0,0,0,0,0,0,0,0,0,0,429,0,0,0,0,0,0,0,0,0,0,0,0,0,0,19050,0,0,0,0,0,19050,0,0,0,0,0,0,0,0,0,0,0,0,0,0,0,0,19479,0,0,429,19050,0,0,0,0,0,0,0,19479,0,1.35,STEEL DYNAMICS INC,NA
2004,46375MSNMT1049N,MASON CORP,1049 US HWY 41,SCHERERVILLE,LAKE,IN,46375,41.502849,-87.471116,2819,,,,,,325188,,,,,,1304202684736,AMMONIA,007664417,NO,NON-PBT,NO,0,NO,R,Pounds,0,0,0,0,0,0,0,0,0,0,0,0,0,0,6700,6700,0,0,0,0,0,0,0,0,0,0,0,0,0,0,0,0,0,0,0,0,304000,0,0,304000,0,0,0,0,0,0,0,0,0,0,0,0,0,0,0,0,0,0,0,304000,0,6700,310700,0,0,NA,NA
2004,47240BHNNGHIGHW,ADVANCED BEARING MATERIALS LLC,1515 W MAIN ST,GREENSBURG,DECATUR,IN,47240,39.336252,-85.507645,3714,,,,,,336312,,,,,,1304202691287,COPPER,007440508,NO,NON-PBT,YES,1,NO,R,Pounds,22,1059,0,0,0,0,0,0,0,0,0,0,1081,.1,0,.1,0,1123,0,0,0,0,0,0,0,0,0,0,0,0,0,0,0,1123,0,0,0,0,0,0,0,0,0,0,0,0,0,0,0,0,2204.1,0,0,1081,0,1256,0,0,825360,0,0,0,827697,0,.7,NA,NA
2004,46224SPDWY1304O,MARATHON PETROLEUM CO SPEEDWAY IN TERMINAL,1304 OLIN AVE,INDIANAPOLIS,MARION,IN,462223294,39.784551,-86.225451,5171,,,,,,424710,,,,,,1304202607317,ETHYLBENZENE,000100414,YES,NON-PBT,NO,0,NO,R,Pounds,51,169,0,0,0,0,0,0,0,0,0,0,220,0,0,0,0,0,0,0,0,0,0,0,0,0,0,0,0,0,0,0,0,0,0,0,0,0,0,0,0,0,0,0,0,0,0,0,0,0,220,0,0,219,0,0,0,0,36046,0,0,0,36265,0,1.05,MARATHON OIL CORP,002028801
2004,47201RVNCNWALES,AK TUBE LLC,150 W 450 S WALESBORO,COLUMBUS,BARTHOLOMEW,IN,47201,39.13501,-85.926565,3714,,,,,,336399,,,,,,1304202609069,NICKEL,007440020,YES,NON-PBT,YES,1,YES,R,Pounds,1,4,0,0,0,0,0,0,0,0,0,0,5,0,0,0,0,0,0,0,0,0,0,0,0,0,0,0,0,0,0,0,0,0,0,0,0,0,0,0,0,0,0,0,0,0,0,0,0,0,5,0,0,5,0,0,0,0,0,0,0,0,5,0,1.03,AK STEEL CORP,831100995
2004,46394MCCHM2357S,INEOS OLIGOMERS,2357 STANDARD AVE,WHITING,LAKE,IN,46394,41.671247,-87.475234,2821,,2869,,,,325998,,,,,,1304202632749,BENZENE,000071432,YES,NON-PBT,NO,0,YES,R,Pounds,0,1,0,0,0,0,0,0,0,0,0,0,1,0,0,0,0,0,0,0,0,0,0,0,0,0,1,0,0,0,0,0,0,1,0,0,0,0,0,0,0,0,0,0,0,0,0,0,0,0,2,0,0,1,1,0,0,0,0,0,0,0,2,0,1,INEOS USA LLC,623804809
2004,46394MCCHM2357S,INEOS OLIGOMERS,2357 STANDARD AVE,WHITING,LAKE,IN,46394,41.671247,-87.475234,2821,,2869,,,,325998,,,,,,1304202632903,PROPYLENE,000115071,NO,NON-PBT,NO,0,NO,R,Pounds,1,6300,0,0,0,0,0,0,0,0,0,0,6301,0,0,0,0,0,0,0,0,0,0,0,0,0,0,0,0,0,0,0,0,0,0,0,0,0,0,0,0,0,0,0,0,0,0,0,0,0,6301,0,0,6300,0,0,0,0,0,0,620000,0,626300,0,1,INEOS USA LLC,623804809
2004,46203CTZNS2950E,CITIZENS GAS & COKE UTILITY - MANUFACTURING DIVISIONS,2950 PROSPECT ST,INDIANAPOLIS,MARION,IN,46203,39.756139,-86.113278,4925,,,,,,333994,,,,,,1304202533600,ANTHRACENE,000120127,NO,NON-PBT,NO,0,NO,R,Pounds,78,0,1,0,0,0,0,0,0,0,0,0,79,0,0,0,0,0,0,0,0,0,0,0,0,0,3,0,0,0,0,0,0,3,0,0,0,0,0,0,0,0,0,0,133,0,0,0,0,133,82,0,0,79,3,0,0,0,21462,0,0,133,21677,0,.96,NA,NA
2004,46203CTZNS2950E,CITIZENS GAS & COKE UTILITY - MANUFACTURING DIVISIONS,2950 PROSPECT ST,INDIANAPOLIS,MARION,IN,46203,39.756139,-86.113278,4925,,,,,,333994,,,,,,1304202533663,ETHYLENE,000074851,NO,NON-PBT,NO,0,NO,R,Pounds,4600,464,0,0,0,0,0,0,0,0,0,0,5064,0,0,0,0,0,0,0,0,0,0,0,0,0,0,0,0,0,0,0,0,0,0,0,0,0,0,0,0,0,0,0,0,0,0,0,0,0,5064,0,0,5064,0,0,0,0,0,0,0,0,5064,0,.96,NA,NA
2004,46203CTZNS2950E,CITIZENS GAS & COKE UTILITY - MANUFACTURING DIVISIONS,2950 PROSPECT ST,INDIANAPOLIS,MARION,IN,46203,39.756139,-86.113278,4925,,,,,,333994,,,,,,1304202533725,NITRATE COMPOUNDS,N511,NO,NON-PBT,NO,0,NO,R,Pounds,0,0,805,0,0,0,0,0,0,0,0,0,805,0,60955,60955,0,0,0,0,0,0,0,0,0,0,0,0,0,0,0,0,0,0,0,0,0,0,0,0,0,0,0,0,0,0,0,0,0,0,805,0,0,805,0,0,0,0,0,0,0,60955,61760,0,.96,NA,NA
2004,46218MDSTT2100G,MID-STATE CHEMICAL & SUPPLY CO (DBA MS FLUID TECHNOLOGIES),2100 GREENBRIER LN,INDIANAPOLIS,MARION,IN,462183508,39.796245,-86.125497,5169,,,,,,424690,,,,,,1304202592364,DICHLOROMETHANE,000075092,YES,NON-PBT,NO,0,YES,A,Pounds,0,0,0,0,0,0,0,0,0,0,0,0,0,0,0,0,0,0,0,0,0,0,0,0,0,0,0,0,0,0,0,0,0,0,0,0,0,0,0,0,0,0,0,0,0,0,0,0,0,0,0,0,0,0,0,0,0,0,0,0,0,0,0,0,,NA,NA
2004,46218MDSTT2100G,MID-STATE CHEMICAL & SUPPLY CO (DBA MS FLUID TECHNOLOGIES),2100 GREENBRIER LN,INDIANAPOLIS,MARION,IN,462183508,39.796245,-86.125497,5169,,,,,,424690,,,,,,1304202592440,CERTAIN GLYCOL ETHERS,N230,YES,NON-PBT,NO,0,NO,A,Pounds,0,0,0,0,0,0,0,0,0,0,0,0,0,0,0,0,0,0,0,0,0,0,0,0,0,0,0,0,0,0,0,0,0,0,0,0,0,0,0,0,0,0,0,0,0,0,0,0,0,0,0,0,0,0,0,0,0,0,0,0,0,0,0,0,,NA,NA
2004,47904TRWNC800HE,TRW COMMERCIAL STEERING,800 HEATH ST,LAFAYETTE,TIPPECANOE,IN,47904,40.42884,-86.88831,3714,,,,,,336330,,,,,,1304202619589,ETHYLENE GLYCOL,000107211,YES,NON-PBT,NO,0,NO,R,Pounds,250,0,0,0,0,0,0,0,0,0,0,0,250,0,0,0,0,0,0,0,0,0,0,0,0,0,0,0,0,0,0,0,0,0,0,0,0,0,0,0,3800,0,3800,0,0,0,0,0,0,0,250,0,0,40,0,0,0,3800,0,0,0,0,3840,0,1.52,TRW AUTOMOTIVE (US) LLC,004179453
2004,46203CTZNS2950E,CITIZENS GAS & COKE UTILITY - MANUFACTURING DIVISIONS,2950 PROSPECT ST,INDIANAPOLIS,MARION,IN,46203,39.756139,-86.113278,4925,,,,,,333994,,,,,,1304202533826,MERCURY COMPOUNDS,N458,YES,PBT,YES,1,NO,R,Pounds,0,.06,0,0,0,0,0,0,0,0,0,0,.06,.22,0,.22,0,0,0,0,0,0,0,0,0,0,0,0,0,0,0,0,0,0,0,0,0,0,0,0,0,0,0,0,0,0,0,0,0,0,.28,0,0,.06,0,.22,0,0,0,0,0,0,.28,0,.96,NA,NA
2004,46514PNTSS53894,ACCESSA COATINGS SOLUTIONS FORMERLY PAINTS & SOLVENTS,25943 FOREST HILL AVE,ELKHART,ELKHART,IN,46514,41.7111,-85.9655,2851,,,,,,325510,,,,,,1304202597821,"1,2,4-TRIMETHYLBENZENE",000095636,NO,NON-PBT,NO,0,NO,R,Pounds,5,5,0,0,0,0,0,0,0,0,0,0,10,0,0,0,0,0,0,0,0,0,0,0,0,0,0,0,0,0,0,0,0,0,0,0,0,0,0,0,999,0,999,0,0,0,0,0,0,0,10,0,0,10,0,0,0,999,0,0,0,0,1009,0,.96,COATINGS SOLUTIONS LLC,101186745
2004,46902HYNSN1020W,HAYNES INTERNATIONAL INC,2000 W DEFENBAUGH,KOKOMO,HOWARD,IN,46902,40.46901,-86.159721,3356,,,,,,331491,,,,,,1304202599332,COBALT,007440484,YES,NON-PBT,YES,1,YES,R,Pounds,28,2770,21,0,0,0,0,0,0,0,0,0,2819,5,0,5,0,20,0,0,0,0,0,0,0,0,0,21,0,0,0,0,0,41,0,59568,0,0,0,59568,0,0,0,0,0,0,0,0,0,0,2865,0,0,2819,21,26,0,0,0,59568,0,0,62434,0,1.39,HAYNES INTERNATIONAL INC,NA
2004,47620BBCCK1400O,BWX TECHNOLOGIES INC NED,1400 OLD HWY 69 S,MOUNT VERNON,POSEY,IN,47620,37.912722,-87.921861,3443,,,,,,333613,,,,,,1304202537395,NICKEL,007440020,YES,NON-PBT,YES,1,YES,R,Pounds,44,0,0,0,0,0,0,0,0,0,0,0,44,0,0,0,0,0,0,0,0,0,0,0,0,0,0,0,0,0,0,0,0,0,0,0,0,0,0,0,0,0,0,0,0,0,0,0,0,0,44,0,0,44,0,0,0,0,0,0,0,0,44,0,1.28,MCDERMOTT INTERNATIONAL INC,047758503
2004,46544SCTTB700SO,SCOTT BRASS INC,700 S UNION ST,MISHAWAKA,ST JOSEPH,IN,46544,41.65505,-86.1769,3351,,3356,,,,331421,,,,,,1304202628335,COPPER,007440508,NO,NON-PBT,YES,1,NO,R,Pounds,0,0,0,0,0,0,0,0,0,0,0,0,0,5,0,5,0,0,0,0,0,0,0,0,0,0,0,0,250,0,0,0,0,250,0,0,0,0,0,0,0,0,0,0,0,0,0,0,0,0,255,0,0,0,5,255,0,0,0,0,0,0,260,0,.9,SCOTT BRASS HOLDINGS INC,794108451
2004,46360WLMCLBLAIN,WEIL-MCLAIN,500 BLAINE ST,MICHIGAN CITY,LA PORTE,IN,463602388,41.72427,-86.88869,3321,,,,,,331511,,,,,,1304202623207,PHENOL,000108952,YES,NON-PBT,NO,0,NO,R,Pounds,45,413,5,0,0,0,0,0,0,0,0,0,463,0,0,0,0,0,0,0,0,0,0,0,0,0,12,0,0,0,0,0,0,12,0,0,1,0,0,1,0,0,0,0,0,0,0,0,0,0,475,0,0,458,12,0,0,0,61,1,104,0,636,0,1.16,SPX CORP,006024129
2004,46506BLLRD1711W,PRINCE AGRI PRODUCTS INC,1711 W DEWEY,BREMEN,MARSHALL,IN,46506,41.45055,-86.168486,2048,,,,,,311119,,,,,,1304202581688,ZINC COMPOUNDS,N982,NO,NON-PBT,YES,1,NO,R,Pounds,0,0,0,0,0,0,0,0,0,0,0,0,0,0,0,0,0,0,0,0,0,0,0,0,0,0,0,0,0,0,0,0,0,0,0,0,0,0,0,0,0,0,0,0,0,0,0,0,0,0,0,0,0,0,0,0,0,0,0,0,0,0,0,0,.79,PHIBRO ANIMAL HEALTH CORP,006989008
2004,46706GRDNN1900S,GUARDIAN AUTOMOTIVE PRODUCTS INC,1900 S CENTER ST,AUBURN,DEKALB,IN,46706,41.35253,-85.04976,3231,,,,,,327215,,,,,,1304202542852,DIISOCYANATES,N120,YES,NON-PBT,NO,0,NO,R,Pounds,0,0,0,0,0,0,0,0,0,0,0,0,0,0,0,0,0,0,0,0,0,0,0,0,0,0,0,0,0,0,0,0,0,0,0,0,0,0,0,0,2270,0,2270,0,0,0,0,0,0,0,0,0,0,0,0,0,0,2270,0,0,0,0,2270,0,97.4,GUARDIAN INDUSTRIES,017711859
2004,46394MCLC 2815I,BP PRODUCTS NORTH AMERICA WHITING,2815 INDIANAPOLIS BLVD,WHITING,LAKE,IN,46394,41.663034,-87.484057,2911,2992,2951,,,,324110,,,,,,1304202631887,ETHYLBENZENE,000100414,YES,NON-PBT,NO,0,NO,R,Pounds,940,270,42,0,0,0,0,0,0,0,0,0,1252,0,0,0,0,0,0,0,0,0,0,0,0,0,.22,74,0,0,0,0,0,74.22,0,0,0,0,0,0,0,0,0,0,2400,0,0,21,0,2421,1326.22,0,0,1300,75,0,0,0,0,0,690000,2400,693775,0,1.02,BP PRODUCTS NORTH AMERICA INC,039596507
2004,47711RDSPT96610,RED SPOT PAINT & VARNISH CO INC,1016 E COLUMBIA ST,EVANSVILLE,VANDERBURGH,IN,47711,37.984756,-87.547343,2851,,,,,,325510,,,,,,1304202635254,SEC-BUTYL ALCOHOL,000078922,NO,NON-PBT,NO,0,NO,R,Pounds,2046,792,0,0,0,0,0,0,0,0,0,0,2838,0,0,0,0,0,0,0,0,0,0,0,0,0,0,0,0,0,0,0,0,0,0,0,0,0,0,0,21332,0,21332,0,0,0,0,0,0,0,2838,0,0,2838,0,0,0,21331,0,0,0,0,24169,0,.9,RED SPOT PAINT & VARNISH CO INC,006369987
2004,46530PPRTS13065,FAURECIA EXHAUST SYSTEMS INC GRANGER FACILITY,13065 ANDERSON RD,GRANGER,ST JOSEPH,IN,46530,41.742763,-86.121262,3714,,,,,,336399,,,,,,1304202584696,CHROMIUM,007440473,YES,NON-PBT,YES,1,YES,R,Pounds,250,250,0,0,0,0,0,0,0,0,0,0,500,0,0,0,0,0,0,0,0,0,0,0,0,0,0,0,0,0,0,0,0,0,0,255,0,0,0,255,0,0,0,0,0,0,0,0,0,0,500,0,0,119,0,0,0,0,0,189,0,0,308,0,1.1,FAURECIA EXHAUST SYSTEMS INC,023006286
2004,47903SBRSZ5500S,SUBARU OF INDIANA AUTOMOTIVE INC,5500 STATE RD 38E,LAFAYETTE,TIPPECANOE,IN,47905,40.374422,-86.799138,3711,,,,,,336111,,,,,,1304202609867,CYCLOHEXANE,000110827,NO,NON-PBT,NO,0,NO,R,Pounds,210,21100,0,0,0,0,0,0,0,0,0,0,21310,0,5,5,0,0,0,0,0,0,0,0,0,0,0,0,0,0,0,0,0,0,0,0,0,0,0,0,0,0,0,0,17,0,0,0,0,17,21310,0,0,21300,0,5,0,0,0,0,5500,17,26822,0,.97,FUJI HEAVY INDUSTRIES LTD,NA
2004,47903SBRSZ5500S,SUBARU OF INDIANA AUTOMOTIVE INC,5500 STATE RD 38E,LAFAYETTE,TIPPECANOE,IN,47905,40.374422,-86.799138,3711,,,,,,336111,,,,,,1304202609893,MANGANESE COMPOUNDS,N450,YES,NON-PBT,YES,1,NO,A,Pounds,0,0,0,0,0,0,0,0,0,0,0,0,0,0,0,0,0,0,0,0,0,0,0,0,0,0,0,0,0,0,0,0,0,0,0,0,0,0,0,0,0,0,0,0,0,0,0,0,0,0,0,0,0,0,0,0,0,0,0,0,0,0,0,0,,FUJI HEAVY INDUSTRIES LTD,NA
2004,47670TYTMT4000T,TOYOTA MOTOR MANUFACTURING INDIANA INC,4000 TULIP TREE DR,PRINCETON,GIBSON,IN,476704000,38.2927,-87.5645,3711,,,,,,336112,,,,,,1304202618587,BENZENE,000071432,YES,NON-PBT,NO,0,YES,R,Pounds,8,6,0,0,0,0,0,0,0,0,0,0,14,0,0,0,0,0,0,0,0,0,0,0,0,0,0,0,0,0,0,0,0,0,0,0,0,0,0,0,0,0,0,0,59,0,0,0,0,59,14,0,0,14,0,0,0,0,0,0,51,59,124,0,1.35,TOYOTA INDUSTRIES NA,NA
2004,46725FRTWYRTE7C,FORT WAYNE FOUNDRY COLUMBIA CITY DIV,2300 CARDINAL DR,COLUMBIA CITY,WHITLEY,IN,46725,41.14175,-85.447,3365,,,,,,331524,,,,,,1304202530945,LEAD,007439921,YES,PBT,YES,1,YES,R,Pounds,26,26,.69,0,0,0,0,0,0,0,0,0,52.69,0,0,0,0,0,0,0,0,0,0,0,0,0,103,0,0,0,0,0,0,103,0,15026,12,0,0,15038,0,0,0,0,0,0,0,0,0,0,155.69,0,0,52,103,0,0,0,127730,15038,0,0,142923,0,.75,COLE PATTERN & ENGINEERING,002987196
2004,46803FRTWY2509E,FORT WAYNE FOUNDRY PONTIAC DIV.,2509 E PONTIAC ST,FORT WAYNE,ALLEN,IN,46803,41.06125,-85.105127,3365,,,,,,331524,,,,,,1304202531024,LEAD,007439921,YES,PBT,YES,1,YES,R,Pounds,19,19,0,0,0,0,0,0,0,0,0,0,38,0,0,0,0,0,0,0,0,0,0,0,0,0,13,0,0,0,0,0,0,13,0,11095,46,0,0,11141,0,0,0,0,0,0,0,0,0,0,51,0,0,38,13,0,0,0,95595,11141,0,0,106787,0,.7,COLE PATTERN & ENGINEERING,002987196
2004,46394MCLC 2815I,BP PRODUCTS NORTH AMERICA WHITING,2815 INDIANAPOLIS BLVD,WHITING,LAKE,IN,46394,41.663034,-87.484057,2911,2992,2951,,,,324110,,,,,,1304202632067,CHROMIUM COMPOUNDS(EXCEPT CHROMITE ORE MINED IN THE TRANSVAAL REGION),N090,YES,NON-PBT,YES,1,NO,R,Pounds,72,88,410,0,0,0,0,0,0,0,0,0,570,0,0,0,0,0,0,0,0,0,0,0,0,0,2000,100.53,0,0,156.106,0,11,2267.636,0,0,0,0,0,0,0,0,0,0,0,0,0,0,0,0,2837.636,0,0,570,2200,11,0,0,0,0,0,0,2781,0,1.02,BP PRODUCTS NORTH AMERICA INC,039596507
2004,47744GRGKC10SEL,GEORGE KOCH SONS LLC,10 S ELEVENTH AVE,EVANSVILLE,VANDERBURGH,IN,47744,37.977946,-87.596651,3569,,,,,,333999,,,,,,1304202554945,CHROMIUM,007440473,YES,NON-PBT,YES,1,YES,R,Pounds,44,0,0,0,0,0,0,0,0,0,0,0,44,0,0,0,0,0,0,0,0,0,0,0,0,0,0,0,0,0,0,0,0,0,0,0,0,0,27773,27773,0,0,0,0,0,0,0,0,0,0,44,0,0,44,0,0,0,0,0,27773,0,0,27817,0,1,GEORGE KOCH & SONS,NA
2004,47331CPNC SOUTH,C P INC,196 S WATER,CONNERSVILLE,FAYETTE,IN,47331,39.637555,-85.139255,2851,,,,,,325510,,,,,,1304202605073,XYLENE (MIXED ISOMERS),001330207,YES,NON-PBT,NO,0,NO,R,Pounds,250,5,0,0,0,0,0,0,0,0,0,0,255,0,0,0,0,0,0,0,0,0,0,0,0,0,0,0,0,0,0,0,0,0,750,0,0,0,0,750,250,0,250,0,0,0,0,0,0,0,255,0,0,80,0,0,0,96,0,740,0,0,916,0,.95,NA,NA
2004,47303MNCNT2100E,MARATHON PETROLEUM CO MUNCIE IN TERMINAL,2100 E STATE RD 28,MUNCIE,DELAWARE,IN,473039667,40.277222,-85.362083,5171,,,,,,424710,,,,,,1304202605212,"1,2,4-TRIMETHYLBENZENE",000095636,NO,NON-PBT,NO,0,NO,R,Pounds,17,41,0,0,0,0,0,0,0,0,0,0,58,0,0,0,0,0,0,0,0,0,0,0,0,0,0,0,0,0,0,0,0,0,0,0,0,0,0,0,0,0,0,0,0,0,0,0,0,0,58,0,0,58,0,0,0,0,36686,0,0,0,36744,0,.92,MARATHON OIL CORP,002028801
2004,47670TYTMT4000T,TOYOTA MOTOR MANUFACTURING INDIANA INC,4000 TULIP TREE DR,PRINCETON,GIBSON,IN,476704000,38.2927,-87.5645,3711,,,,,,336112,,,,,,1304202618652,ETHYLENE GLYCOL,000107211,YES,NON-PBT,NO,0,NO,R,Pounds,25,0,0,0,0,0,0,0,0,0,0,0,25,0,0,0,0,0,0,0,0,0,0,0,0,0,0,0,0,0,0,0,0,0,0,0,0,0,0,0,0,0,0,0,1590,0,0,0,0,1590,25,0,0,25,0,0,0,0,0,0,0,1590,1615,0,1.35,TOYOTA INDUSTRIES NA,NA
2004,47670TYTMT4000T,TOYOTA MOTOR MANUFACTURING INDIANA INC,4000 TULIP TREE DR,PRINCETON,GIBSON,IN,476704000,38.2927,-87.5645,3711,,,,,,336112,,,,,,1304202618753,NITRIC ACID,007697372,NO,NON-PBT,NO,0,NO,R,Pounds,0,0,0,0,0,0,0,0,0,0,0,0,0,0,0,0,0,0,0,0,0,0,0,0,0,0,0,0,0,0,0,0,0,0,0,0,0,0,0,0,0,0,0,0,0,0,0,0,0,0,0,0,0,0,0,0,0,0,0,0,90329,0,90329,0,1.35,TOYOTA INDUSTRIES NA,NA
2004,47905GYPTN555SA,WORWAG COATINGS LLC NA,3420 KOSSUTH ST,LAFAYETTE,TIPPECANOE,IN,47905,40.411705,-86.857783,2851,,,,,,325510,,,,,,1304202660914,"1,2,4-TRICHLOROBENZENE",000120821,YES,NON-PBT,NO,0,NO,R,Pounds,750,750,0,0,0,0,0,0,0,0,0,0,1500,0,0,0,0,0,0,0,0,0,0,0,0,0,0,0,0,0,0,0,0,0,3600,0,0,0,0,3600,0,0,0,0,0,0,0,0,0,0,1500,0,0,1500,0,0,0,0,0,3600,0,0,5100,0,1,KARL WOERWAG PMBH KARL WOERWAG PMBH INDUSTRIA,NA
2004,46725DWCLV2374S,COLUMBIA CITY MILL SERVICES,2374 S COUNTY RD 800E,COLUMBIA CITY,WHITLEY,IN,46725,41.17083,-85.47944,3295,,,,,,327999,,,,,,1304202578682,MANGANESE COMPOUNDS,N450,YES,NON-PBT,YES,1,NO,R,Pounds,250,0,0,0,0,0,0,0,0,0,0,0,250,0,0,0,0,0,0,0,0,0,0,0,0,0,0,0,0,0,0,0,0,0,0,0,0,0,0,0,0,0,0,0,0,0,0,0,0,0,250,0,0,208,0,0,0,0,0,0,0,0,208,0,1.3,EDW C LEVY CO,005354816
2004,46320MRCNM1100I,CARGILL TEXTURIZING SOLUTIONS,1100 INDIANAPOLIS BLVD,HAMMOND,LAKE,IN,46320,41.694444,-87.515833,2046,,,,,,311221,,,,,,1304202753404,PROPYLENE OXIDE,000075569,YES,NON-PBT,NO,0,YES,R,Pounds,5371.17,311.13,0,0,0,0,0,0,0,0,0,0,5682.3,0,0,0,0,0,0,0,0,0,0,0,0,0,0,0,0,0,0,0,0,0,0,0,0,0,0,0,0,0,0,0,0,0,0,0,0,0,5682.3,0,0,5682.31,0,0,0,0,0,0,0,0,5682.31,0,1.3,CARGILL INC,006249189
2004,47620NDNFR1200R,COUNTRYMARK REFINERY,1200 REFINERY RD,MOUNT VERNON,POSEY,IN,47620,37.925417,-87.904972,2911,,,,,,324110,,,,,,1304202777583,AMMONIA,007664417,NO,NON-PBT,NO,0,NO,R,Pounds,0,43782,633,0,0,0,0,0,0,0,0,0,44415,0,0,0,0,0,0,0,0,0,0,0,0,0,0,0,0,0,0,0,0,0,0,0,0,0,0,0,0,0,0,0,0,0,0,0,0,0,44415,0,0,44415,0,0,0,0,0,0,12031,0,56446,0,.96,COUNTRYMARK,NA
2004,47348M    0304S,3M CO - HARTFORD CITY,0304S   075E,HARTFORD CITY,BLACKFORD,IN,473481536,40.450051,-85.355891,2672,,,,,,322222,,,,,,1304202737843,ZINC COMPOUNDS,N982,NO,NON-PBT,YES,1,NO,R,Pounds,10,0,0,0,0,0,0,0,0,0,0,0,10,0,0,0,0,0,0,0,0,0,0,0,0,0,0,0,0,0,0,1890,0,1890,0,60,0,0,0,60,0,0,0,0,0,0,0,0,0,0,1900,0,0,10,0,1900,0,0,0,60,0,0,1970,0,.91,3M CO,006173082
2004,46256CRWNT7513E,CROWN TECHNOLOGY,7513 E 96TH ST,INDIANAPOLIS,MARION,IN,46256,39.927,-86.036358,2819,,,,,,325188,,,,,,1304202788966,BENZYL CHLORIDE,000100447,YES,NON-PBT,NO,0,NO,A,Pounds,0,0,0,0,0,0,0,0,0,0,0,0,0,0,0,0,0,0,0,0,0,0,0,0,0,0,0,0,0,0,0,0,0,0,0,0,0,0,0,0,0,0,0,0,0,0,0,0,0,0,0,0,0,0,0,0,0,0,0,0,0,0,0,0,,NA,NA
2004,46706TWRTM801W1,TOWER AUTOMOTIVE PRODUCTS INC,801 W 15TH ST,AUBURN,DEKALB,IN,46706,41.359694,-85.068306,3714,,,,,,336370,,,,,,1304202789020,ZINC COMPOUNDS,N982,NO,NON-PBT,YES,1,NO,R,Pounds,0,0,0,0,0,0,0,0,0,0,0,0,0,0,0,0,0,0,0,0,0,0,0,0,0,0,0,0,0,0,0,0,0,0,0,0,0,0,430235,430235,0,0,0,0,0,0,0,0,0,0,0,0,0,0,0,0,0,0,0,430235,0,0,430235,0,.95,RJ TOWER CORP,006407126
2004,46526LPPRT16840,LIPPERT COMPONENTS INC PLANTS 19 26 30,16840 SKYVIEW DR,GOSHEN,ELKHART,IN,46526,41.543523,-85.782785,3441,,,,,,333000,,,,,,1304202789917,CERTAIN GLYCOL ETHERS,N230,YES,NON-PBT,NO,0,NO,R,Pounds,0,15320,0,0,0,0,0,0,0,0,0,0,15320,0,0,0,0,0,0,0,0,0,0,0,0,0,0,0,0,0,0,0,0,0,0,0,0,0,0,0,0,0,0,0,0,0,0,0,0,0,15320,0,0,15320,0,0,0,0,0,0,0,0,15320,0,1.23,LIPPERT COMPONONENTS INC,043222470
2004,46345CRDNLFIRST,ALEXANDER CHEMICAL CORP,FIRST RD KINGSBURY INDUSTRIAL PARK,KINGSBURY,LA PORTE,IN,46345,41.49864,-86.66669,5169,,,,,,424690,,,,,,1304202698369,CHLOROMETHANE,000074873,YES,NON-PBT,NO,0,NO,R,Pounds,5,0,0,0,0,0,0,0,0,0,0,0,5,0,0,0,0,0,0,0,0,0,0,0,0,0,0,0,0,0,0,0,0,0,0,0,0,0,0,0,0,0,0,0,0,0,0,0,0,0,5,0,0,10,0,0,0,0,0,0,0,0,10,0,0,ALEXANDER CHEMICAL CORP,103180402
2004,46705PRKRH1PARK,PARKER HANNIFIN CORP CYLINDER DIV ASHLEY IN,201 PARKER DR,ASHLEY,DEKALB,IN,46705,41.527103,-85.07505,3499,,,,,,332999,,,,,,1304202701645,LEAD COMPOUNDS,N420,YES,PBT,YES,1,NO,R,Pounds,0,922,0,0,0,0,0,0,0,0,0,0,922,0,0,0,0,0,0,0,0,0,0,0,0,0,0,0,0,0,0,0,0,0,0,0,1800,0,0,1800,0,0,0,0,0,0,0,0,0,0,922,0,0,0,0,0,0,0,0,1792,0,0,1792,922,0,PARKER HANNIFIN CORP,NA
2004,46350TLDYN300PH,CASTING SERVICE,300 PHILADELPHIA ST,LA PORTE,LA PORTE,IN,46350,41.61759,-86.70317,3321,,,,,,331511,,,,,,1304202746677,PHENOL,000108952,YES,NON-PBT,NO,0,NO,R,Pounds,228,0,0,0,0,0,0,0,0,0,0,0,228,0,0,0,0,0,0,0,0,0,0,0,0,0,576,0,0,0,0,0,0,576,0,0,0,0,0,0,0,0,0,0,0,0,0,0,0,0,804,0,0,228,577,0,0,0,0,0,0,0,805,0,1.14,NA,NA
2004,47001RRCSKUS50W,AURORA CASKET CO INC,10944 MARSH RD,AURORA,DEARBORN,IN,47001,39.033139,-84.966111,3995,,,,,,339995,,,,,,1304202749800,TOLUENE,000108883,YES,NON-PBT,NO,0,NO,R,Pounds,0,105703.36,0,0,0,0,0,0,0,0,0,0,105703.36,0,0,0,0,0,0,0,0,0,0,0,0,0,0,0,0,0,0,0,0,0,1640.73,0,0,0,0,1640.73,0,0,0,0,0,0,0,0,0,0,105703.36,0,0,105703.36,0,0,0,0,0,1640.73,0,0,107344.09,0,.96,AURORA CASKET CO,NA
2004,47842LLLLYSTATE,CLINTON LABORATORIES,10500 S STATE RD 63,CLINTON,VERMILLION,IN,47842,39.6805,-87.4257,2833,2879,,,,,325411,,,,,,1304202738009,N-BUTYL ALCOHOL,000071363,NO,NON-PBT,NO,0,NO,R,Pounds,5,5,5,0,0,0,0,0,0,0,0,5,20,0,0,0,0,0,0,0,0,0,0,0,0,0,0,0,0,0,0,0,0,0,0,0,0,0,0,0,0,0,0,0,0,0,0,0,0,0,20,0,0,28,0,0,0,0,0,0,70000,0,70028,0,1.09,ELI LILLY & CO,006421325
2004,47842LLLLYSTATE,CLINTON LABORATORIES,10500 S STATE RD 63,CLINTON,VERMILLION,IN,47842,39.6805,-87.4257,2833,2879,,,,,325411,,,,,,1304202738098,MERCURY COMPOUNDS,N458,YES,PBT,YES,1,NO,R,Pounds,.1,15.7,0,0,0,0,0,.06,0,0,0,.1,15.96,0,0,0,0,0,0,0,0,0,0,0,0,0,.59,0,0,0,0,0,0,.59,0,.33,0,0,0,.33,0,0,0,0,0,0,0,0,0,0,16.55,0,0,16,.59,0,0,0,0,.33,0,0,16.92,0,1.22,ELI LILLY & CO,006421325
2004,46368LVYCF9GERG,LEVY CO BURNS HARBOR,900 GEORGE NELSON DR,PORTAGE,PORTER,IN,46368,41.62936,-87.15456,3295,,,,,,327999,,,,,,1304202669824,CHROMIUM COMPOUNDS(EXCEPT CHROMITE ORE MINED IN THE TRANSVAAL REGION),N090,YES,NON-PBT,YES,1,NO,R,Pounds,750,0,0,0,0,0,0,0,0,0,0,0,750,0,0,0,0,0,0,0,0,0,0,0,0,0,0,0,0,0,0,0,0,0,0,0,0,0,0,0,0,0,0,0,0,0,0,0,0,0,750,0,0,508,0,0,0,0,0,0,0,0,508,0,0,EDW C LEVY CO,005354816
2004,47842LLLLYSTATE,CLINTON LABORATORIES,10500 S STATE RD 63,CLINTON,VERMILLION,IN,47842,39.6805,-87.4257,2833,2879,,,,,325411,,,,,,1304202738163,CERTAIN GLYCOL ETHERS,N230,YES,NON-PBT,NO,0,NO,R,Pounds,2000,250,5,0,0,0,0,0,0,0,0,5,2260,0,0,0,0,0,0,0,0,0,0,0,0,0,0,0,0,0,0,0,0,0,0,0,0,0,0,0,0,0,0,0,0,0,0,0,0,0,2260,0,0,2100,0,0,0,0,0,0,180000,0,182100,0,1.09,ELI LILLY & CO,006421325
2004,46515LJHNS2100S,L E JOHNSON PRODUCTS INC,2100 STERLING AVE,ELKHART,ELKHART,IN,46516,41.66674,-85.95217,3429,,,,,,332510,,,,,,1304202661536,COBALT,007440484,YES,NON-PBT,YES,1,YES,R,Pounds,0,0,0,0,0,0,0,0,0,0,0,0,0,0,0,0,0,0,0,0,0,0,0,0,0,0,0,0,0,0,0,0,0,0,0,116712,0,0,0,116712,0,0,0,0,0,0,0,0,0,0,0,0,0,0,0,0,0,0,0,116712,0,0,116712,0,1.11,NA,NA
2004,46268LLTTC9200Z,ELLIOTT CO OF INDIANAPOLI S INC,9200 ZIONSVILLE RD,INDIANAPOLIS,MARION,IN,46268,39.919392,-86.259858,3086,,,,,,326150,,,,,,1304202639237,DIISOCYANATES,N120,YES,NON-PBT,NO,0,NO,A,Pounds,0,0,0,0,0,0,0,0,0,0,0,0,0,0,0,0,0,0,0,0,0,0,0,0,0,0,0,0,0,0,0,0,0,0,0,0,0,0,0,0,0,0,0,0,0,0,0,0,0,0,0,0,0,0,0,0,0,0,0,0,0,0,0,0,,ELLIOTT CO OF INDIANAPOLIS INC,NA
2004,46241CHRYS1100S,INDIANAPOLIS FOUNDRY,1100 S TIBBS AVE,INDIANAPOLIS,MARION,IN,462412797,39.755389,-86.215194,3321,,,,,,331511,,,,,,1304202714059,PHENOL,000108952,YES,NON-PBT,NO,0,NO,R,Pounds,330,3100,0,0,0,0,0,0,0,0,0,0,3430,0,10,10,0,0,0,0,0,0,0,0,0,0,0,0,0,0,24,0,0,24,0,0,0,0,0,0,0,0,0,0,0,0,0,0,0,0,3454,0,0,3500,0,24,0,0,0,0,2000,10,5534,0,1.08,DAIMLERCHRYSLER CORP,001344928
2004,46140RLLCT3398E,ROLL COATER INC,1950 E MAIN ST,GREENFIELD,HANCOCK,IN,46140,39.787083,-85.738111,3479,,,,,,332812,,,,,,1304202731283,CHROMIUM COMPOUNDS(EXCEPT CHROMITE ORE MINED IN THE TRANSVAAL REGION),N090,YES,NON-PBT,YES,1,NO,R,Pounds,0,0,0,0,0,0,0,0,0,0,0,0,0,17,0,17,0,0,0,0,0,0,0,0,0,0,38537,0,0,0,201,713,0,39451,0,0,0,0,0,0,0,0,0,0,0,0,0,0,0,0,39468,0,0,0,38537,931,0,0,0,0,0,0,39468,0,1.24,ROLL COATER INC,006420087
2004,46140RLLCT3398E,ROLL COATER INC,1950 E MAIN ST,GREENFIELD,HANCOCK,IN,46140,39.787083,-85.738111,3479,,,,,,332812,,,,,,1304202731360,"1,2,4-TRIMETHYLBENZENE",000095636,NO,NON-PBT,NO,0,NO,R,Pounds,21,17572,0,0,0,0,0,0,0,0,0,0,17593,0,0,0,0,0,0,0,0,0,0,0,0,0,0,0,0,0,0,0,0,0,0,0,0,0,0,0,9827,0,9827,0,0,0,0,0,0,0,17593,0,0,17593,0,0,0,9827,0,0,345488,0,372908,0,1.24,ROLL COATER INC,006420087
2004,46320STTLN103ST,STATE LINE ENERGY LLC,103RD ST & LAKE MICHIGAN,HAMMOND,LAKE,IN,46320,41.707528,-87.518361,4911,,,,,,221112,,,,,,1304202702039,DIOXIN AND DIOXIN-LIKE COMPOUNDS,N150,YES,DIOXIN,NO,0,NO,R,Grams,0,.22,0,0,0,0,0,0,0,0,0,0,.22,0,0,0,0,0,0,0,0,0,0,0,0,0,0,0,0,0,0,0,0,0,0,0,0,0,0,0,0,0,0,0,0,0,0,0,0,0,.22,0,0,.22,0,0,0,0,0,0,0,0,.22,0,1.02,DOMINION RESOURCES INC,196579130
2004,46320STTLN103ST,STATE LINE ENERGY LLC,103RD ST & LAKE MICHIGAN,HAMMOND,LAKE,IN,46320,41.707528,-87.518361,4911,,,,,,221112,,,,,,1304202702080,MERCURY COMPOUNDS,N458,YES,PBT,YES,1,NO,R,Pounds,0,223,0,0,0,0,0,0,0,0,0,0,223,0,0,0,0,0,0,0,0,0,0,0,0,0,0,0,0,10,0,0,0,10,0,370,0,0,0,370,0,0,0,0,0,0,0,0,0,0,233,0,0,223,0,10,0,0,0,370,0,0,603,0,1.02,DOMINION RESOURCES INC,196579130
2004,47546RSTKR1ARIS,MASTERBRAND CABINETS - JASPER OPERATION,ONE MASTERBRAND CABINETS DR,JASPER,DUBOIS,IN,47546,38.397711,-86.920792,2434,,,,,,337110,,,,,,1304202734796,METHYL ISOBUTYL KETONE,000108101,YES,NON-PBT,NO,0,NO,R,Pounds,0,13693,0,0,0,0,0,0,0,0,0,0,13693,0,0,0,0,0,0,0,0,0,0,0,0,0,0,0,0,0,0,0,0,0,0,0,0,0,0,0,0,1015,1015,0,0,0,0,0,0,0,13693,0,0,13693,0,0,0,1015,0,0,0,0,14708,0,0,FORTUNE BRANDS INC,001265768
2004,46952GMCCP2400W,GENERAL MOTORS MANUFACTURING STAMPING MARION METAL CENTER,2400 W SECOND ST,MARION,GRANT,IN,46952,40.55973,-85.69307,3465,,,,,,336370,,,,,,1304202661839,LEAD COMPOUNDS,N420,YES,PBT,YES,1,NO,R,Pounds,255,.1,0,0,0,0,0,0,0,0,0,0,255.1,.6,0,.6,0,0,0,0,0,0,0,0,0,0,0,0,0,0,2.6,0,0,2.6,0,0,0,0,0,0,0,0,0,0,0,0,0,0,0,0,258.3,0,0,255,0,3.3,0,0,0,0,0,0,258.3,0,.97,GENERAL MOTORS LLC,831247536
2004,46619MLDNG1545S,MOLDING PRODUCTS DIV,1545 S OLIVE ST,SOUTH BEND,ST JOSEPH,IN,466194393,41.657799,-86.283034,3087,,,,,,325211,,,,,,1304202678482,ZINC COMPOUNDS,N982,NO,NON-PBT,YES,1,NO,A,Pounds,0,0,0,0,0,0,0,0,0,0,0,0,0,0,0,0,0,0,0,0,0,0,0,0,0,0,0,0,0,0,0,0,0,0,0,0,0,0,0,0,0,0,0,0,0,0,0,0,0,0,0,0,0,0,0,0,0,0,0,0,0,0,0,0,,INTERPLASTIC CORP,006151336
2004,46506MLLRB225IN,RBC PRECISION PRODUCTS,225 INDUSTRIAL DR,BREMEN,MARSHALL,IN,465060247,41.44693,-86.170524,3562,,,,,,332991,,,,,,1304202695577,NICKEL,007440020,YES,NON-PBT,YES,1,YES,R,Pounds,0,0,0,0,0,0,0,0,0,0,0,0,0,0,0,0,0,0,0,0,0,0,0,0,0,0,0,0,0,0,0,0,0,0,0,13881,0,0,0,13881,0,0,0,0,0,0,0,0,0,0,0,0,0,0,0,0,0,0,0,13881,0,0,13881,0,1.05,ROLLER BEARING CO OF AMERICA,782725824
2004,46706RKCRP500WE,RIEKE PACKAGING SYSTEMS,500 W 7TH ST,AUBURN,DEKALB,IN,46706,41.367083,-85.064444,3499,3089,,,,,332999,,,,,,1304202659999,ZINC COMPOUNDS,N982,NO,NON-PBT,YES,1,NO,R,Pounds,0,0,0,0,0,0,0,0,0,0,0,0,0,12,0,12,0,0,0,0,0,0,0,0,0,0,53586,0,0,0,0,0,0,53586,0,0,0,0,0,0,0,0,0,0,0,0,0,0,0,0,53598,0,0,0,12,53586,0,0,0,0,0,0,53598,0,.63,TRIMAS CORP,175591072
2004,46803WSSHM2531B,TRELLEBORG SEALS DIV,2531 BREMER DR,NEW HAVEN,ALLEN,IN,46774,41.063349,-85.074785,3053,,,,,,339991,,,,,,1304202695639,ETHYLENE OXIDE,000075218,YES,NON-PBT,NO,0,YES,R,Pounds,0,0,0,0,0,0,0,0,0,0,0,0,0,0,0,0,0,0,0,0,0,0,0,0,0,0,18862,0,0,0,0,0,0,18862,0,0,0,0,0,0,0,0,0,0,0,0,0,0,0,0,18862,0,0,0,18862,0,0,0,0,0,0,0,18862,0,1.05,TRELLEBORG INDUSTRIES,008336182
2004,46721STLDY4500C,STEEL DYNAMICS INC,4500 COUNTY RD 59,BUTLER,DEKALB,IN,46721,41.364278,-84.914083,3312,,,,,,331111,,,,,,1304202712802,METHYL TERT-BUTYL ETHER,001634044,YES,NON-PBT,NO,0,NO,R,Pounds,22826,0,0,0,0,0,0,0,0,0,0,0,22826,0,0,0,0,0,0,0,0,0,0,0,0,0,0,0,0,0,0,0,0,0,0,0,0,0,0,0,0,0,0,0,0,0,0,0,0,0,22826,0,0,22826,0,0,0,0,0,0,0,0,22826,0,1.09,STEEL DYNAMICS INC,NA
2004,47355SPRTNRR1US,YORK CASKET CO,2125 E CO. RD 1050 S,LYNN,RANDOLPH,IN,47355,40.01261,-84.931716,3995,,,,,,339995,,,,,,1304202744254,TOLUENE,000108883,YES,NON-PBT,NO,0,NO,R,Pounds,0,8600,0,0,0,0,0,0,0,0,0,0,8600,0,0,0,0,0,0,0,0,0,0,0,0,0,0,0,0,0,0,0,0,0,0,0,0,0,0,0,14300,0,14300,0,0,0,0,0,0,0,8600,0,0,8600,0,0,0,14300,0,0,0,0,22900,0,1.11,THE YORK GROUP INC,062343066
2004,46992WBSHLOLDUS,ALERIS SPECIFICATION ALLOYS INC,4525 W OLD 24,WABASH,WABASH,IN,46992,40.790833,-85.877089,3341,,,,,,331314,,,,,,1304202661930,HYDROGEN FLUORIDE,007664393,YES,NON-PBT,NO,0,NO,R,Pounds,0,40120,0,0,0,0,0,0,0,0,0,0,40120,0,0,0,0,0,0,0,0,0,0,0,0,0,0,0,0,0,0,0,0,0,0,0,0,0,0,0,0,0,0,0,0,0,0,0,0,0,40120,0,0,40120,0,0,0,0,0,0,93300,0,133420,0,.9,ALERIS SPECIFICATION ALLOYS INC,NA
2004,46241RLLYT1500S,VERTELLUS AGRICULTURE & NUTRITION SPECIALTIES LLC,1500 S TIBBS AVE,INDIANAPOLIS,MARION,IN,46241,39.74028,-86.21833,2865,2899,2869,,,,325192,,,,,,1304202663783,BENZENE,000071432,YES,NON-PBT,NO,0,YES,R,Pounds,1600,3390,0,0,0,0,0,0,0,0,0,0,4990,0,10,10,0,0,0,0,0,0,0,0,0,0,3,5,0,0,0,0,0,8,0,0,0,0,0,0,0,3980,3980,0,0,0,0,0,0,0,4998,0,0,4990,8,0,479070,3980,0,0,70880,10,558938,0,1.04,VERTELLUS SPECIALTIES INC,006418685
2004,46241RLLYT1500S,VERTELLUS AGRICULTURE & NUTRITION SPECIALTIES LLC,1500 S TIBBS AVE,INDIANAPOLIS,MARION,IN,46241,39.74028,-86.21833,2865,2899,2869,,,,325192,,,,,,1304202663858,PYRIDINE,000110861,NO,NON-PBT,NO,0,NO,R,Pounds,18160,14860,0,0,0,0,0,0,0,0,0,0,33020,0,67970,67970,0,0,0,0,0,0,0,0,0,0,20,40,0,0,0,0,0,60,0,0,0,0,0,0,0,10120,10120,0,0,0,0,0,0,0,33080,0,0,33020,60,0,82480,10120,0,0,218820,67970,412470,0,1.07,VERTELLUS SPECIALTIES INC,006418685
2004,46721STLDY4500C,STEEL DYNAMICS INC,4500 COUNTY RD 59,BUTLER,DEKALB,IN,46721,41.364278,-84.914083,3312,,,,,,331111,,,,,,1304202712838,TOLUENE,000108883,YES,NON-PBT,NO,0,NO,R,Pounds,28341,90,0,0,0,0,0,0,0,0,0,0,28431,0,0,0,0,0,0,0,0,0,0,0,0,0,0,0,0,0,106,0,0,106,454,0,0,0,0,454,0,0,0,0,0,0,0,0,0,0,28537,0,0,28431,0,106,0,0,0,454,0,0,28991,0,1.09,STEEL DYNAMICS INC,NA
2004,47307MNCCS1406E,MUNCIE CASTING CORP,1406 E 18TH ST,MUNCIE,DELAWARE,IN,473070328,40.17237,-85.371544,3543,3365,3321,,,,331524,,,,,,1304202660369,DIISOCYANATES,N120,YES,NON-PBT,NO,0,NO,A,Pounds,0,0,0,0,0,0,0,0,0,0,0,0,0,0,0,0,0,0,0,0,0,0,0,0,0,0,0,0,0,0,0,0,0,0,0,0,0,0,0,0,0,0,0,0,0,0,0,0,0,0,0,0,0,0,0,0,0,0,0,0,0,0,0,0,,NA,NA
2004,46241RLLYT1500S,VERTELLUS AGRICULTURE & NUTRITION SPECIALTIES LLC,1500 S TIBBS AVE,INDIANAPOLIS,MARION,IN,46241,39.74028,-86.21833,2865,2899,2869,,,,325192,,,,,,1304202663884,VANADIUM COMPOUNDS,N770,NO,NON-PBT,YES,1,NO,R,Pounds,0,0,0,0,0,0,0,0,0,0,0,0,0,100,0,100,0,0,0,0,0,0,0,0,0,0,10220,0,0,0,0,0,0,10220,0,0,0,0,0,0,0,0,0,0,0,0,0,0,0,0,10320,0,0,0,10220,100,0,0,0,0,0,0,10320,0,1.51,VERTELLUS SPECIALTIES INC,006418685
2004,46241RLLYT1500S,VERTELLUS AGRICULTURE & NUTRITION SPECIALTIES LLC,1500 S TIBBS AVE,INDIANAPOLIS,MARION,IN,46241,39.74028,-86.21833,2865,2899,2869,,,,325192,,,,,,1304202663908,PARALDEHYDE,000123637,NO,NON-PBT,NO,0,NO,A,Pounds,0,0,0,0,0,0,0,0,0,0,0,0,0,0,0,0,0,0,0,0,0,0,0,0,0,0,0,0,0,0,0,0,0,0,0,0,0,0,0,0,0,0,0,0,0,0,0,0,0,0,0,0,0,0,0,0,0,0,0,0,0,0,0,0,,VERTELLUS SPECIALTIES INC,006418685
2004,46540SCHLT221US,SCHULT HOMES,221 US 20 W,MIDDLEBURY,ELKHART,IN,46540,41.659872,-85.715435,2451,,,,,,321991,,,,,,1304202670651,DIISOCYANATES,N120,YES,NON-PBT,NO,0,NO,A,Pounds,0,0,0,0,0,0,0,0,0,0,0,0,0,0,0,0,0,0,0,0,0,0,0,0,0,0,0,0,0,0,0,0,0,0,0,0,0,0,0,0,0,0,0,0,0,0,0,0,0,0,0,0,0,0,0,0,0,0,0,0,0,0,0,0,,CMH MANUFACTURING INC,118119528
2004,46320STFFR2000M,RHODIA INC,2000 MICHIGAN ST,HAMMOND,LAKE,IN,46320,41.61007,-87.48067,2819,,,,,,325188,,,,,,1304202675777,ANILINE,000062533,YES,NON-PBT,NO,0,NO,R,Pounds,33.99,80.9,0,0,0,0,0,0,0,0,0,0,114.89,0,.05,.05,0,0,0,0,0,0,0,0,0,0,0,0,0,0,0,0,0,0,0,0,0,0,0,0,0,0,0,0,0,8.62,0,0,0,8.62,114.89,0,0,114.9,0,.05,54345,0,0,0,54345,8.6,108813.55,0,.96,RHODIA INC,002959810
2004,46320STFFR2000M,RHODIA INC,2000 MICHIGAN ST,HAMMOND,LAKE,IN,46320,41.61007,-87.48067,2819,,,,,,325188,,,,,,1304202675878,"SULFURIC ACID (1994 AND AFTER ""ACID AEROSOLS"" ONLY)",007664939,NO,NON-PBT,NO,0,NO,R,Pounds,602.6,1434.6,0,0,0,0,0,0,0,0,0,0,2037.2,0,0,0,0,0,0,0,0,0,0,0,0,0,0,0,0,0,0,0,0,0,0,0,0,0,0,0,0,0,0,0,0,0,0,0,0,0,2037.2,0,0,2037.2,0,0,0,0,0,0,0,0,2037.2,0,.96,RHODIA INC,002959810
2004,46402MRBLHCLARK,CARMEUSE LIME INC BUFFINGTON,1 N CARMEUSE DR,GARY,LAKE,IN,46406,41.605278,-87.373889,3274,,,,,,327410,,,,,,1304202675928,LEAD,007439921,YES,PBT,YES,1,YES,R,Pounds,.01,.79,0,0,0,0,0,0,0,0,0,0,.8,0,0,0,0,0,0,0,0,0,0,0,0,0,31,0,0,0,0,0,0,31,0,0,0,0,0,0,0,0,0,0,0,0,0,0,0,0,31.8,0,0,.8,31,0,0,0,0,0,0,0,31.8,0,1.1,CARMEUSE LIME INC,021073510
2004,46312SFTYK601RI,SAFETY-KLEEN SYSTEMS INC,601 RILEY RD,EAST CHICAGO,LAKE,IN,463121638,41.648417,-87.482414,2992,,,,,,324191,,,,,,1304202682629,TETRACHLOROETHYLENE,000127184,YES,NON-PBT,NO,0,YES,R,Pounds,65,0,0,0,0,0,0,0,0,0,0,0,65,0,298,298,0,0,0,0,0,0,0,0,0,0,0,0,0,0,0,0,0,0,0,0,0,0,0,0,65708,0,65708,0,0,0,0,0,0,0,65,0,0,65,0,0,4202,65708,0,0,4215,298,74488,0,.97,SAFETY-KLEEN HOLDCO INC,051060408
2004,46552GSNLS31977,EGS EASY HEAT,31977 US 20 E,NEW CARLISLE,ST JOSEPH,IN,46552,41.708606,-86.485932,3643,,,,,,335931,,,,,,1304202638995,CHROMIUM COMPOUNDS(EXCEPT CHROMITE ORE MINED IN THE TRANSVAAL REGION),N090,YES,NON-PBT,YES,1,NO,R,Pounds,0,0,0,0,0,0,0,0,0,0,0,0,0,0,0,0,0,0,0,0,0,0,0,0,0,0,0,0,0,0,0,0,0,0,0,750,0,0,0,750,0,0,0,0,0,0,0,0,0,0,0,0,0,0,0,0,0,0,0,7178,0,0,7178,0,1.07,EGS ELECTRICAL GROUP LLC,005121686
