TRIFID	DOCUMENT CONTROL NUMBER	CAS NUMBER	CHEMICAL NAME	CLASSIFICATION	REPORTING YEAR	FACILITY NAME	FACILITY STREET	FACILITY CITY	FACILITY COUNTY	FACILITY STATE	FACILITY ZIP CODE	ENTIRE FACILITY IND	PARTIAL FACILITY IND	FEDERAL FACILITY IND	GOCO FACILITY IND	PRIMARY SIC CODE	SIC CODE 2	SIC CODE 3	SIC CODE 4	SIC CODE 5	SIC CODE 6	NAICS ORIGIN	PRIMARY NAICS CODE	NAICS CODE 2	NAICS CODE 3	NAICS CODE 4	NAICS CODE 5	NAICS CODE 6	LATITUDE	LONGITUDE	DB NR A	DB NR B	RCRA NR A	RCRA NR B	NPDES NR A	NPDES NR B	UIC NR A	UIC NR B	PARENT COMPANY NAME	PARENT COMPANY DB NR	SECTION 8.11 DISPOSAL OR OTHER RELEASES, SOURCE REDUCTION, AND RECYCLING ACTIVITIES	ASSIGNED FED. FACILITY FLAG	PUBLIC CONTACT EMAIL	REVISION CODE 1	REVISION CODE 2	METAL INDICATOR	20-NOV-13	
44706THTMK1835D	1312210219705	007440666	ZINC (FUME OR DUST)	TRI	2012	TIMKEN CO FAIRCREST STEEL PLANT	4511 FAIRCREST ST SW	CANTON	STARK	OH	44706	NO	YES	NO	NO								331111	332991					40.778871	-81.394912	004465100		OHD004465100		OH0004219				THE TIMKEN CO	004465100	More accurate stack testing results obtained and used in emission rate calculations; therefore the amount of Zinc releases to air on-site increased.	NO	DANIEL.MINNICH@TIMKEN.COM			YES	 	
45241FRDMT3000S	1312210291720	007440473	CHROMIUM	TRI	2012	FORD MOTOR CO SHARONVILLE PLANT	3000 SHARON RD	SHARONVILLE	HAMILTON	OH	452411975	YES	NO	NO	NO								336350						39.272778	-84.424167	004263653								FORD MOTOR CO	001344746	SRNA:Ford Motor Company has a formal written Environmental Policy focused on protecting human health and the environment. The Company has committed to the International Chamber of Commerce "Principles for Environmental Management" and is a member of the World Business Council for Sustainable Development (WBCSD) and the Coalition for Environmentally Responsible Economies (CERES). Ford Motor Company also issues an annual Sustainability Report, which follows the Global Reporting Initiative (GRI) Guidelines for sustainability reporting. Ford is committed to pollution prevention. All manufacturing facilities worldwide have been third-party certified to the ISO 14001 standard.	NO	MSCHULHO@FORD.COM			YES	 	
44077FRSTB477LE	1312210180016	000091203	NAPHTHALENE	TRI	2012	STP PRODUCTS MANUFACTURING CO	477 LEXINGTON AVE	PAINESVILLE	LAKE	OH	44077	YES	NO	NO	NO								325998						41.722292	-81.265144	965523801								ARMORED AUTOGROUP	965523801	|T11:Consumer product that we produce took a formulation change and reduction of bottle size from 12 ounce to 5.25 once per bottle.	NO	DAN.FERUS@ARMOREDAUTOGROUP.COM			NO	 	
44707KRCRP1212S	1312210661284	N982	ZINC COMPOUNDS	TRI	2012	INTERNATIONAL AUTOMOTIVE COMPONENTS	1212 SEVENTH ST SW	CANTON	STARK	OH	44707	YES	NO	NO	NO								326299	326199					40.796346	-81.386553	808199785								INTERNATIONAL AUTOMOTIVE COMPONENTS N.A.	808199785	SRNA:Components needed for part quality. Production has been reduced to one shift.	NO	RCORTEZ@IACGROUP.COM			YES	 	
43207CRNPL2141F	1312210364752	N010	ANTIMONY COMPOUNDS	TRI	2012	CRANE PLASTICS	2141 FAIRWOOD AVE	COLUMBUS	FRANKLIN	OH	43207	YES	NO	NO	NO								326121						39.92277	-82.95361	113883479								CRANE GROUP	004289989	SRNA:On-site and offsite regrinding to recover waste plastic material was implemented in previous years and continues.  Because it was implemented prior to 2012, it is not listed here.	NO	JKENTNER@CRANEPLASTICS.COM			YES	 	
43512MNVLLCARPE	1312210394122	000050000	FORMALDEHYDE	TRI	2012	JOHNS MANVILLE CORP PLANT 8	925 CARPENTER RD	DEFIANCE	DEFIANCE	OH	43512	YES	NO	NO	NO								327993						41.3044	-84.3393	113053356								BERKSHIRE HATHAWAY		|W81:We trialed a new resin with lower formaldehyde content for one of our production lines in CY 2012 and CY 2013.  It is not formally implemented yet, but is progressing through the corporate system.	NO	SWIFTJ@JM.COM			NO	 	
4361WRKRPR491ST	1312210430397	000108883	TOLUENE	TRI	2012	RIKER PRODUCTS INC	4901 STICKNEY AVE	TOLEDO	LUCAS	OH	436123716	YES	NO	NO	NO								336399	332996					41.706153	-83.527338	613370592								RIKER PRODUCTS INC		Sending product out to a vendor that has better environmental equipment to complete the process. This is a phasing project and was started towards the end of the calendar year 2012.|W58:Sending product to outside vendor|T04:Investigations performed by the management team determined reasonable improvement in environmental, quality and cost aspects.|T10:Vendor that was selected has an impressive process that represents the criteria the management team was pursuing.	NO	CHAD.LEHMANN@RIKERPROD.COM			NO	 	
43402VHTKS2125W	1312210168629	007439921	LEAD	TRI	2012	VEHTEK SYSTEMS INC	2125 WOOD-BRIDGE BLVD	BOWLING GREEN	WOOD	OH	43402	YES	NO	NO	NO								336370						41.38186	-83.60647	621218028								COSMA INTERNATIONAL OF AMERICA INC.		SRNA:Recycle scrap.	NO	JCRECK@COSMA.COM			YES	 	
44012FRDMT650MI	1312210291757	000100414	ETHYLBENZENE	TRI	2012	FORD MOTOR  CO - OHIO ASSEMBLY PLANT	650 MILLER RD	AVON LAKE	LORAIN	OH	44012	YES	NO	NO	NO								336112						41.485318	-82.063757	020626669								FORD MOTOR CO	001344746	SRNA:Ford Motor Company has a formal written Environmental Policy focused on protecting human health and the environment. The Company has committed to the International Chamber of Commerce "Principles for Environmental Management" and is a member of the World Business Council for Sustainable Development (WBCSD) and the Coalition for Environmentally Responsible Economies (CERES). Ford Motor Company also issues an annual Sustainability Report, which follows the Global Reporting Initiative (GRI) Guidelines for sustainability reporting. Ford is committed to pollution prevention. All manufacturing facilities worldwide have been third-party certified to the ISO 14001 standard.	NO	SOTTO2@FORD.COM			NO	 	
43315CRDNG575WM	1312210629337	007440473	CHROMIUM	TRI	2012	CARDINGTON YUTAKA TECHNOLOGIES  INC	575 W MAIN ST	CARDINGTON	MORROW	OH	43315	YES	NO	NO	NO								336399	336350					40.49944	-82.90722	938948379								CARDINGTON YUTAKA TECHNOLOGIES INC		All TRI components are contained in steel or steel processing aides.  All scrap is recycled.	NO	RWELCH@YUTAKATECH.COM			YES	 	
44109LCCRP1000B	1312210166688	000108883	TOLUENE	TRI	2012	ELCO CORP	1000 BELT LINE ST	CLEVELAND	CUYAHOGA	OH	44109	YES	NO	NO	NO								325188						41.452806	-81.686076	005317599								DETREX CORP	005317599	Waste reduction and pollution prevention activities include but are not limited to research and development efforts for process improvements and control, production planning, proper inventory management techniques, process improvement meetings with total employee involvement to eliminate manufacturing of off specification materials, and predictive maintenance along with preventive maintenance.  We are also ISO 14001 certified, ISO 9001 certified, and have a mercury PMP program in place.  Both ISO 14001 and ISO 9001 drive our waste reduction and pollution prevention activities.	NO	TSTEIB@ELCOCORP.COM			NO	 	
4483WPTBRF2111S	1312210438800	000075070	ACETALDEHYDE	TRI	2012	FOSTORIA ETHANOL DBA POET BIOREFINING - FOSTORIA	2111 SANDUSKY ST	FOSTORIA	SENECA	OH	44830	YES	NO	NO	NO								325192						41.174917	-83.378806	806294778										SRNA:None identified	NO	ARTHUR.THOMAS@POET.COM			NO	 	
43952BRMCHCOUNT	1312210874436	N090	CHROMIUM COMPOUNDS(EXCEPT CHROMITE ORE MINED IN THE TRANSVAAL REGION)	TRI	2012	BARIUM & CHEMICALS INC	515 KINGSDALE RD	STEUBENVILLE	JEFFERSON	OH	43952	YES	NO	NO	NO								325188						40.39938	-80.6275	004323465										Chromate departments have been renovated and material handling has been evaluated to prevent damage, contamination, and unneccesary spiillage that would result in any waste.   All floor sweepings produced are immediately put into the processing tanks and not considered a waste.|T05:All  employees have been trained and participate in lean activities that results in efficiency and less waste|T10:Working with vendor regarding pumps and seals.|T04:ISO and LEAN teams	NO	DAVNECI@BARIUMCHEMICALS.COM			YES	 	
43935LSCMR100PI	1312210263149	000063252	CARBARYL	TRI	2012	TURF CARE SUPPLY CORP	100 PICOMA RD	MARTINS FERRY	BELMONT	OH	43935	YES	NO	NO	NO								325314	325320					40.101461	-80.722026	557014094								TURF CARE HOLDING CORP		SRNA:Other - The facility continually aims to optimize scheduling practices to limit the number the number of unnecessary material changeovers thereby limiting clean-out waste generation.	NO	GPLATEK@TCSCUSA.COM			NO	 	
45371DPNC 875NO	1312210343366	000110543	N-HEXANE	TRI	2012	DAP PRODUCTS INC	875 N THIRD ST	TIPP CITY	MIAMI	OH	45371	YES	NO	NO	NO								325510						39.970345	-84.171669	007022486								RPM CONSUMER HOLDING CO	825465581	Our program to reduce pollution is the Dap Tipp City¿s Facility¿s First Time Right Program.  This program endeavors to use the talents of our batch compounders and chemical formulators to develop new, more appropriate recipes for batches in an effort to successfully complete the batch without further processing.  Increasing the ¿first time right¿ percentage reduces waste, energy use, and reduces the use of other resources.  Over the last 4 years the Dap Tip City facility has increased the number of batches that have been successfully completed as first time right (FTR) .  These percentages are:  						CY09		76.67% 				CY10		80.71% 				CY11		82.02% 				CY12		86.55% As you can see, we have raised the average number of FTR batches by 10%.  In CY12, we made many more batches than in CY09, and yet, we are able to increase the FTR percentage.	NO	TDEVAULT@DAP.COM			NO	 	
44224MRGND4560D	1312210604955	000110543	N-HEXANE	TRI	2012	MORGAN ADHESIVE CO (MACTAC)	4560 DARROW RD	STOW	SUMMIT	OH	44224	YES	NO	NO	NO								322222						41.188965	-81.440313	004155347								BEMIS CO INC	006477061	SRNA:7. Other.  N-hexane is a component of some of our solvent based adhesives.  MACtac is currently developing a solvent-less adhesive that will eliminate n-hexane as a component.	NO	RMSEAY@BEMIS.COM			NO	 	
4430WMPRLL153EX	1312210408908	007440508	COPPER	TRI	2012	IMPERIAL ELECTRIC	1503 EXETER RD	AKRON	SUMMIT	OH	44306	YES	NO	NO	NO								335312						41.084195	-81.514059	004163945								NIDEC MOTOR CORP	965004240	The facility is trying to continuously improve to reduce the amount of copper scrap generated from armature winding, such as rebuilding winding machines to reduce the end of coil scrap.	NO	RANDY.WISEMAN@NIDEC-MOTOR.COM			YES	 	
45742DPNTPTOWNS	1312209939141	N120	DIISOCYANATES	TRI	2012	DUPONT LITTLE HOCKING SERVICE CENTER	251 ARROWHEAD RD	LITTLE HOCKING	WASHINGTON	OH	45742	YES	NO	NO	NO								325991						39.27916	-81.69583	570865497								E I DU PONT DE NEMOURS & CO	001315704	SRNA:MDI has a shelf life.  Reduced production from variable demand will slow consumption of MDI.  Slower production of our HYT products will result in increased quantities of waste MDI due to the age of this raw material.  This raw is a low volume additive in our compounding operations.	NO	J-DAVID.EMERICK-1@DUPONT.COM			NO	 	
43040HGGLN14249	1312210087805	007440508	COPPER	TRI	2012	PARKER HANNIFIN CORP HPD	14249 INDUSTRIAL PKWY	MARYSVILLE	UNION	OH	43040	YES	NO	NO	NO								333996						40.207228	-83.313755	007175550								PARKER HANNIFIN CORP	007175550	Although the facility focuses on production improvements, in 2012 there were no specific initatives focused on reducing this component of scrap sent off site for recycle.|SRNA:None	NO	ANTHONY.KLAPAC@PARKER.COM			YES	 	
43040HGGLN14249	1312210087831	N120	DIISOCYANATES	TRI	2012	PARKER HANNIFIN CORP HPD	14249 INDUSTRIAL PKWY	MARYSVILLE	UNION	OH	43040	YES	NO	NO	NO								333996						40.207228	-83.313755	007175550								PARKER HANNIFIN CORP	007175550	There were no initiatives to reduce this reportable material in 2012|SRNA:None	NO	ANTHONY.KLAPAC@PARKER.COM			NO	 	
45377RNDMR845CE	1312210448193	000110827	CYCLOHEXANE	TRI	2012	APTALIS PHARMATECH INC	845 CENTER DR	VANDALIA	MONTGOMERY	OH	45377	YES	NO	NO	NO								325412						39.884213	-84.18186	097916506								APTALIS PHARMA INC	829696306	SRNA:Concern that product quality may decline as a result of source reduction	NO	TGRINSTEAD@APTALISPHARMA.COM			NO	 	
44136DVNCD22557	1312210470023	007664417	AMMONIA	TRI	2012	MOMENTIVE PERFORMANCE MATERIALS QUARTZ INC	22557 W LUNN RD	STRONGSVILLE	CUYAHOGA	OH	44149	YES	NO	NO	NO								327125						41.29972	-81.87916	791064285								MOMENTIVE PERFORMANCE MATERIALS HOLDINGS LLC	791064285	SRNA:Pollution prevention previously implemented- additional reduction does not appear technically or economically feasible	NO	CHARLES.FROEHLICH@MOMENTIVE.COM			NO	 	
43207CLMBB1000B	1312210004180	007439921	LEAD	TRI	2012	V&S COLUMBUS GALVANIZING LLC	1000 BUCKEYE PARK RD	COLUMBUS	FRANKLIN	OH	43207	YES	NO	NO	NO								332812						39.919051	-82.984539									VOIGT & SCHWEITZER LLC		SRNA:METAULLICS ZINKOFF RECOVERY SYSTEM (MZR) WAS PUT INTO OPERATION IN A PRIOR YEAR AND CONTINUES TO REDUCE THE AMOUNT OF METAL SENT OFF-SITE TO RECOVER ZINC.PROCESSES AND ADDITIVES IMPLEMENTED IN PREVIOUS YEARS REDUCE THE OCCURRENCE OF PICKLE LIQUOR AND FLUX HAZARDOUS WASTE DISPOSAL.	NO	STEVEG@HOTDIPVALV.COM			YES	 	
45801FRDMT1155B	1312210297988	007439965	MANGANESE	TRI	2012	FORD MOTOR CO LIMA ENGINE PLANT	1155 BIBLE RD	LIMA	ALLEN	OH	45801	YES	NO	NO	NO								336312						40.774028	-84.083964	135657435								FORD MOTOR CO	001344746	SRNA:Ford Motor Company has a formal written Environmental Policy focused on protecting human health and the environment. The Company has committed to the International Chamber of Commerce "Principles for Environmental Management" and is a member of the World Business Council for Sustainable Development (WBCSD) and the Coalition for Environmentally Responsible Economies (CERES). Ford Motor Company also issues an annual Sustainability Report, which follows the Global Reporting Initiative (GRI) Guidelines for sustainability reporting. Ford is committed to pollution prevention. All manufacturing facilities worldwide have been third-party certified to the ISO 14001 standard.	NO				YES	 	
43902HVLLY56854	1312210620023	007439921	LEAD	TRI	2012	OHIO VALLEY COAL CO POWHATAN #6	56854 PLEASANT RIDGE RD	ALLEDONIA	BELMONT	OH	43902	YES	NO	NO	NO								212112						39.90694	-80.99028	188606438										SRNA:Reporting required due to naturally-occurring compounds in coal.	NO	CSHESTAK@COALSOURCE.COM			YES	 	
43756GLCRC5130N	1312210553032	007440508	COPPER	TRI	2012	MAHLE ENGINE COMPONENTS USA INC	5130 N STATE RT 60	MCCONNELSVILLE	MORGAN	OH	43756	YES	NO	NO	NO								331423						39.676759	-81.882054	047427901								MAHLE GROUP		|W58:Reduced amount of waste water transferred off-site by generating less waste in the manufacturing plant|T04:Active team participation allowed MAHLE Engine Components to reduce the amount of waste water transferred off-site	NO	ANDREW.COLE@US.MAHLE.COM			YES	 	
43040HNDFM2400A	1312210328023	000071363	N-BUTYL ALCOHOL	TRI	2012	HONDA OF AMERICA MANUFACTURING INC	24000 HONDA PKWY	MARYSVILLE	UNION	OH	430409251	YES	NO	NO	NO								336111	333511	336211	336370	336112	447190	40.278217	-83.507965	092162643		OHD092162585		OH0097039				AMERICAN HONDA MOTOR CO INC	008860389	If you're interested in learning more about Honda's environmental activities in Ohio, please visit the following website: http://ohio.honda.com/environment/index.cfm	NO				NO	 	
43319HNDFM11000	1312210327767	000110827	CYCLOHEXANE	TRI	2012	HONDA OF AMERICA MANUFACTURING INC	11000 STATE RT 347	EAST LIBERTY	LOGAN	OH	43319	YES	NO	NO	NO								336111	493110	336211	336112	336370		40.338887	-83.566349	603003070								AMERICAN HONDA MOTOR CO INC	008860389	If you're interested in learning more about Honda's environmental activities in Ohio, please visit the following website: http://ohio.honda.com/environment/index.cfm	NO				NO	 	
43319HNDFM11000	1312210327971	000067561	METHANOL	TRI	2012	HONDA OF AMERICA MANUFACTURING INC	11000 STATE RT 347	EAST LIBERTY	LOGAN	OH	43319	YES	NO	NO	NO								336111	493110	336211	336112	336370		40.338887	-83.566349	603003070								AMERICAN HONDA MOTOR CO INC	008860389	If you're interested in learning more about Honda's environmental activities in Ohio, please visit the following website: http://ohio.honda.com/environment/index.cfm	NO				NO	 	
45040BRNFL1229C	1312210498349	N230	CERTAIN GLYCOL ETHERS	TRI	2012	BERENFIELD CONTAINERS INC MASON	1229 CASTLE DR	MASON	WARREN	OH	45040	YES	NO	NO	NO								332439						39.332692	-84.344363	161064993								BERENFIELD CONTAINERS INC	161064993	We continue to work with our Paint and Coating Vendor to reduce the solvent content of the paints and coatings used in production.  These new formulations have resulted in reducing our VOCs emissions.	NO	LFREDERICK@BERENFIELD.COM			NO	 	
44483JXTCC1745V	1312210432516	000107211	ETHYLENE GLYCOL	TRI	2012	AJAX TOCCO WARREN OHIO PLANT	1745 OVERLAND AVE NE	WARREN	TRUMBULL	OH	44483	YES	NO	NO	NO								333994						41.257902	-80.799951	004168001								PARK OHIO HOLDINGS CORP	041067752	SRNA:Ehylene Glycol is a necessary product used in the operation of the equipment we build, it is not a waste or by-product and can not be eleminated.	NO	GRICHLEY@AJAXTOCCO.COM			NO	 	
44035NGLHR120PI	1312210167312	007697372	NITRIC ACID	TRI	2012	BASF CORP	120 PINE ST	ELYRIA	LORAIN	OH	44035	YES	NO	NO	NO								325188						41.369914	-82.101985	004203519								BASF CORP	071014385	|W21:Process operational excellence review	NO	SANDY.KOWALESKI@BASF.COM			NO	 	
44004DTRXC1100N	1312210255612	000071363	N-BUTYL ALCOHOL	TRI	2012	DETREX	1100 STATE RD	ASHTABULA	ASHTABULA	OH	44004	YES	NO	NO	NO								325188						41.896111	-80.770278	005317599								DETREX CORP	005317599	Waste reduction and pollution prevention activities include but are not limited to research and development efforts for process improvements and control, improving production planning, proper inventory management techniques, proves improvement meetings with all employees involved to eliminate manufacturing of off specification materials, and preventive maintenance and predictive maintenance.  We are also ISO 14001 and ISO 9001 certified, and have a mercury PMP program.  both ISO 14001 and ISO 9001 drive our efforts for continuous improvements in day to day activities for waste reduction and pollution prevention.	NO	TSTEIB@ELCOCORP.COM			NO	 	
44805TRMCN1451J	1312210788244	N511	NITRATE COMPOUNDS	TRI	2012	TREMCO INC	1451 JACOBSON AVE	ASHLAND	ASHLAND	OH	44805	YES	NO	NO	NO								326291						40.88115	-82.307524									RPM BUILDING SOLUTIONS GROUP INC.		|W52:Changed from compressed air to regenerative air source with current technology for retaining this chemical in the process.  Power(energy) and chemical use has been reduced beginning in 2012 as part of 14001 aspects & impacts with objectives set.	NO	JWEGMAN@TREMCOINC.COM			NO	 	
45846FRTRC2440S	1312210285488	007440020	NICKEL	TRI	2012	FORT RECOVERY INDUSTRIES INC	2440 STATE RT 49	FORT RECOVERY	MERCER	OH	45846	YES	NO	NO	NO								332913						40.458089	-84.784607	005046149								FORT RECOVERY INDUSTRIES INC	005046149	Currently employing electrowinning to recycle nickel back to our plating process. Utilize water purification equipment to remove impurities to allow nickel reuse.	NO	DEANJ@FORTRECOVERYINDUSTRIES.COM			YES	 	
44094LLCRF4839E	1312210637068	007439921	LEAD	TRI	2012	ALL-CRAFT WELLMAN PRODUCTS INC	4839 E 345TH ST	WILLOUGHBY	LAKE	OH	44094	YES	NO	NO	NO								339943	332721	339950				41.62861	-81.44055	004155545										|W42:W- We are beginning to use lead-free alloys for some of our products.	NO	GIL@ALL-CRAFTWELLMAN.COM			YES	 	
44103DYGLC4515S	1312210426185	000067561	METHANOL	TRI	2012	DAY-GLO COLOR CORP	4515 ST CLAIR AVE	CLEVELAND	CUYAHOGA	OH	44103	YES	NO	NO	NO								325132	325910	325510				41.51833	-81.66139	962670464								SPHC	962670464	|W49:We use methanol to wash our product and we are using the minimal amount that will work.|T04:We have monthly waste reduction team meetings.	NO	JSHAW@DAYGLO.COM			NO	 	
44109LCCRP1000B	1312210166664	007783064	HYDROGEN SULFIDE	TRI	2012	ELCO CORP	1000 BELT LINE ST	CLEVELAND	CUYAHOGA	OH	44109	YES	NO	NO	NO								325188						41.452806	-81.686076	005317599								DETREX CORP	005317599	Waste reduction and pollution prevention activities include but are not limited to research and development efforts for process improvements and control, production planning, proper inventory management techniques, process improvement meetings with total employee involvement to eliminate manufacturing of off specification materials, and predictive maintenance along with preventive maintenance.  We are also ISO 14001 and ISO 9001 certified, and have a mercury PMP program in place. Both ISO 14001 and ISO 9001 drive our waste reduction and pollution prevention activities.	NO	TSTEIB@ELCOCORP.COM			NO	 	
45011CTYFH960NT	1312210711228	N420	LEAD COMPOUNDS	PBT	2012	CITY OF HAMILTON MUNCIPAL ELECTRIC PLANT	960 N THIRD ST	HAMILTON	BUTLER	OH	45011	YES	NO	NO	NO								221112						39.40988	-84.55439	074679531										FLY ASH GENERATED IN 2012 WAS SENT OFFSITE FOR VARIOUS USES.  THE ASH WAS SHIPPED TO THE FOLLOWING LOCATIONS: [1] TO DUKE ENERGY IN EAST BEND, OHIO, FOR FIXATION OF LIQUID WASTE (APPROXIMATELY 79.7%) AND [2] TO RUMPKE LANDFILL IN CINCINNATI, OHIO AND BAVARIAN LANDFILL IN WALTON, KY FOR OTHER LANDFILL DISPOSAL (APPROXIMATELY 20.3%).  THE METALS IN THIS ASH, PER THE U.S. EPA GUIDANCE DOCUMENT, ARE REPORTED AS AN OFFSITE TRANSFER FOR DISPOSAL.	NO	MARTINJE@CI.HAMILTON.OH.US			YES	 	
45846FRTRC2440S	1312210285437	007440508	COPPER	TRI	2012	FORT RECOVERY INDUSTRIES INC	2440 STATE RT 49	FORT RECOVERY	MERCER	OH	45846	YES	NO	NO	NO								332913						40.458089	-84.784607	005046149								FORT RECOVERY INDUSTRIES INC	005046149	Currently employing electrowinning to recycle copper back to our plating process. Utilize water purification equipment to remove impurities to allow copper reuse.	NO	DEANJ@FORTRECOVERYINDUSTRIES.COM			YES	 	
43015PNNWL421LO	1312210695882	N230	CERTAIN GLYCOL ETHERS	TRI	2012	HENKEL CORP	421 LONDON RD	DELAWARE	DELAWARE	OH	43015	YES	NO	NO	NO								325998						40.2906	-83.075084	002219756								HENKEL CORP	051441731	SRNA:Pollution prevention previously implemented- additional reduction does not appear technically or economically feasible	NO	ROBERTHAUGH@HENKEL.COM			NO	 	
43952BRMCHCOUNT	1312210874424	N040	BARIUM COMPOUNDS	TRI	2012	BARIUM & CHEMICALS INC	515 KINGSDALE RD	STEUBENVILLE	JEFFERSON	OH	43952	YES	NO	NO	NO								325188						40.39938	-80.6275	004323465										Barium & Chemicals  is commited to lean manufacturing that includes reducing waste.  All processes are being evaluated and renovated to prevent exessive spillage or damage to product which would cause a waste of the product.|W31:Managment teams|T01:Management Teams|T04:Lean Projects|T06:Lean Participation|W19:Material Tracking and installed scanners with barcodes|T04:Lab and Plant inspections - on scanners|T05:Lean Management|T10:Air handling|W58:Lean Projects and clean up|T05:Lean Mfg|W41:Vendors|T03:Material Tracking	NO	DAVNECI@BARIUMCHEMICALS.COM			YES	 	
45177HRSTY2627S	1312210064349	007440020	NICKEL	TRI	2012	AHRESTY WILMINGTON CORP	2627 S S ST	WILMINGTON	CLINTON	OH	45177	YES	NO	NO	NO								331521						39.428416	-83.833406	196883227								AHRESTY WILMINGTON CORP	196883227	|W58:Installation of Rotary Furnace for internal scrap melting. This process allows for utilization of more internal scrap and for improvement in aluminum recovery rates that external aluminum recovery firms could not achieve.	NO	JRUMMER@AHRESTY.COM			YES	 	
43551FRSTS2811C	1312210073021	N511	NITRATE COMPOUNDS	TRI	2012	FIRST SOLAR INC	28101 CEDAR PARK BLVD	PERRYSBURG	WOOD	OH	43551	YES	NO	NO	NO								334413						41.55849	-83.55159	606072429								FIRST SOLAR		|T11:Decrease in use of nitric acid.	NO	TSULLIVAN@FIRSTSOLAR.COM			NO	 	
43040HNDFM2400A	1312210327805	000117817	DI(2-ETHYLHEXYL) PHTHALATE	TRI	2012	HONDA OF AMERICA MANUFACTURING INC	24000 HONDA PKWY	MARYSVILLE	UNION	OH	430409251	YES	NO	NO	NO								336111	333511	336211	336370	336112	447190	40.278217	-83.507965	092162643		OHD092162585		OH0097039				AMERICAN HONDA MOTOR CO INC	008860389	If you're interested in learning more about Honda's environmental activities in Ohio, please visit the following website: http://ohio.honda.com/environment/index.cfm	NO				NO	 	
43040HNDFM2400A	1312210327920	N420	LEAD COMPOUNDS	PBT	2012	HONDA OF AMERICA MANUFACTURING INC	24000 HONDA PKWY	MARYSVILLE	UNION	OH	430409251	YES	NO	NO	NO								336111	333511	336211	336370	336112	447190	40.278217	-83.507965	092162643		OHD092162585		OH0097039				AMERICAN HONDA MOTOR CO INC	008860389	If you're interested in learning more about Honda's environmental activities in Ohio, please visit the following website: http://ohio.honda.com/environment/index.cfm	NO				YES	 	
45887FLXBLBAILE	1312210056988	026471625	TOLUENE DIISOCYANATE (MIXED ISOMERS)	TRI	2012	FLEXIBLE FOAM PRODUCTS INC	200 E N ST	SPENCERVILLE	ALLEN	OH	45887	YES	NO	NO	NO								326150						40.714181	-84.339876	096383633								OHIO DECORATIVE PRODUCTS INC	005036264	TDI head flush is being recycled through our Rebond process eliminating that waste stream.|SRNA:TDI Flush is now used in another process as a raw material.	NO	CBAKER@FLEXIBLEFOAM.COM			NO	 	
43056RCKWLROUTE	1312210374385	007440020	NICKEL	TRI	2012	MERITOR HEAVY VEHICLE SYSTEMS LLC	444 HEBRON RD	HEATH	LICKING	OH	43056	YES	NO	NO	NO								336350						40.040662	-82.42462	176615730								MERITOR INC	788082092	|W49:Some parts produced were converted to low-nickel grades of steel.|W73:Changed to nickel-free conversion coating during 2012.	NO	KRISTA.SOHM@MERITOR.COM			YES	 	
43315CRDNG575WM	1312210629352	007439965	MANGANESE	TRI	2012	CARDINGTON YUTAKA TECHNOLOGIES  INC	575 W MAIN ST	CARDINGTON	MORROW	OH	43315	YES	NO	NO	NO								336399	336350					40.49944	-82.90722	938948379								CARDINGTON YUTAKA TECHNOLOGIES INC		All TRI components are contained in steel or steel processing aides.  All scrap is recycled.	NO	RWELCH@YUTAKATECH.COM			YES	 	
43420WDBRD827GR	1312210871149	000111422	DIETHANOLAMINE	TRI	2012	WOODBRIDGE CORP	827 GRAHAM DR	FREMONT	SANDUSKY	OH	43420	YES	NO	NO	NO								326150						41.354354	-83.077737	833265994								WOODBRIDGE HOLDINGS INC	161659883	SRNA:require foam technology manufacturing breakthrough to use a different raw material.	NO	LUCY_MATHIA@WOODBRIDGEGROUP.COM			NO	 	
44683MCRCY7335N	1312210604498	007429905	ALUMINUM (FUME OR DUST)	TRI	2012	IMCO RECYCLING OF OHIO LLC	7335 NEWPORT RD SE	UHRICHSVILLE	TUSCARAWAS	OH	44683	YES	NO	NO	NO								331314						40.382902	-81.352297	831100037								ALERIS ROLLED PRODUCTS INC.	623977514	SRNA:Specific regulatory/permit burdens (minimum lime feed rate to baghouses).	NO	ELWOOD.HANNOLD@ALERIS.COM			YES	 	
43207CRNPL2141F	1312210364764	N090	CHROMIUM COMPOUNDS(EXCEPT CHROMITE ORE MINED IN THE TRANSVAAL REGION)	TRI	2012	CRANE PLASTICS	2141 FAIRWOOD AVE	COLUMBUS	FRANKLIN	OH	43207	YES	NO	NO	NO								326121						39.92277	-82.95361	113883479								CRANE GROUP	004289989	SRNA:Pollution prevention previously implemented - additional reduction does not appear technically feasible.	NO	JKENTNER@CRANEPLASTICS.COM			YES	 	
44281BNRFR224QU	1312209956871	007439965	MANGANESE	TRI	2012	EBNER FURNACES INC	224 QUADRAL DR	WADSWORTH	MEDINA	OH	44281	YES	NO	NO	NO								333994						41.023218	-81.759512	175576487										Employment levels remained the same from 2011 to 2012 but grinding activities were reduced	NO	JOB@EBNERFURNACES.COM			YES	 	
43056QNTMC1855J	1312210074694	N040	BARIUM COMPOUNDS	TRI	2012	AMPACET CORP	1855 JAMES PKWY	HEATH	LICKING	OH	43056	YES	NO	NO	NO								325991						39.998834	-82.475404	081002871								AMPACET CORP	081002871	SRNA:Pollution prevention previously implemented- additional reduction does not appear technically or economically feasible	NO	DENISE.HOLL@AMPACET.COM			YES	 	
45040RLNCM3535K	1312210002844	007439921	LEAD	TRI	2012	RELIANCE MEDICAL PRODUCTS INC	3535 KINGS MILL RD	MASON	WARREN	OH	45040	YES	NO	NO	NO								339115						39.356168	-84.281427	177652310								HAAG STREIT USA	878819762	SRNA:6. Pollution prevention previously implemented- additional reduction does not appear technically or economically feasible.	NO				YES	 	
45414CRGLL3201N	1312210313540	007647010	HYDROCHLORIC ACID (1995 AND AFTER "ACID AEROSOLS" ONLY)	TRI	2012	CARGILL INC	3201 NEEDMORE RD	DAYTON	MONTGOMERY	OH	45414	YES	NO	NO	NO								311221						39.82317	-84.171791	061698676								CARGILL INC	006249189	SRNA:44.64% less coal burned in 2012 than 2011.	NO				NO	 	
45449CWMRS4301I	1312210806978	000075058	ACETONITRILE	TRI	2012	VEOLIA ES TECHNICAL SOLUTIONS LLC	4301 INFIRMARY RD	WEST CARROLLTON	MONTGOMERY	OH	45449	YES	NO	NO	NO								562211						39.683908	-84.275633	082184156								VEOLIA ENVIRONMENTAL SERVICES		SRNA:Veolia Environmental is a hazardous waste TSDF that provides transfer, storage, fuel blending and solvent recycling to our customers.  The chemicals that we report are due to other generators sending material to Veolia for management.	NO	JOHN.HANNAH@VEOLIAES.COM			NO	 	
45356HRTZLONEPR	1312210036594	007440508	COPPER	TRI	2012	HARTZELL PROPELLER INC	ONE PROPELLER PL	PIQUA	MIAMI	OH	45356	YES	NO	NO	NO								336413						40.140672	-84.269204	150681294								HARTZELL PROPELLER INC	150681294	SRNA:Additional Reduction does not appear technically or economically feasible.	NO	BMATTICE@HARTZELLPROP.COM			YES	 	
44035NGLHR120PI	1312210167262	000554132	LITHIUM CARBONATE	TRI	2012	BASF CORP	120 PINE ST	ELYRIA	LORAIN	OH	44035	YES	NO	NO	NO								325188						41.369914	-82.101985	004203519								BASF CORP	071014385	SRNA:This material is new to the plant in 2012.	NO	SANDY.KOWALESKI@BASF.COM			YES	 	
45817MCNTS18717	1312210264848	007440020	NICKEL	TRI	2012	TOWER AUTOMOTIVE PRODUCTS CO INC	18717 COUNTY RD 15	BLUFFTON	HANCOCK	OH	458179692	YES	NO	NO	NO								336370						40.89749	-83.87999	005398615		OHD000026074		OHR000002				TOWER INTERNATIONAL LLC	006407126	Coil Width reduction program, improved management of scrap materials to reduce remanufacturing	NO	NIEMAN.MIKE@TOWERINTERNATIONAL.COM			YES	 	
45640PMLLC1664B	1312210478703	N100	COPPER COMPOUNDS	TRI	2012	OHIO PRECIOUS METALS LLC	16064 BEAVER PIKE	JACKSON	JACKSON	OH	45640	YES	NO	NO	NO								331492						39.0527	-82.6621	161262563		OHD081319980		OPD00008GD						The pollution prevention was implemented in December 2012 so in 2013 more of the copper compounds will be recyled onsite instead of off-site with a goal for all of the copper compounds to be recycled onsite in 2014.|W58:Implemented a new process to convert the waste that was previously recycled off-site into a saleable product.	NO	ASTOCKMEISTER@OPM-LLC.COM			YES	 	
45804SPLML122SM	1312210807350	000064186	FORMIC ACID	TRI	2012	ISP LIMA LLC	1220 S METCALF ST	LIMA	ALLEN	OH	45804	YES	NO	NO	NO								325199						40.718333	-84.116389	363150108								INTERNATIONAL SPECIALTY PRODUCTS INC	063621622	SRNA:as an impurity due to process chemistry	NO	CGASPERETTI@ASHLAND.COM			NO	 	
45820CRCHMROUTE	1312210336982	007664939	SULFURIC ACID (1994 AND AFTER "ACID AEROSOLS" ONLY)	TRI	2012	CHEMTRADE LOGISTICS INC CAIRO SULFUR PRODS	7680 OTTAWA RD	ELIDA	ALLEN	OH	458079562	YES	NO	NO	NO								325188						40.84843	-84.080325	006193424								CHEMTRADE LOGISTICS INC	251951794	The facility takes pride in the new scrubber installed in 2011 to reduce emissions. The scrubber will continue to be an integral part of process operations.|W13:The site will continue to follow  Title V requirements to monitor acid mist emissions.	NO	FBOEHEIM@CHEMTRADELOGISTICS.COM			NO	 	
4361WRKRPR491ST	1312210430132	000100414	ETHYLBENZENE	TRI	2012	RIKER PRODUCTS INC	4901 STICKNEY AVE	TOLEDO	LUCAS	OH	436123716	YES	NO	NO	NO								336399	332996					41.706153	-83.527338	613370592								RIKER PRODUCTS INC		Sending product out to a vendor that has better environmental equipment to complete the process. This is a phasing project and was started towards the end of the calendar year 2012.|W58:Sending product to outside vendor|T04:Investigations performed by the management team determined reasonable improvement in environmental, quality and cost aspects.|T10:Vendor that was selected has an impressive process that represents the criteria the management team was pursuing.	NO	CHAD.LEHMANN@RIKERPROD.COM			NO	 	
43040HNDFM2400A	1312210327526	000071432	BENZENE	TRI	2012	HONDA OF AMERICA MANUFACTURING INC	24000 HONDA PKWY	MARYSVILLE	UNION	OH	430409251	YES	NO	NO	NO								336111	333511	336211	336370	336112	447190	40.278217	-83.507965	092162643		OHD092162585		OH0097039				AMERICAN HONDA MOTOR CO INC	008860389	If you're interested in learning more about Honda's environmental activities in Ohio, please visit the following website: http://ohio.honda.com/environment/index.cfm	NO				NO	 	
45502TRTCN4700G	1312210348215	007664417	AMMONIA	TRI	2012	TRUTEC IND INC	4700 GATEWAY BLVD	SPRINGFIELD	CLARK	OH	45502	YES	NO	NO	NO								332811						39.89167	-83.72444	058335936								NIHON PARKERIZING OF JAPAN INC	058335936	Scheduling improvements were made to improve efficiency and allow for equipment to be shutdown.  Lids were installed pots and are in place while equipment is idling.	NO	PSNYDER@TRUTECIND.COM			NO	 	
43025CLBNC383NH	1312210010916	000107211	ETHYLENE GLYCOL	TRI	2012	STATE INDUSTRIAL PRODUCTS	383 N HIGH ST	HEBRON	LICKING	OH	43025	YES	NO	NO	NO								325611						39.97222	-82.49028	004520987										SRNA:State Industrial currently uses equipment wash-outs as water next time that product is run.  This operating procedure has been in place for several years and cannot be represented as newly implemented.  As a result, State has no disposal of ethylene glycol as hazardous waste.  Discharge to POTW is based on the conservative assumption that all CBOD is ethylene glycol, and the actual amount is lower than reported.	NO	KCLOUSTON@STATEINDUSTRIAL.COM			NO	 	
45302HNDFM12500	1312210322754	N511	NITRATE COMPOUNDS	TRI	2012	HONDA OF AMERICA MANUFACTURING INC ANNA ENGINE PLANT	12500 MERANDA RD	ANNA	SHELBY	OH	453029699	YES	NO	NO	NO								336312						40.372778	-84.190139	121300636								AMERICAN HONDA MOTOR CO INC	008860389	If you're interested in learning more about Honda's environmental activities in Ohio, please visit the following website: http://ohio.honda.com/environment/index.cfm	NO	RON_LIETZKE@HAM.HONDA.COM			NO	 	
44012FRDMT650MI	1312210291910	000071363	N-BUTYL ALCOHOL	TRI	2012	FORD MOTOR  CO - OHIO ASSEMBLY PLANT	650 MILLER RD	AVON LAKE	LORAIN	OH	44012	YES	NO	NO	NO								336112						41.485318	-82.063757	020626669								FORD MOTOR CO	001344746	SRNA:Ford Motor Company has a formal written Environmental Policy focused on protecting human health and the environment. The Company has committed to the International Chamber of Commerce "Principles for Environmental Management" and is a member of the World Business Council for Sustainable Development (WBCSD) and the Coalition for Environmentally Responsible Economies (CERES). Ford Motor Company also issues an annual Sustainability Report, which follows the Global Reporting Initiative (GRI) Guidelines for sustainability reporting. Ford is committed to pollution prevention. All manufacturing facilities worldwide have been third-party certified to the ISO 14001 standard.	NO	SOTTO2@FORD.COM			NO	 	
44062CHMTC14875	1312210713715	000149304	2-MERCAPTOBENZOTHIAZOLE	TRI	2012	CHEM TECHNOLOGIES LTD	14875 BONNER DR	MIDDLEFIELD	GEAUGA	OH	44062	YES	NO	NO	NO								325998	325212					41.462222	-81.053889	029964652										Began skid recycling through a third party.  Implemented bottle and can recycling for the office.|SRNA:Our products use raw materials that are customer specified and cannot be substituted.  We take the raw materials and make blends that allow the customer less waste and more efficiency.  Most of our waste is produced by the efficient dust collector system and is then incinerated.  We have implemented skid and can/bottle recycling and will be adding cardboard recycling this year to reduce our packaging waste.  We use returnable containers whenever possible internally and when shipping.	NO	SJSCHILL@CHEMTECHNOLOGIESLTD.COM			NO	 	
44131SNWMT8400E	1312209996065	007440508	COPPER	TRI	2012	AVTRON LOAD BANKS INC	8400 E PLEASANT VALLEY RD	INDEPENDENCE	CUYAHOGA	OH	44131	YES	NO	NO	NO								335314						41.361694	-81.624391	808546837	621391689	OHD004204343						EMERSON ELECTRIC CO	167253504	|W15:New process implemented to cut raw material (copper sheet) a wastewater filtration system was installed to remove copper particulate from the discharge into the sanitary sewer.|T01:Conducted process audits to improve efficiency in material utilization.	NO	STANLEY.WRIGHT@EMERSON.COM			YES	 	
43319HNDFM11000	1312210328086	000872504	N-METHYL-2-PYRROLIDONE	TRI	2012	HONDA OF AMERICA MANUFACTURING INC	11000 STATE RT 347	EAST LIBERTY	LOGAN	OH	43319	YES	NO	NO	NO								336111	493110	336211	336112	336370		40.338887	-83.566349	603003070								AMERICAN HONDA MOTOR CO INC	008860389	If you're interested in learning more about Honda's environmental activities in Ohio, please visit the following website: http://ohio.honda.com/environment/index.cfm	NO				NO	 	
43302MRNST912CH	1312210321663	N420	LEAD COMPOUNDS	PBT	2012	NUCOR STEEL MARION INC	912 CHENEY AVE	MARION	MARION	OH	43302	YES	NO	NO	NO								331111						40.5707	-83.1388	032271975								NUCOR CORP	003446796	Started recycling our waste in 2012	NO	TREVOR.BEERS@NUCOR.COM			YES	 	
43302MRNST912CH	1312210321749	N982	ZINC COMPOUNDS	TRI	2012	NUCOR STEEL MARION INC	912 CHENEY AVE	MARION	MARION	OH	43302	YES	NO	NO	NO								331111						40.5707	-83.1388	032271975								NUCOR CORP	003446796	Started recycling waste 2012	NO	TREVOR.BEERS@NUCOR.COM			YES	 	
45805BPCHMFORTA	1312210374068	000096333	METHYL ACRYLATE	TRI	2012	INEOS USA LLC	1900 FORT AMANDA RD	LIMA	ALLEN	OH	45804	YES	NO	NO	NO								325199	325188	325211				40.717499	-84.132274	623804809								INEOS USA LLC	623804809	8.6 Quantity treated on-site is a combustion air pollution control device.	NO	JOSEPH.BIANCO@INEOS.COM			NO	 	
43460LBBYW140DI	1312210596920	007664939	SULFURIC ACID (1994 AND AFTER "ACID AEROSOLS" ONLY)	TRI	2012	PILKINGTON NA INC	140 DIXIE HWY	ROSSFORD	WOOD	OH	434601215	YES	NO	NO	NO								327211	327215					41.617626	-83.555237	005050406								PINKINGTON NA INC	212371884	|W58:An emissions testing event in 2012 yielded an improved emission factor for Sulfuric Acid Mist.	NO	CHARLES.BAUMGARTNER@NSG.COM			NO	 	
44076KNNMT180PE	1312210671119	007440484	COBALT	TRI	2012	KENNAMETAL INC ORWELL FACIL ITY	180 PENNIMAN RD	ORWELL	ASHTABULA	OH	44076	YES	NO	NO	NO								333515						41.522266	-80.848505	004397659								KENNAMETAL INC		Production requirements were lower in 2012 than 2011 resulting in lower usage of cobalt.	NO	CHRISTINA.REITANO@KENNAMETAL.COM			YES	 	
43031TCHNC200EC	1312210621468	001330207	XYLENE (MIXED ISOMERS)	TRI	2012	TECH INTERNATIONAL	200 E COSHOCTON ST	JOHNSTOWN	LICKING	OH	43031	YES	NO	NO	NO								326291						40.155676	-82.68113	004293569								TECHNICAL RUBBER		SRNA:Production was down slightly due to slightly lower sales.	NO	JSELLERS@TECHTIREREPAIRS.COM			NO	 	
43015PNNWL421LO	1312210695906	000064186	FORMIC ACID	TRI	2012	HENKEL CORP	421 LONDON RD	DELAWARE	DELAWARE	OH	43015	YES	NO	NO	NO								325998						40.2906	-83.075084	002219756								HENKEL CORP	051441731	SRNA:Pollution prevention previously implemented- additional reduction does not appear technically or economically feasible	NO	ROBERTHAUGH@HENKEL.COM			NO	 	
44021BRTNR14330	1312210718452	000137268	THIRAM	TRI	2012	HEXPOL COMPOUNDING BURTON RUBBER PROCESSING	14330 KINSMAN RD	BURTON	GEAUGA	OH	44021	YES	NO	NO	NO								326299						41.470646	-81.162211	002151277								HEXPOL COMPOUNDING LLC	153221663	Teams were used to assess processes within the facility to improve line efficiency and control of raw materials.	NO	JOHN.GORRELL@HEXPOL.COM			NO	 	
44281BNRFR224QU	1312209956869	007440473	CHROMIUM	TRI	2012	EBNER FURNACES INC	224 QUADRAL DR	WADSWORTH	MEDINA	OH	44281	YES	NO	NO	NO								333994						41.023218	-81.759512	175576487										Employment levels remained the same from 2011 to 2012 but grinding activities were reduced	NO	JOB@EBNERFURNACES.COM			YES	 	
45371DPNC 875NO	1312210343378	000872504	N-METHYL-2-PYRROLIDONE	TRI	2012	DAP PRODUCTS INC	875 N THIRD ST	TIPP CITY	MIAMI	OH	45371	YES	NO	NO	NO								325510						39.970345	-84.171669	007022486								RPM CONSUMER HOLDING CO	825465581	Our program to reduce pollution is the Dap Tipp CityÃ¿Â¿s FacilityÃ¿Â¿s First Time Right Program.  This program endeavors to use the talents of our batch compounders and chemical formulators to develop new, more appropriate recipes for batches in an effort to successfully complete the batch without further processing.  Increasing the Ã¿Â¿first time rightÃ¿Â¿ percentage reduces waste, energy use, and reduces the use of other resources.  Over the last 4 years the Dap Tip City facility has increased the number of batches that have been successfully completed as first time right (FTR) .  These percentages are:  						CY09		76.67% 				CY10		80.71% 				CY11		82.02% 				CY12		86.55% As you can see, we have raised the average number of FTR batches by 10%.  In CY12, we made many more batches than in CY09, and yet, we are able to increase the FTR percentage.	NO	TDEVAULT@DAP.COM			NO	 	
44125MRCNS4300E	1312210290678	007439965	MANGANESE	TRI	2012	CHARTER STEEL CLEVELAND	4300 E 49TH ST	CUYAHOGA HEIGHTS	CUYAHOGA	OH	44125	YES	NO	NO	NO								331111	331221	331222				41.442661	-81.66421	154189989								CHARTER MANUFACTURING CO INC	051618056	Diverted more EAF baghouse dust to Horsehead for metals recovery and re-use rather than landfilling. Resulted in decreased release to landfill.	NO	SCHROEDERM@CHARTERSTEEL.COM			YES	 	
45449PPLTN1030W	1312210037709	007782505	CHLORINE	TRI	2012	APPLETON PAPERS INC	1030 W ALEX-BELL RD	WEST CARROLLTON	MONTGOMERY	OH	454491923	YES	NO	NO	NO								322222						39.6675	-84.23361	112889456								APPLETON PAPERS INC	089581557	SRNA:In June 2012, we discontinued the paper making operations at this facility. As of this date we no longer use this chemical.	NO	LOHARA@APPVION.COM			NO	 	
43402VHTKS2125W	1312210168656	007723140	PHOSPHORUS (YELLOW OR WHITE)	TRI	2012	VEHTEK SYSTEMS INC	2125 WOOD-BRIDGE BLVD	BOWLING GREEN	WOOD	OH	43402	YES	NO	NO	NO								336370						41.38186	-83.60647	621218028								COSMA INTERNATIONAL OF AMERICA INC.		SRNA:Recycle scrap.	NO	JCRECK@COSMA.COM			NO	 	
44136DVNCD22557	1312210470035	010294345	BORON TRICHLORIDE	TRI	2012	MOMENTIVE PERFORMANCE MATERIALS QUARTZ INC	22557 W LUNN RD	STRONGSVILLE	CUYAHOGA	OH	44149	YES	NO	NO	NO								327125						41.29972	-81.87916	791064285								MOMENTIVE PERFORMANCE MATERIALS HOLDINGS LLC	791064285	SRNA:Boron Triclhloride is a reactant and 100% consumed in the process	NO	CHARLES.FROEHLICH@MOMENTIVE.COM			YES	 	
44281HBRSS8711W	1312210076218	N495	NICKEL COMPOUNDS	TRI	2012	HUBBELL POWER SYSTEMS INC	8711 WADSWORTH RD	WADSWORTH	MEDINA	OH	44281	YES	NO	NO	NO								334413						41.036867	-81.764738	181211863								HUBBELL INC	001181858	|W58:Reclaimed powder that would have otherwise been disposed of.|T04:Process Engineering Team	NO	JMULVIHI@HUBBELL.COM			YES	 	
44281HBRSS8711W	1312210076220	N982	ZINC COMPOUNDS	TRI	2012	HUBBELL POWER SYSTEMS INC	8711 WADSWORTH RD	WADSWORTH	MEDINA	OH	44281	YES	NO	NO	NO								334413						41.036867	-81.764738	181211863								HUBBELL INC	001181858	|W58:Reclaimed powder that would have otherwise been disposed of.|T04:Process Engineering Team	NO	JMULVIHI@HUBBELL.COM			YES	 	
43015PPGND760PI	1312210668190	N100	COPPER COMPOUNDS	TRI	2012	PPG INDUSTRIES OHIO INC - DELAWARE	760 PITTSBURGH DR	DELAWARE	DELAWARE	OH	43015	YES	NO	NO	NO								325510						40.283836	-83.097351	004347308								PPG INDUSTRIES INC	001344803	Corporate sustainability goals for 2013 include 1.25% reduction in non-hazardous waste and 2.5% reduction in hazardous waste.	NO	CORUNA@PPG.COM			YES	 	
45750BFGDRBFGOO	1312210676843	000117817	DI(2-ETHYLHEXYL) PHTHALATE	TRI	2012	RJF INTERNATIONAL CORP	700 BF GOODRICH RD	MARIETTA	WASHINGTON	OH	45750	YES	NO	NO	NO								326199						39.44873	-81.46042	004328878								RJF INTERNATIONAL CORP	194902185	Higher yields, scheduling efficiency and flexibility.|W14:Compound formulation and optimizing production schedules.|T05:Employee reccomendations.|W32:Blender and loading systems were used more extensively.|T05:Higher yields, scheduling efficiency and flexibility.	NO	CBUCKLES@RJFNET.COM			NO	 	
45177HRSTY2627S	1312210064287	007440508	COPPER	TRI	2012	AHRESTY WILMINGTON CORP	2627 S S ST	WILMINGTON	CLINTON	OH	45177	YES	NO	NO	NO								331521						39.428416	-83.833406	196883227								AHRESTY WILMINGTON CORP	196883227	|W58:Installation of Rotary Furnace for internal scrap melting. This process allows for utilization of more internal scrap and for improvement in aluminum recovery rates that external aluminum recovery firms could not achieve.	NO	JRUMMER@AHRESTY.COM			YES	 	
43756GLCRC5130N	1312210553044	007439921	LEAD	TRI	2012	MAHLE ENGINE COMPONENTS USA INC	5130 N STATE RT 60	MCCONNELSVILLE	MORGAN	OH	43756	YES	NO	NO	NO								331423						39.676759	-81.882054	047427901								MAHLE GROUP		Manufacturing production had decreased in 2012 as compared to 2011.|W58:Reduced the amount of waste water transferred off-site by generating less waste in the manufacturing plant.|T04:Active team participation allowed MAHLE Engine Components to reduce the amount of waste water transferred off-site.	NO	ANDREW.COLE@US.MAHLE.COM			YES	 	
43040HNDFM2400A	1312210327692	007782505	CHLORINE	TRI	2012	HONDA OF AMERICA MANUFACTURING INC	24000 HONDA PKWY	MARYSVILLE	UNION	OH	430409251	YES	NO	NO	NO								336111	333511	336211	336370	336112	447190	40.278217	-83.507965	092162643		OHD092162585		OH0097039				AMERICAN HONDA MOTOR CO INC	008860389	If you're interested in learning more about Honda's environmental activities in Ohio, please visit the following website: http://ohio.honda.com/environment/index.cfm	NO				NO	 	
45067MGNDC400ES	1312209924911	007439921	LEAD	TRI	2012	MAGNODE CORP	400 E STATE ST	TRENTON	BUTLER	OH	45067	YES	NO	NO	NO								331316						39.481138	-84.451829	004232823								MAGNODE CORP		|T11:Shut Down Remelt Furnace	NO	JBIDWELL@MAGNODE.COM			YES	 	
44012FRDMT650MI	1312210292126	001330207	XYLENE (MIXED ISOMERS)	TRI	2012	FORD MOTOR  CO - OHIO ASSEMBLY PLANT	650 MILLER RD	AVON LAKE	LORAIN	OH	44012	YES	NO	NO	NO								336112						41.485318	-82.063757	020626669								FORD MOTOR CO	001344746	SRNA:Ford Motor Company has a formal written Environmental Policy focused on protecting human health and the environment. The Company has committed to the International Chamber of Commerce "Principles for Environmental Management" and is a member of the World Business Council for Sustainable Development (WBCSD) and the Coalition for Environmentally Responsible Economies (CERES). Ford Motor Company also issues an annual Sustainability Report, which follows the Global Reporting Initiative (GRI) Guidelines for sustainability reporting. Ford is committed to pollution prevention. All manufacturing facilities worldwide have been third-party certified to the ISO 14001 standard.	NO	SOTTO2@FORD.COM			NO	 	
44870MRCNC1110E	1312209967239	000107211	ETHYLENE GLYCOL	TRI	2012	AMERICAN COLORS INC DISPERSION PLANT SANDUSKY OHIO	1110 EDGEWATER AVE	SANDUSKY	ERIE	OH	44870	YES	NO	NO	NO								325510						41.443541	-82.751131									AMERICAN COLORS INC	077751535	SRNA:Current business contracts require formulation with this chemical.	NO	J.SAYRE@AMERICANCOLORS.COM			NO	 	
43319HNDFM11000	1312210328163	007697372	NITRIC ACID	TRI	2012	HONDA OF AMERICA MANUFACTURING INC	11000 STATE RT 347	EAST LIBERTY	LOGAN	OH	43319	YES	NO	NO	NO								336111	493110	336211	336112	336370		40.338887	-83.566349	603003070								AMERICAN HONDA MOTOR CO INC	008860389	If you're interested in learning more about Honda's environmental activities in Ohio, please visit the following website: http://ohio.honda.com/environment/index.cfm	NO				NO	 	
45805BPCHMFORTA	1312210373597	000075058	ACETONITRILE	TRI	2012	INEOS USA LLC	1900 FORT AMANDA RD	LIMA	ALLEN	OH	45804	YES	NO	NO	NO								325199	325188	325211				40.717499	-84.132274	623804809								INEOS USA LLC	623804809	Energy recovery is an air pollution control device that includes a waste heat boiler. 8.6 Quantity treated on-site is a combustion air pollution control device.  Quantity of waste generated (and treated or disposed) may vary with production conditions and may not be directly related to annual production changes.	NO	JOSEPH.BIANCO@INEOS.COM			NO	 	
45236VCSMN847MN	1312210183404	007439921	LEAD	TRI	2012	VI-CAS MANUFACTURING CO INC	8407 MONROE AVE	CINCINNATI	HAMILTON	OH	45236	YES	NO	NO	NO								326199						39.210309	-84.385633	079445102										The manufacturer of the aluminum has lowered the lead content.	NO	VICAS@JUNO.COM			YES	 	
44103DYGLC4515S	1312210426211	000068122	N,N-DIMETHYLFORMAMIDE	TRI	2012	DAY-GLO COLOR CORP	4515 ST CLAIR AVE	CLEVELAND	CUYAHOGA	OH	44103	YES	NO	NO	NO								325132	325910	325510				41.51833	-81.66139	962670464								SPHC	962670464	|W58:We use most of the DMF for equiptment cleaning betwee batches.  We are using the minimum amount that will work and are substituting other cleaning agents when possible.|T04:Our waste reduction team meets monthl;y.	NO	JSHAW@DAYGLO.COM			NO	 	
45801FRDMT1155B	1312210297976	007439921	LEAD	TRI	2012	FORD MOTOR CO LIMA ENGINE PLANT	1155 BIBLE RD	LIMA	ALLEN	OH	45801	YES	NO	NO	NO								336312						40.774028	-84.083964	135657435								FORD MOTOR CO	001344746	SRNA:Ford Motor Company has a formal written Environmental Policy focused on protecting human health and the environment. The Company has committed to the International Chamber of Commerce "Principles for Environmental Management" and is a member of the World Business Council for Sustainable Development (WBCSD) and the Coalition for Environmentally Responsible Economies (CERES). Ford Motor Company also issues an annual Sustainability Report, which follows the Global Reporting Initiative (GRI) Guidelines for sustainability reporting. Ford is committed to pollution prevention. All manufacturing facilities worldwide have been third-party certified to the ISO 14001 standard.	NO				YES	 	
43420CRBFR15STA	1312210154151	007439965	MANGANESE	TRI	2012	CARBO FORGE INC	150 STATE RT 523	FREMONT	SANDUSKY	OH	43420	YES	NO	NO	NO								332111						41.443611	-83.133889	005043781										SRNA:7. Other. No feasible way to engage in source reduction.	NO	M.HORN@CARBOFORGE.COM			YES	 	
45302HNDFM12500	1312210322665	N150	DIOXIN AND DIOXIN-LIKE COMPOUNDS	DIOXIN	2012	HONDA OF AMERICA MANUFACTURING INC ANNA ENGINE PLANT	12500 MERANDA RD	ANNA	SHELBY	OH	453029699	YES	NO	NO	NO								336312						40.372778	-84.190139	121300636								AMERICAN HONDA MOTOR CO INC	008860389	If you're interested in learning more about Honda's environmental activities in Ohio, please visit the following website: http://ohio.honda.com/environment/index.cfm	NO	RON_LIETZKE@HAM.HONDA.COM			NO	 	
45241NYRND10700	1312210052561	000085018	PHENANTHRENE	TRI	2012	NEYRA INDUSTRIES INC	10700 EVENDALE DR	CINCINNATI	HAMILTON	OH	45241	YES	NO	NO	NO								324121						39.25999	-84.43638	076772920										SRNA:6. Pollution prevention previously implemented- additional reduction does not appear technically or economically feasible.	NO	GHOUSER@NEYRAINDUSTRIES.COM			NO	 	
45805BPCHMFORTA	1312210373751	007664417	AMMONIA	TRI	2012	INEOS USA LLC	1900 FORT AMANDA RD	LIMA	ALLEN	OH	45804	YES	NO	NO	NO								325199	325188	325211				40.717499	-84.132274	623804809								INEOS USA LLC	623804809	Quantity of waste generated (and treated or disposed) may vary with production conditions and may not be directly related to annual production changes.	NO	JOSEPH.BIANCO@INEOS.COM			NO	 	
45805BPCHMFORTA	1312210374106	000115071	PROPYLENE	TRI	2012	INEOS USA LLC	1900 FORT AMANDA RD	LIMA	ALLEN	OH	45804	YES	NO	NO	NO								325199	325188	325211				40.717499	-84.132274	623804809								INEOS USA LLC	623804809	Energy recovery is an air pollution control device that includes a waste heat boiler.	NO	JOSEPH.BIANCO@INEOS.COM			NO	 	
44035NYLNG1301L	1312210479022	000075150	CARBON DISULFIDE	TRI	2012	3M ELYRIA	1301 LOWELL ST	ELYRIA	LORAIN	OH	440354864	YES	NO	NO	NO								325211						41.375556	-82.138889	092628510								3M CO	006173082	|T01:Changed the media in 7 of 11 biotowers at the facility.	NO	JCAKEY@MMM.COM			NO	 	
44146MRGNM232FO	1312210458814	N420	LEAD COMPOUNDS	PBT	2012	MORGAN ADVANCED MATERIALS	232 FORBES RD	BEDFORD	CUYAHOGA	OH	44146	YES	NO	NO	NO								334419						41.3724	-81.5196	065155160								MORGAN ADVANCED CERAMICS INC	065155160	SRNA:Working on more efficient and smaller Spray Dryer for 2013.	NO	MICHAEL.KYER@MORGANPLC.COM			YES	 	
45804SPLML122SM	1312210807362	000067561	METHANOL	TRI	2012	ISP LIMA LLC	1220 S METCALF ST	LIMA	ALLEN	OH	45804	YES	NO	NO	NO								325199						40.718333	-84.116389	363150108								INTERNATIONAL SPECIALTY PRODUCTS INC	063621622	SRNA:as an impurity due to process chemistry	NO	CGASPERETTI@ASHLAND.COM			NO	 	
44316KRNPL1376T	1312210587147	007664417	AMMONIA	TRI	2012	OMNOVA SOLUTIONS INC - AKRON PLANT	1380 TECH WAY DR	AKRON	SUMMIT	OH	44306	YES	NO	NO	NO								325211						41.048611	-81.474722	098363026								OMNOVA SOLUTIONS INC	088498618	|W52:Replaced 60-year-old anhydrous ammonia refrigeration system with new receiver tank, heat exchanger, and piping to eliminate fugitive emissions.	NO	SANDI.NOAH@OMNOVA.COM			NO	 	
44278CHMNC390MU	1312209897519	N420	LEAD COMPOUNDS	PBT	2012	CHEMIONICS CORP	390 MUNROE FALLS RD	TALLMADGE	SUMMIT	OH	44278	YES	NO	NO	NO								325510						41.059932	-81.416634	055573430								CHESSCO INC		SRNA:Use driven by orders from customers	NO	FERGUSON@CHEMIONICS.COM			YES	 	
43040HNDFM2400A	1312210327589	000191242	BENZO(G,H,I)PERYLENE	PBT	2012	HONDA OF AMERICA MANUFACTURING INC	24000 HONDA PKWY	MARYSVILLE	UNION	OH	430409251	YES	NO	NO	NO								336111	333511	336211	336370	336112	447190	40.278217	-83.507965	092162643		OHD092162585		OH0097039				AMERICAN HONDA MOTOR CO INC	008860389	If you're interested in learning more about Honda's environmental activities in Ohio, please visit the following website: http://ohio.honda.com/environment/index.cfm	NO				NO	 	
43137LXTTC215BI	1312209910443	007440439	CADMIUM	TRI	2012	LUXOTTICA OPTICAL MANUFACTURING-COLUMBUS	2150 BIXBY RD	LOCKBOURNE	FRANKLIN	OH	43137	YES	NO	NO	NO								339115						39.85497	-82.94791	805903759								LUXOTTICA RETAIL N.A.	141583190	|W13:Preventive maintenance program on CB Blockers to correct metal alloy flow problems and reduce overtabbing.  Will lead to reduced cadmium losses during lens generation.|T01:Blocking overtabbing inspections and cycle counts.|T03:Periodic reviews of purchased metal alloys and metal reclamation shipments.|W15:Metal alloy blocking operators instructed to remove alloy overtabbing with pliers, plastic wands or flow tube adjustments to reduce cadmium losses during lens generation.|T01:Blocking overtabbing inspections and cycle counts.	NO	APETTY@LUXOTTICARETAIL.COM			YES	 	
45449CWMRS4301I	1312210807083	000110861	PYRIDINE	TRI	2012	VEOLIA ES TECHNICAL SOLUTIONS LLC	4301 INFIRMARY RD	WEST CARROLLTON	MONTGOMERY	OH	45449	YES	NO	NO	NO								562211						39.683908	-84.275633	082184156								VEOLIA ENVIRONMENTAL SERVICES		SRNA:Veolia Environmental is a hazardous waste TSDF that provides transfer, storage, fuel blending and solvent recycling to our customers.  The chemicals that we report are due to other generators sending material to Veolia for management.	NO	JOHN.HANNAH@VEOLIAES.COM			NO	 	
44035NGLHR120PI	1312210167250	N420	LEAD COMPOUNDS	PBT	2012	BASF CORP	120 PINE ST	ELYRIA	LORAIN	OH	44035	YES	NO	NO	NO								325188						41.369914	-82.101985	004203519								BASF CORP	071014385	|W29:Inventory control|T11:Inventory control	NO	SANDY.KOWALESKI@BASF.COM			YES	 	
43207VNYLM1441U	1312210271805	N090	CHROMIUM COMPOUNDS(EXCEPT CHROMITE ORE MINED IN THE TRANSVAAL REGION)	TRI	2012	EXTERIOR PORTFOLIO	1441 UNIVERSAL RD	COLUMBUS	FRANKLIN	OH	43207	YES	NO	NO	NO								326199						39.92416	-82.95361	122857894								GEORGIA GULF CORP	120957840	Improved recycle and reuse of all scrap material onsite.  Improved collection of scrap for offsite recycle.  Reduction in disposal of scrap articles|W29:Improved recycle and reuse of all scrap material onsite.  Improved collection of scrap for offsite recycle.  Reduction in disposal of scrap articles	NO	TOM.ROTUNDO@AXIALL.COM			YES	 	
43311THRMD1301W	1312210031237	000117817	DI(2-ETHYLHEXYL) PHTHALATE	TRI	2012	HBD INDUSTRIES	1301 W SANDUSKY AVE	BELLEFONTAINE	LOGAN	OH	43311	YES	NO	NO	NO								326220						40.363669	-83.778714	184808053								HBD INDUSTRIES INC	184808053	The material being reported is not in raw form but a component ingrediant in rubber compound that is dispoosed of.	NO	R.LADY@HBDTHERMOID.COM			NO	 	
44021BRTNR14330	1312210718437	N420	LEAD COMPOUNDS	PBT	2012	HEXPOL COMPOUNDING BURTON RUBBER PROCESSING	14330 KINSMAN RD	BURTON	GEAUGA	OH	44021	YES	NO	NO	NO								326299						41.470646	-81.162211	002151277								HEXPOL COMPOUNDING LLC	153221663	Teams were used to assess processes within the facility to improve line efficiency and control of raw materials.	NO	JOHN.GORRELL@HEXPOL.COM			YES	 	
45302HNDFM12500	1312210322424	007664417	AMMONIA	TRI	2012	HONDA OF AMERICA MANUFACTURING INC ANNA ENGINE PLANT	12500 MERANDA RD	ANNA	SHELBY	OH	453029699	YES	NO	NO	NO								336312						40.372778	-84.190139	121300636								AMERICAN HONDA MOTOR CO INC	008860389	If you're interested in learning more about Honda's environmental activities in Ohio, please visit the following website: http://ohio.honda.com/environment/index.cfm	NO	RON_LIETZKE@HAM.HONDA.COM			NO	 	
43319HNDFM11000	1312210327591	000191242	BENZO(G,H,I)PERYLENE	PBT	2012	HONDA OF AMERICA MANUFACTURING INC	11000 STATE RT 347	EAST LIBERTY	LOGAN	OH	43319	YES	NO	NO	NO								336111	493110	336211	336112	336370		40.338887	-83.566349	603003070								AMERICAN HONDA MOTOR CO INC	008860389	If you're interested in learning more about Honda's environmental activities in Ohio, please visit the following website: http://ohio.honda.com/environment/index.cfm	NO				NO	 	
44305RCRBB1833E	1312210507808	N982	ZINC COMPOUNDS	TRI	2012	R C A  RUBBER CO	1833 E MARKET ST	AKRON	SUMMIT	OH	44305	YES	NO	NO	NO								326299						41.062278	-81.462058	004194148										|W22:Testing of outdated material increased scrap percentages but will benefit source reduction practices in future reporting years.	NO	SULIAS@RCARUBBER.COM			YES	 	
4534WPFPRC211ND	1312210815496	007439921	LEAD	TRI	2012	PFI PRECISION NEW CARLISLE OHIO	2011 N.DAYTON-LAKEVIEW RD	NEW CARLISLE	CLARK	OH	453449561	YES	NO	NO	NO								332721						39.952246	-84.021274	004273132										We focus on trying to achieve zero discharge.   We look for materials that do not have controlled elements in them. Example of this is our parts washer which does not use any elements listed on the Section 313 list.    The only item we are reporting is 1114 lbs of  lead which is a component of the 650,000 pounds of steel that we buy and process.  Our customers specify the type of steel to use.   We recycle the metals that we use.   Nearly 70% of the lead that is found in the steel which we buy is recycled as metal scrap and remelted and reused.   Regarding Storm Water Pollution Prevention we are a zero discharge  "No Exposure" facility.	NO	TJANEK@PFIPRECISION.COM			YES	 	
45216FRSFR110EA	1312210511681	000075070	ACETALDEHYDE	TRI	2012	GIVAUDAN FLAVORS CORP	110 E 70TH ST	CINCINNATI	HAMILTON	OH	45216	YES	NO	NO	NO								311942						39.192559	-84.479943	053072815								GIVAUDAN US INC	007804680	SRNA:Pollution prevention previously implemented - additional reduction does not appear technically or economically feasible at this time.  We continue to examine our process for waste reduction alternatives.	NO	JEFF.PEPPET@GIVAUDAN.COM			NO	 	
44890BRNSW302CO	1312210713222	001330207	XYLENE (MIXED ISOMERS)	TRI	2012	GUARDIAN MANUFACTURING CO	302 CONWELL AVE	WILLARD	HURON	OH	44890	YES	NO	NO	NO								326299						41.064481	-82.71647									PAUG-VIK ENTERPRISES INC		SRNA:3.  Concern that product quality may decline as a result of source reduction.	NO	JSABO@GUARDIAN-MFG.COM			NO	 	
44144PLSTC9921C	1312210352581	007440508	COPPER	TRI	2012	PLASTIC PLATERS INC	9921 CLINTON RD	BROOKLYN	CUYAHOGA	OH	441441035	YES	NO	NO	NO								332813						41.451716	-81.752345	181519768		OHD982073397						FLORIDA PRODUCTION ENGINEERING	032313694	SRNA:In 2012 due to numerous brakedowns the Copper Recovery Unit did not run very eficient.	NO	DMIMIS@PLASTICPLATERS.COM			YES	 	
43040HNDFM2400A	1312210328136	N495	NICKEL COMPOUNDS	TRI	2012	HONDA OF AMERICA MANUFACTURING INC	24000 HONDA PKWY	MARYSVILLE	UNION	OH	430409251	YES	NO	NO	NO								336111	333511	336211	336370	336112	447190	40.278217	-83.507965	092162643		OHD092162585		OH0097039				AMERICAN HONDA MOTOR CO INC	008860389	If you're interested in learning more about Honda's environmental activities in Ohio, please visit the following website: http://ohio.honda.com/environment/index.cfm	NO				YES	 	
44012FRDMT650MI	1312210291959	N511	NITRATE COMPOUNDS	TRI	2012	FORD MOTOR  CO - OHIO ASSEMBLY PLANT	650 MILLER RD	AVON LAKE	LORAIN	OH	44012	YES	NO	NO	NO								336112						41.485318	-82.063757	020626669								FORD MOTOR CO	001344746	SRNA:Ford Motor Company has a formal written Environmental Policy focused on protecting human health and the environment. The Company has committed to the International Chamber of Commerce "Principles for Environmental Management" and is a member of the World Business Council for Sustainable Development (WBCSD) and the Coalition for Environmentally Responsible Economies (CERES). Ford Motor Company also issues an annual Sustainability Report, which follows the Global Reporting Initiative (GRI) Guidelines for sustainability reporting. Ford is committed to pollution prevention. All manufacturing facilities worldwide have been third-party certified to the ISO 14001 standard.	NO	SOTTO2@FORD.COM			NO	 	
44870MRCNC1110E	1312209967189	000095636	1,2,4-TRIMETHYLBENZENE	TRI	2012	AMERICAN COLORS INC DISPERSION PLANT SANDUSKY OHIO	1110 EDGEWATER AVE	SANDUSKY	ERIE	OH	44870	YES	NO	NO	NO								325510						41.443541	-82.751131									AMERICAN COLORS INC	077751535	SRNA:Current business contracts require the use of this chemical within formulations.	NO	J.SAYRE@AMERICANCOLORS.COM			NO	 	
43319HNDFM11000	1312210327654	N230	CERTAIN GLYCOL ETHERS	TRI	2012	HONDA OF AMERICA MANUFACTURING INC	11000 STATE RT 347	EAST LIBERTY	LOGAN	OH	43319	YES	NO	NO	NO								336111	493110	336211	336112	336370		40.338887	-83.566349	603003070								AMERICAN HONDA MOTOR CO INC	008860389	If you're interested in learning more about Honda's environmental activities in Ohio, please visit the following website: http://ohio.honda.com/environment/index.cfm	NO				NO	 	
44839THGLD300SP	1312210513495	000079107	ACRYLIC ACID	TRI	2012	AKZO NOBEL PAINTS LLC	300 SPROWL RD	HURON	ERIE	OH	44839	YES	NO	NO	NO								325510						41.372271	-82.541562									AKZO NOBEL NV	151334422	SRNA:Quantity of acrylic acid used is just above the reportable threshold.  Scale of operation for processing of acrylic acid is very small.	NO	BRIAN.PYCLIK@AKZONOBEL.COM			NO	 	
45506MYNPR1895W	1312210782381	N090	CHROMIUM COMPOUNDS(EXCEPT CHROMITE ORE MINED IN THE TRANSVAAL REGION)	TRI	2012	MOYNO INC	1895 W JEFFERSON ST	SPRINGFIELD	CLARK	OH	45506	YES	NO	NO	NO								333911						39.922806	-83.841513	079435897								ROBBINS & MYERS INC	004283990	Group teams/Lean Teams and Six Sigma Teams helped develop standardized controls for processes.  This help reduced waste.	NO	NORMAN.SHEARER@NOV.COM			YES	 	
45302HNDFM12500	1312210322715	007439965	MANGANESE	TRI	2012	HONDA OF AMERICA MANUFACTURING INC ANNA ENGINE PLANT	12500 MERANDA RD	ANNA	SHELBY	OH	453029699	YES	NO	NO	NO								336312						40.372778	-84.190139	121300636								AMERICAN HONDA MOTOR CO INC	008860389	If you're interested in learning more about Honda's environmental activities in Ohio, please visit the following website: http://ohio.honda.com/environment/index.cfm	NO	RON_LIETZKE@HAM.HONDA.COM			YES	 	
44012FRDMT650MI	1312210291896	000108101	METHYL ISOBUTYL KETONE	TRI	2012	FORD MOTOR  CO - OHIO ASSEMBLY PLANT	650 MILLER RD	AVON LAKE	LORAIN	OH	44012	YES	NO	NO	NO								336112						41.485318	-82.063757	020626669								FORD MOTOR CO	001344746	SRNA:Ford Motor Company has a formal written Environmental Policy focused on protecting human health and the environment. The Company has committed to the International Chamber of Commerce "Principles for Environmental Management" and is a member of the World Business Council for Sustainable Development (WBCSD) and the Coalition for Environmentally Responsible Economies (CERES). Ford Motor Company also issues an annual Sustainability Report, which follows the Global Reporting Initiative (GRI) Guidelines for sustainability reporting. Ford is committed to pollution prevention. All manufacturing facilities worldwide have been third-party certified to the ISO 14001 standard.	NO	SOTTO2@FORD.COM			NO	 	
43521DYTNW705NF	1312210551141	N982	ZINC COMPOUNDS	TRI	2012	TRW AUTOMOTIVE-FAYETTE PLANT	705 N FAYETTE ST	FAYETTE	FULTON	OH	43521	YES	NO	NO	NO								336340						41.67976	-84.327548	005052675								TRW INC	004179453	Zinc coating booths have been optimized to produce as little waste as possible.  The Site has intituted strict procedures for collecting and lableing any waste product including specific labeling and containerization documentation and procedures.|T11:Site secured an air permit for a newly installed zinc coating line.	NO	ANGELA.COOK@TRW.COM			YES	 	
44904HSTTM345SO	1312210868117	007439921	LEAD	TRI	2012	STONERIDGE INC HI-STAT DIV	345 S MILL ST	LEXINGTON	RICHLAND	OH	44904	YES	NO	NO	NO								335931						40.669605	-82.576023									STONERIDGE INC		SRNA:Facility currently maintains a Environmental Management system that utilitizes systems in place to prevent releases to the evironment.  It is in our company objectives to reduce the amount of lead used in our processes.	NO	RANDAL.HINES@STONERIDGE.COM			YES	 	
44711NNMTL19351	1312210008443	007439921	LEAD	TRI	2012	UNION METAL CORP	1432 MAPLE AVE NE	CANTON	STARK	OH	44705	YES	NO	NO	NO								332312						40.814344	-81.351758	113037634								UNION METAL HOLDING CO	930965202	SRNA:Relatively new product line. Growth in amount of business for this product line from previous year.	NO	HENDERSON@UNIONMETAL.COM			YES	 	
43143RBRTS10732	1312210060291	007439921	LEAD	TRI	2012	STEPHEN'S PIPE & STEEL INC	10732 SCHADEL LN	MOUNT STERLING	MADISON	OH	43143	YES	NO	NO	NO								332618						39.71527	-83.275	081310005										SRNA:Source reduction is accomplished by sending out skims and dross for metal reclamation and recycling to recover zinc.  This process is already in place.  Stephens also employs procedures to extend the life of pickle liquor (hydrochloric acid bath) and caustic.  These have also been in place.	NO	DONNIEBOWSHER@SPSFENCE.COM			YES	 	
43935LSCMR100PI	1312210263202	040487421	PENDIMETHALIN	PBT	2012	TURF CARE SUPPLY CORP	100 PICOMA RD	MARTINS FERRY	BELMONT	OH	43935	YES	NO	NO	NO								325314	325320					40.101461	-80.722026	557014094								TURF CARE HOLDING CORP		SRNA:Other - The facility continually aims to optimize scheduling practices to limit the number the number of unnecessary material changeovers thereby limiting clean-out waste generation.	NO	GPLATEK@TCSCUSA.COM			NO	 	
45324MMPRD1260S	1312210543447	007782505	CHLORINE	TRI	2012	MIAMI PRODUCTS & CHEMICAL CO	1260 SCHWERMAN DR	FAIRBORN	GREENE	OH	45324	YES	NO	NO	NO								325188						39.83343	-84.00123	004279378										Reduced the amout of chemical processed, through the purchasing of finished product.	NO	ROGER@SANYGEN.NET			NO	 	
43402RMTCN11HAS	1312210680334	000353593	BROMOCHLORODIFLUOROMETHANE	TRI	2012	A-GAS REMTEC	1100 HASKINS RD	BOWLING GREEN	WOOD	OH	43402	YES	NO	NO	NO								423930	339999					41.388371	-83.669671	020830910								REMTEC INTERNATIONAL		.	NO	SCOTT.WARNER@REMTEC.NET			NO	 	
45069RPBLC5525U	1312209979931	007440508	COPPER	TRI	2012	REPUBLIC WIRE INC	5525 UNION CENTRE DR	WEST CHESTER	BUTLER	OH	45069	YES	NO	NO	NO								331421						39.326389	-84.436389	023704463								REPUBLIC WIRE INC		SRNA:6. Pollution prevention previously implemented- additional reduction does not appear technically or economically feasible.	NO	MHUELSEBUSCH@REPUBLICWIRE.COM			YES	 	
44062CHMTC14875	1312210713727	N010	ANTIMONY COMPOUNDS	TRI	2012	CHEM TECHNOLOGIES LTD	14875 BONNER DR	MIDDLEFIELD	GEAUGA	OH	44062	YES	NO	NO	NO								325998	325212					41.462222	-81.053889	029964652										SRNA:Our products use raw materials that are customer specified and cannot be substituted.  We take the raw materials and make blends that allow the customer less waste and more efficiency.  Most of our waste is produced by the efficient dust collector system and is then incinerated.  We have implemented skid and can/bottle recycling and will be adding cardboard recycling this year to reduce our packaging waste.  We use returnable containers whenever possible internally and when shipping.	NO	SJSCHILL@CHEMTECHNOLOGIESLTD.COM			YES	 	
45449CWMRS4301I	1312210806966	000110805	2-ETHOXYETHANOL	TRI	2012	VEOLIA ES TECHNICAL SOLUTIONS LLC	4301 INFIRMARY RD	WEST CARROLLTON	MONTGOMERY	OH	45449	YES	NO	NO	NO								562211						39.683908	-84.275633	082184156								VEOLIA ENVIRONMENTAL SERVICES		SRNA:Veolia Environmental is a hazardous waste TSDF that provides transfer, storage, fuel blending and solvent recycling to our customers.  The chemicals that we report are due to other generators sending material to Veolia for management.	NO	JOHN.HANNAH@VEOLIAES.COM			NO	 	
45449CWMRS4301I	1312210807018	000100414	ETHYLBENZENE	TRI	2012	VEOLIA ES TECHNICAL SOLUTIONS LLC	4301 INFIRMARY RD	WEST CARROLLTON	MONTGOMERY	OH	45449	YES	NO	NO	NO								562211						39.683908	-84.275633	082184156								VEOLIA ENVIRONMENTAL SERVICES		SRNA:Veolia Environmental is a hazardous waste TSDF that provides transfer, storage, fuel blending and solvent recycling to our customers.  The chemicals that we report are due to other generators sending material to Veolia for management.	NO	JOHN.HANNAH@VEOLIAES.COM			NO	 	
44077FRSTB477LE	1312210180042	001330207	XYLENE (MIXED ISOMERS)	TRI	2012	STP PRODUCTS MANUFACTURING CO	477 LEXINGTON AVE	PAINESVILLE	LAKE	OH	44077	YES	NO	NO	NO								325998						41.722292	-81.265144	965523801								ARMORED AUTOGROUP	965523801	|T11:Consumer product that we produce took a formulation change and reduction of bottle size from 12 ounce to 5.25 once per bottle.	NO	DAN.FERUS@ARMOREDAUTOGROUP.COM			NO	 	
43315CRDNG575WM	1312210629349	007440508	COPPER	TRI	2012	CARDINGTON YUTAKA TECHNOLOGIES  INC	575 W MAIN ST	CARDINGTON	MORROW	OH	43315	YES	NO	NO	NO								336399	336350					40.49944	-82.90722	938948379								CARDINGTON YUTAKA TECHNOLOGIES INC		All TRI components are contained in steel or steel processing aides.  All scrap is recycled.	NO	RWELCH@YUTAKATECH.COM			YES	 	
44142FRDMT5600H	1312210222384	007439921	LEAD	TRI	2012	FORD MOTOR CO CLEVELAND ENGINE PLANTS	18300 SNOW RD	BROOK PARK	CUYAHOGA	OH	44142	YES	NO	NO	NO								336312						41.406261	-81.827741	094485679	016208241							FORD MOTOR CO	001344746	SRNA:Ford Motor Company has a formal written Environmental Policy focused on protecting human health and the environment. The Company has committed to the International Chamber of Commerce "Principles for Environmental Management" and is a member of the World Business Council for Sustainable Development (WBCSD) and the Coalition for Environmentally Responsible Economies (CERES). Ford Motor Company also issues an annual Sustainability Report, which follows the Global Reporting Initiative (GRI) Guidelines for sustainability reporting. Ford is committed to pollution prevention. All manufacturing facilities worldwide have been third-party certified to the ISO 14001 standard.	NO	CMCCART5@FORD.COM			YES	 	
44004DTRXC1100N	1312210255598	007647010	HYDROCHLORIC ACID (1995 AND AFTER "ACID AEROSOLS" ONLY)	TRI	2012	DETREX	1100 STATE RD	ASHTABULA	ASHTABULA	OH	44004	YES	NO	NO	NO								325188						41.896111	-80.770278	005317599								DETREX CORP	005317599	Waste reduction and pollution prevention activities include but are not limited to research and development efforts for process improvements and control, improving production planning, proper inventory management techniques, process improvement meetings with all employee involvement to eliminate manufacturing of off specification materials, and preventive maintenance, and predictive maintenance.  We are also ISO 14001 certified, ISO 9001 certified, and have a mercury PMP program.  Both ISO 14001 and ISO 9001 drive our efforts for continuous improvements in day to day activities for waste reduction and pollution prevention.	NO	TSTEIB@ELCOCORP.COM			NO	 	
44125RSRCH4353E	1312210650646	000121448	TRIETHYLAMINE	TRI	2012	RESEARCH ORGANICS INC DBA SAFC CLEVELAND	4353 E 49TH ST	CLEVELAND	CUYAHOGA	OH	44125	YES	NO	NO	NO								325199	325414	325998				41.435	-81.65166	046632717										Installing a flare to reduce air emissions	NO	MICHAEL.SHULER@SIAL.COM			NO	 	
43019FTPRC9731M	1312209965526	007439921	LEAD	TRI	2012	FT PRECISION INC	9731 MOUNT GILEAD RD	FREDERICKTOWN	KNOX	OH	43019	YES	NO	NO	NO								333613	333612					40.48075	-82.564806	884433764								TANAKA SEIMITSU KOGYO CO LTD		Our Facility has implemented gate recycling in our Die Cast department in 2013.  The investigation for this project began in 2012 and has now been approved for implementation.  Full implementation is expected to begin September 2013, 3 machines have been modified to re-melt scrap gates for production and will eliminate approximately 49% of our die cast scrap. It will also reduce the amount of ingots (raw material) purchased for use.	NO	ZANE_MATHYS@FTPRECISION.COM			YES	 	
44004GMRTC2131A	1312210067233	000100425	STYRENE	TRI	2012	GMR TECHNOLOGY INC	2131 AETNA RD	ASHTABULA	ASHTABULA	OH	44004	YES	NO	NO	NO								326199						41.86333	-80.76722	144217049										|W42:During 2012 the process changed from the use of SMC having a 16% styrene to a BMC raw material having 9% styrene content thus reducing emissions.|W58:During 2012 the process required the use of less raw material reducing the amount consumed by 74% as compared to 2011.	NO	JJULIANO@GMRTECHNOLOGY.COM			NO	 	
43935LSCMR100PI	1312210263164	N450	MANGANESE COMPOUNDS	TRI	2012	TURF CARE SUPPLY CORP	100 PICOMA RD	MARTINS FERRY	BELMONT	OH	43935	YES	NO	NO	NO								325314	325320					40.101461	-80.722026	557014094								TURF CARE HOLDING CORP		SRNA:Other - The facility continually aims to optimize scheduling practices to limit the number the number of unnecessary material changeovers thereby limiting clean-out waste generation.	NO	GPLATEK@TCSCUSA.COM			YES	 	
43040HNDFM2400A	1312210327894	000107211	ETHYLENE GLYCOL	TRI	2012	HONDA OF AMERICA MANUFACTURING INC	24000 HONDA PKWY	MARYSVILLE	UNION	OH	430409251	YES	NO	NO	NO								336111	333511	336211	336370	336112	447190	40.278217	-83.507965	092162643		OHD092162585		OH0097039				AMERICAN HONDA MOTOR CO INC	008860389	If you're interested in learning more about Honda's environmental activities in Ohio, please visit the following website: http://ohio.honda.com/environment/index.cfm	NO				NO	 	
43040HNDFM2400A	1312210328415	N982	ZINC COMPOUNDS	TRI	2012	HONDA OF AMERICA MANUFACTURING INC	24000 HONDA PKWY	MARYSVILLE	UNION	OH	430409251	YES	NO	NO	NO								336111	333511	336211	336370	336112	447190	40.278217	-83.507965	092162643		OHD092162585		OH0097039				AMERICAN HONDA MOTOR CO INC	008860389	If you're interested in learning more about Honda's environmental activities in Ohio, please visit the following website: http://ohio.honda.com/environment/index.cfm	NO				YES	 	
44004PCKNS4212A	1312210061584	000100425	STYRENE	TRI	2012	ZEHRCO GIANCOLA ACQUISITION FOUR	4212 ANN AVE	ASHTABULA	ASHTABULA	OH	44004	YES	NO	NO	NO								326199						41.866783	-80.791346	620222182								ZEHRCO-GIANCOLA COMPOSITES INC	620222182	SRNA:FRP requires the use of polylester resin compound. Styrene is required as a component of this resin. Content concentration and emissions are dictated under the MACT rules.  Federal register 63 WWWW.	NO	RDEGEORGE@ZEHRCO-GIANCOLA.COM			NO	 	
45302HNDFM12500	1312210322766	000108883	TOLUENE	TRI	2012	HONDA OF AMERICA MANUFACTURING INC ANNA ENGINE PLANT	12500 MERANDA RD	ANNA	SHELBY	OH	453029699	YES	NO	NO	NO								336312						40.372778	-84.190139	121300636								AMERICAN HONDA MOTOR CO INC	008860389	If you're interested in learning more about Honda's environmental activities in Ohio, please visit the following website: http://ohio.honda.com/environment/index.cfm	NO	RON_LIETZKE@HAM.HONDA.COM			NO	 	
44502XLCRPONEPE	1312210667010	000872504	N-METHYL-2-PYRROLIDONE	TRI	2012	EXAL CORP	1 PERFORMANCE PL	YOUNGSTOWN	MAHONING	OH	44502	YES	NO	NO	NO								332431						41.091086	-80.638229	802278580										Fewer change-overs on production lines.	NO	TOM.ALCARO@EXAL.COM			NO	 	
44077FRSTB477LE	1312210179988	N230	CERTAIN GLYCOL ETHERS	TRI	2012	STP PRODUCTS MANUFACTURING CO	477 LEXINGTON AVE	PAINESVILLE	LAKE	OH	44077	YES	NO	NO	NO								325998						41.722292	-81.265144	965523801								ARMORED AUTOGROUP	965523801	|T11:Consumer product that we produce took a formulation change and reduction due to customer request and known regulation changes around and within consumer products..	NO	DAN.FERUS@ARMOREDAUTOGROUP.COM			NO	 	
44622GRRST624BL	1312210460844	N090	CHROMIUM COMPOUNDS(EXCEPT CHROMITE ORE MINED IN THE TRANSVAAL REGION)	TRI	2012	GREER STEEL CO	BOAT ST	DOVER	TUSCARAWAS	OH	44622	YES	NO	NO	NO								331221						40.52143	-81.45787	004461992								GREER INDUSTRIES		SRNA:Other.	NO	TDAENZER@GREERSTEEL.COM			YES	 	
44667CNTRS510CO	1312209937174	N450	MANGANESE COMPOUNDS	TRI	2012	BEKAERT CORP	510 COLLINS BLVD	ORRVILLE	WAYNE	OH	44667	YES	NO	NO	NO								331221						40.862139	-81.754809	142302350								BEKAERT NV	051525129	SRNA:We are now ISO 14001 registered. One of our objectives is to reduce scrap. This is done in many ways (SPC, Problem Solving Teams, etc.) and is coordinated by the Quality Department.	NO	RICK.MCWHIRT@BEKAERT.COM			YES	 	
44060VRYDN77SPI	1312210450324	000108054	VINYL ACETATE	TRI	2012	AVERY DENNISON STD-BLDG 19	7070 SPINACH DR	MENTOR	LAKE	OH	44060	YES	NO	NO	NO								322222						41.68014	-81.344253	008256364								AVERY DENNISON CORP	008256364	Sending our scrap final product to a fuel pelletizing company instead of landfill.|W19:Minimizing changeovers and scrap - Lean initiative.	NO				NO	 	
43935LSCMR100PI	1312210263125	000094757	2,4-D	TRI	2012	TURF CARE SUPPLY CORP	100 PICOMA RD	MARTINS FERRY	BELMONT	OH	43935	YES	NO	NO	NO								325314	325320					40.101461	-80.722026	557014094								TURF CARE HOLDING CORP		SRNA:Other - The facility continually aims to optimize scheduling practices to limit the number the number of unnecessary material changeovers thereby limiting clean-out waste generation.	NO	GPLATEK@TCSCUSA.COM			NO	 	
43402VHTKS2125W	1312210168631	007439965	MANGANESE	TRI	2012	VEHTEK SYSTEMS INC	2125 WOOD-BRIDGE BLVD	BOWLING GREEN	WOOD	OH	43402	YES	NO	NO	NO								336370						41.38186	-83.60647	621218028								COSMA INTERNATIONAL OF AMERICA INC.		SRNA:Recycle scrap.	NO	JCRECK@COSMA.COM			YES	 	
43402VHTKS2125W	1312210168643	007440020	NICKEL	TRI	2012	VEHTEK SYSTEMS INC	2125 WOOD-BRIDGE BLVD	BOWLING GREEN	WOOD	OH	43402	YES	NO	NO	NO								336370						41.38186	-83.60647	621218028								COSMA INTERNATIONAL OF AMERICA INC.		SRNA:Recycle scrap.	NO	JCRECK@COSMA.COM			YES	 	
44012FRDMT650MI	1312210291492	000095636	1,2,4-TRIMETHYLBENZENE	TRI	2012	FORD MOTOR  CO - OHIO ASSEMBLY PLANT	650 MILLER RD	AVON LAKE	LORAIN	OH	44012	YES	NO	NO	NO								336112						41.485318	-82.063757	020626669								FORD MOTOR CO	001344746	SRNA:Ford Motor Company has a formal written Environmental Policy focused on protecting human health and the environment. The Company has committed to the International Chamber of Commerce "Principles for Environmental Management" and is a member of the World Business Council for Sustainable Development (WBCSD) and the Coalition for Environmentally Responsible Economies (CERES). Ford Motor Company also issues an annual Sustainability Report, which follows the Global Reporting Initiative (GRI) Guidelines for sustainability reporting. Ford is committed to pollution prevention. All manufacturing facilities worldwide have been third-party certified to the ISO 14001 standard.	NO	SOTTO2@FORD.COM			NO	 	
45245KDPRC3975M	1312210235851	007439921	LEAD	TRI	2012	L-3 FUZING & ORDNANCE SYSTEMS	3975 MCMANN RD	CINCINNATI	CLERMONT	OH	45245	YES	NO	NO	NO								332993						39.064167	-84.256629	041603077								L3 COMMUNICATIONS HOLDINGS CORP	008898884	SRNA:Lead free solder cannot be substituted for lead/tin solder because military specifications require the use of lead/tin solder.	NO	CYRIL.PUTOFF@L-3COM.COM			YES	 	
43207FRNKL2020B	1312210598569	N120	DIISOCYANATES	TRI	2012	FRANKLIN INTERNATIONAL	2020 BRUCK ST	COLUMBUS	FRANKLIN	OH	43207	YES	NO	NO	NO								325520						39.926644	-82.989531	004280590										|W50:Replace 2 vessel process with single stage (vessel) process	NO				NO	 	
43416BRSHWSOUTH	1312210221836	N050	BERYLLIUM COMPOUNDS	TRI	2012	MATERION BRUSH INC	14710 W PORTAGE RIVER S RD	ELMORE	OTTAWA	OH	43416	YES	NO	NO	NO								331421	331411	331419				41.48839	-83.21624	005050802								MATERION INC	622913080	SRNA:The amount of dross recycled will continue to increase in the future.	NO	MICHAEL.BERAKIS@MATERION.COM			YES	 	
4361WRKRPR491ST	1312210430474	000111422	DIETHANOLAMINE	TRI	2012	RIKER PRODUCTS INC	4901 STICKNEY AVE	TOLEDO	LUCAS	OH	436123716	YES	NO	NO	NO								336399	332996					41.706153	-83.527338	613370592								RIKER PRODUCTS INC		SRNA:This is a necessary chemical for our process. We have not found a replacement product that works well enough to make a complete change that would eliminate the use of this chemical.	NO	CHAD.LEHMANN@RIKERPROD.COM			NO	 	
43420MRCNN2145C	1312210085751	000071363	N-BUTYL ALCOHOL	TRI	2012	REXAM BEVERAGE CAN CO RE: FREMONT PLANT	2145 CEDAR	FREMONT	SANDUSKY	OH	43420	YES	NO	NO	NO								332431						41.361235	-83.138439	005105366								REXAM BEVERAGE CAN CO	005105366	|T11:Improved chemical labelling as part of safe quality food certification. required to label all secondary containers|T11:Installed new more efficient bulk unloading pumps|T11:Food Safety Certification in 2012|T11:Installed new mist collection system	NO	FRANK.BROWN@REXAM.COM			NO	 	
44281BNRFR224QU	1312209956883	007440020	NICKEL	TRI	2012	EBNER FURNACES INC	224 QUADRAL DR	WADSWORTH	MEDINA	OH	44281	YES	NO	NO	NO								333994						41.023218	-81.759512	175576487										Employment levels remained the same from 2011 to 2012 but grinding activities were reduced	NO	JOB@EBNERFURNACES.COM			YES	 	
45502NVSTR6125U	1312210680498	001330207	XYLENE (MIXED ISOMERS)	TRI	2012	NAVISTAR INC	6125 URBANA RD	SPRINGFIELD	CLARK	OH	45502	YES	NO	NO	NO								336120						40.01513	-83.7965	049645120								NAVISTAR INTERNATIONAL CORP	161984646	Off-site transfer is 100% recycled, returned, and reused.	NO	TIM.MCDANIEL@NAVISTAR.COM			NO	 	
44142FRDMT5600H	1312210222396	007439965	MANGANESE	TRI	2012	FORD MOTOR CO CLEVELAND ENGINE PLANTS	18300 SNOW RD	BROOK PARK	CUYAHOGA	OH	44142	YES	NO	NO	NO								336312						41.406261	-81.827741	094485679	016208241							FORD MOTOR CO	001344746	SRNA:Ford Motor Company has a formal written Environmental Policy focused on protecting human health and the environment. The Company has committed to the International Chamber of Commerce "Principles for Environmental Management" and is a member of the World Business Council for Sustainable Development (WBCSD) and the Coalition for Environmentally Responsible Economies (CERES). Ford Motor Company also issues an annual Sustainability Report, which follows the Global Reporting Initiative (GRI) Guidelines for sustainability reporting. Ford is committed to pollution prevention. All manufacturing facilities worldwide have been third-party certified to the ISO 14001 standard.	NO	CMCCART5@FORD.COM			YES	 	
45817MCNTS18717	1312210264824	007440473	CHROMIUM	TRI	2012	TOWER AUTOMOTIVE PRODUCTS CO INC	18717 COUNTY RD 15	BLUFFTON	HANCOCK	OH	458179692	YES	NO	NO	NO								336370						40.89749	-83.87999	005398615		OHD000026074		OHR000002				TOWER INTERNATIONAL LLC	006407126	Coil Width reduction programs, minimize production of scrap which reduces consumption of raw steel.	NO	NIEMAN.MIKE@TOWERINTERNATIONAL.COM			YES	 	
44060LNCLN6500H	1312210397636	007439965	MANGANESE	TRI	2012	LINCOLN ELECTRIC CO	6500 HEISLEY RD	MENTOR	LAKE	OH	440601805	YES	NO	NO	NO								333992						41.694197	-81.306548	071783596								THE LINCOLN ELECTRIC CO	004199048	SRNA:Updated waste analysis.	NO	JOHN_PETKOVSEL@LINCOLNELECTRIC.COM			YES	 	
43506THHRTONETO	1312209935093	000095636	1,2,4-TRIMETHYLBENZENE	TRI	2012	OHIO ART CO	ONE TOY ST	BRYAN	WILLIAMS	OH	43506	YES	NO	NO	NO								323110						41.47417	-84.54166	005034608										No additional information for 2012.	NO	PHILLIPSJ@OHIOART.COM			NO	 	
4371WMRCNN43521	1312210619971	007439976	MERCURY	PBT	2012	AMERICAN ENERGY CORP	43521 MAYHUGH HILL RD	BEALLSVILLE	MONROE	OH	43716	YES	NO	NO	NO								212112						39.896389	-81.023333	004962432										SRNA:Report required for naturally-occurring compounds in coal.	NO	CSHESTAK@COALSOURCE.COM			YES	 	
43040HGGLN14249	1312210087856	007439921	LEAD	TRI	2012	PARKER HANNIFIN CORP HPD	14249 INDUSTRIAL PKWY	MARYSVILLE	UNION	OH	43040	YES	NO	NO	NO								333996						40.207228	-83.313755	007175550								PARKER HANNIFIN CORP	007175550	Although the facility focuses on production improvements, in 2012 there were no specific initatives focused on reducing this component of scrap sent off site for recycle.|SRNA:None	NO	ANTHONY.KLAPAC@PARKER.COM			YES	 	
45449CWMRS4301I	1312210807044	000108101	METHYL ISOBUTYL KETONE	TRI	2012	VEOLIA ES TECHNICAL SOLUTIONS LLC	4301 INFIRMARY RD	WEST CARROLLTON	MONTGOMERY	OH	45449	YES	NO	NO	NO								562211						39.683908	-84.275633	082184156								VEOLIA ENVIRONMENTAL SERVICES		SRNA:Veolia Environmental is a hazardous waste TSDF that provides transfer, storage, fuel blending and solvent recycling to our customers.  The chemicals that we report are due to other generators sending material to Veolia for management.	NO	JOHN.HANNAH@VEOLIAES.COM			NO	 	
45356HRTZLONEPR	1312210036606	007439921	LEAD	TRI	2012	HARTZELL PROPELLER INC	ONE PROPELLER PL	PIQUA	MIAMI	OH	45356	YES	NO	NO	NO								336413						40.140672	-84.269204	150681294								HARTZELL PROPELLER INC	150681294	|W58:Process Modifications included an increase in the complete usage of the metal by inclusion of off-cut pieces into the product and better housekeeping practices.|T05:Employee instituted the change in the process due to lead awareness training and discussions concerning TRI reporting.	NO	BMATTICE@HARTZELLPROP.COM			YES	 	
44146WLTNH7845N	1312210291466	007439921	LEAD	TRI	2012	FORD MOTOR CO - WALTON HILLS STAMPING PLANT	7845 NORTHFIELD RD	WALTON HILLS	CUYAHOGA	OH	44146	YES	NO	NO	NO								336370						41.353432	-81.526409	137667093								FORD MOTOR CO	001344746	SRNA:Ford Motor Company has a formal written Environmental Policy focused on protecting human health and the environment. The Company has committed to the International Chamber of Commerce "Principles for Environmental Management" and is a member of the World Business Council for Sustainable Development (WBCSD) and the Coalition for Environmentally Responsible Economies (CERES). Ford Motor Company also issues an annual Sustainability Report, which follows the Global Reporting Initiative (GRI) Guidelines for sustainability reporting. Ford is committed to pollution prevention. All manufacturing facilities worldwide have been third-party certified to the ISO 14001 standard.	NO				YES	 	
45502TKRCR4500G	1312210215998	007439921	LEAD	TRI	2012	TEIKURO CORP	4500 GATEWAY BLVD	SPRINGFIELD	CLARK	OH	45502	YES	NO	NO	NO								332813						39.912023	-83.727501											SRNA:No financially acceptable alternative to use in process available	NO	DROUTZAHN@TEIKURO.COM			YES	 	
44109LCCRP1000B	1312210166676	000071363	N-BUTYL ALCOHOL	TRI	2012	ELCO CORP	1000 BELT LINE ST	CLEVELAND	CUYAHOGA	OH	44109	YES	NO	NO	NO								325188						41.452806	-81.686076	005317599								DETREX CORP	005317599	Waste reduction and pollution prevention activities include but are not limited to research and development efforts for process improvements and control, production planning, proper inventory management techniques, process improvement meetings with total employee involvement to eliminate manufacturing of off specification materials, and predictive maintenance along with preventive maintenance.  We are also ISO 14001 certified, ISO 9001 certified, and have a mercury PMP program in place.  Both ISO 14001 and ISO 9001 drive our waste reduction and pollution prevention activities.	NO	TSTEIB@ELCOCORP.COM			NO	 	
4536WHXMRC115SV	1312210036859	000100425	STYRENE	TRI	2012	HEXA AMERICAS INC	1150 S VAMDEMARK RD	SIDNEY	SHELBY	OH	45365	YES	NO	NO	NO								325991						40.270669	-84.187699	624011248										As previously stated, the toxic substance Styrene being reported is a component of raw material used in this facility.  This substance becomes encapsulated during melted extrusion of the plastic compound becoming no longer hazardous.  This new formulated plastic compound is molded into automotive parts that are well known not hazardous.  Waste material from this process that is also no longer hazardous, is sent to a recycler and not a landfill for disposal.|SRNA:The substance Styrene being reported is a component of raw materials used in this facility.  This content cannot be reduced at the present time due to formulation requirements.	NO	DWALTERS@HEXA-USA.COM			NO	 	
45107MRCNS3343S	1312210507834	007439921	LEAD	TRI	2012	AMERICAN SHOWA INC BL ANCHESTER PLANT	960 CHERRY ST	BLANCHESTER	CLINTON	OH	45107	YES	NO	NO	NO								336330						39.29138	-83.96888	827516030								AMERICAN SHOWA INC		Reduced production in 2012 from 2011	NO				YES	 	
45212SMNSN4620F	1312210808135	000100414	ETHYLBENZENE	TRI	2012	SIEMENS INDUSTRY INC	4620 FOREST AVE	NORWOOD	HAMILTON	OH	452123396	YES	NO	NO	NO								335312						39.159529	-84.446603	004258828		OHD004258828						SIEMENS	064995533	na	NO	AARON.SCHWRABER@SIEMENS.COM			NO	 	
44691SMNCR1000V	1312210707550	N420	LEAD COMPOUNDS	PBT	2012	SEAMAN CORP - WOOSTER PLANT	1000 VENTURE BLVD	WOOSTER	WAYNE	OH	44691	YES	NO	NO	NO								313320						40.805092	-81.966247	004211124								SEAMAN CORP	004211124	Removing lead from all formulations as possible	NO	JCRUM@SEAMANCORP.COM			YES	 	
44870THRWR252SC	1312210792723	000107211	ETHYLENE GLYCOL	TRI	2012	THORWORKS INDUSTRIES INC	2520 S CAMPBELL ST	SANDUSKY	ERIE	OH	44870	YES	NO	NO	NO								324122						41.43194	-82.70361	610592917										Ethylene glycol is a raw material for some of the products; the mixers are closed and therefore fugitive and stack emissions are minimal. The bulk of the material stays with the product.	NO	DSHUPE@THORWORKS.COM			NO	 	
43040HNDFM2400A	1312210327639	N230	CERTAIN GLYCOL ETHERS	TRI	2012	HONDA OF AMERICA MANUFACTURING INC	24000 HONDA PKWY	MARYSVILLE	UNION	OH	430409251	YES	NO	NO	NO								336111	333511	336211	336370	336112	447190	40.278217	-83.507965	092162643		OHD092162585		OH0097039				AMERICAN HONDA MOTOR CO INC	008860389	If you're interested in learning more about Honda's environmental activities in Ohio, please visit the following website: http://ohio.honda.com/environment/index.cfm	NO				NO	 	
43040HNDFM2400A	1312210327957	N450	MANGANESE COMPOUNDS	TRI	2012	HONDA OF AMERICA MANUFACTURING INC	24000 HONDA PKWY	MARYSVILLE	UNION	OH	430409251	YES	NO	NO	NO								336111	333511	336211	336370	336112	447190	40.278217	-83.507965	092162643		OHD092162585		OH0097039				AMERICAN HONDA MOTOR CO INC	008860389	If you're interested in learning more about Honda's environmental activities in Ohio, please visit the following website: http://ohio.honda.com/environment/index.cfm	NO				YES	 	
43040HNDFM2400A	1312210327995	000067561	METHANOL	TRI	2012	HONDA OF AMERICA MANUFACTURING INC	24000 HONDA PKWY	MARYSVILLE	UNION	OH	430409251	YES	NO	NO	NO								336111	333511	336211	336370	336112	447190	40.278217	-83.507965	092162643		OHD092162585		OH0097039				AMERICAN HONDA MOTOR CO INC	008860389	If you're interested in learning more about Honda's environmental activities in Ohio, please visit the following website: http://ohio.honda.com/environment/index.cfm	NO				NO	 	
44125MRCNS4300E	1312210290704	N982	ZINC COMPOUNDS	TRI	2012	CHARTER STEEL CLEVELAND	4300 E 49TH ST	CUYAHOGA HEIGHTS	CUYAHOGA	OH	44125	YES	NO	NO	NO								331111	331221	331222				41.442661	-81.66421	154189989								CHARTER MANUFACTURING CO INC	051618056	Diverted more EAF baghouse dust to Horsehead for metals recovery and re-use rather than landfilling. Resulted in decreased release to landfill.	NO	SCHROEDERM@CHARTERSTEEL.COM			YES	 	
45887FLXBLBAILE	1312210056976	N120	DIISOCYANATES	TRI	2012	FLEXIBLE FOAM PRODUCTS INC	200 E N ST	SPENCERVILLE	ALLEN	OH	45887	YES	NO	NO	NO								326150						40.714181	-84.339876	096383633								OHIO DECORATIVE PRODUCTS INC	005036264	Flush material is used as a raw material in another process.|W58:Flush material is used as a raw material in another process.|T04:Flush material is used as a raw material in another process.	NO	CBAKER@FLEXIBLEFOAM.COM			NO	 	
43319HNDFM11000	1312210327829	000100414	ETHYLBENZENE	TRI	2012	HONDA OF AMERICA MANUFACTURING INC	11000 STATE RT 347	EAST LIBERTY	LOGAN	OH	43319	YES	NO	NO	NO								336111	493110	336211	336112	336370		40.338887	-83.566349	603003070								AMERICAN HONDA MOTOR CO INC	008860389	If you're interested in learning more about Honda's environmental activities in Ohio, please visit the following website: http://ohio.honda.com/environment/index.cfm	NO				NO	 	
44870FRDMT3020T	1312210587299	N120	DIISOCYANATES	TRI	2012	VENTRA SANDUSKY LLC	3020 TIFFIN AVE	SANDUSKY	ERIE	OH	44870	YES	NO	NO	NO								336399						41.424002	-82.747938	078326607										|T01:This reported chemical is present in waste purgings from adhesive operations.   Source reduction consists of minimizing the amount of waste purgings generated during raw material changeovers and equipment shutdown.	NO	DVANBUSKIRK@VENTRAPLASTICS.COM			NO	 	
43506CHLLN720EP	1312210685715	001330207	XYLENE (MIXED ISOMERS)	TRI	2012	A-STAMP INDUSTRIES	633 COMMERCE DR	BRYAN	WILLIAMS	OH	43506	YES	NO	NO	NO								336370						41.466995	-84.522172	058071882		OHD005035084						ALEX PRODUCTS INC	068113703	|W42:Xylene has been eliminated as a coating component effective April 1, 2013.	NO	KEVIN.BOCK@ALEXPRODUCTS.CC			NO	 	
45042RNCNC232WE	1312210679748	N511	NITRATE COMPOUNDS	TRI	2012	MAGELLAN AEROSPACE MIDDLETOWN INC	2320 WEDEKIND DR	MIDDLETOWN	BUTLER	OH	45042	YES	NO	NO	NO								336413	336412					39.531588	-84.383898	008263774								MAGELLAN AEROSPACE CORP		implement better monitoring and recording the results. This is implemented for the Nitric containing tanks, not for the nitrate compounds created in the tank as a result of cleaning	NO	JOHN.FOY@MAGELLAN.AERO			NO	 	
43319HNDFM11000	1312210328148	N511	NITRATE COMPOUNDS	TRI	2012	HONDA OF AMERICA MANUFACTURING INC	11000 STATE RT 347	EAST LIBERTY	LOGAN	OH	43319	YES	NO	NO	NO								336111	493110	336211	336112	336370		40.338887	-83.566349	603003070								AMERICAN HONDA MOTOR CO INC	008860389	If you're interested in learning more about Honda's environmental activities in Ohio, please visit the following website: http://ohio.honda.com/environment/index.cfm	NO				NO	 	
44622GRRST624BL	1312210460869	N495	NICKEL COMPOUNDS	TRI	2012	GREER STEEL CO	BOAT ST	DOVER	TUSCARAWAS	OH	44622	YES	NO	NO	NO								331221						40.52143	-81.45787	004461992								GREER INDUSTRIES		SRNA:other	NO	TDAENZER@GREERSTEEL.COM			YES	 	
44667CNTRS510CO	1312209937111	007647010	HYDROCHLORIC ACID (1995 AND AFTER "ACID AEROSOLS" ONLY)	TRI	2012	BEKAERT CORP	510 COLLINS BLVD	ORRVILLE	WAYNE	OH	44667	YES	NO	NO	NO								331221						40.862139	-81.754809	142302350								BEKAERT NV	051525129	SRNA:Insufficient capital to install new source reduction equipment. Our business is under pressure due to the economy.We do process control which helps minimize consumption and we report chemical usage. Those programs have and arr in place.	NO	RICK.MCWHIRT@BEKAERT.COM			NO	 	
45005MRBLR263IN	1312210006058	000100425	STYRENE	TRI	2012	MARBLE ARCH PRODUCTS INC	263 INDUSTRIAL DR	FRANKLIN	WARREN	OH	45005	YES	NO	NO	NO								326199						39.53528	-84.29861	556488898										We use the lowest styrene content gelcoat and resin available.	NO	MRUNDLE@CINCI.RR.COM			NO	 	
43465WLBRD30610	1312210036683	N982	ZINC COMPOUNDS	TRI	2012	MSC WALBRIDGE COATINGS INC	30610 E BROADWAY	WALBRIDGE	WOOD	OH	434650550	YES	NO	NO	NO								332813						41.597572	-83.512702	099973166								MATERIAL SCIENCES CORP	153700927	T11 - Reverse Osmosis unit being used to recover metals and return to process	NO	JOHN.SIFFER@MATSCI.COM			YES	 	
43040HGGLN14249	1312210087779	007440473	CHROMIUM	TRI	2012	PARKER HANNIFIN CORP HPD	14249 INDUSTRIAL PKWY	MARYSVILLE	UNION	OH	43040	YES	NO	NO	NO								333996						40.207228	-83.313755	007175550								PARKER HANNIFIN CORP	007175550	Manufacturing process improvements focusing on scrap reduction are ongoing in the facility.|SRNA:None	NO	ANTHONY.KLAPAC@PARKER.COM			YES	 	
43902HVLLY56854	1312210620035	007439976	MERCURY	PBT	2012	OHIO VALLEY COAL CO POWHATAN #6	56854 PLEASANT RIDGE RD	ALLEDONIA	BELMONT	OH	43902	YES	NO	NO	NO								212112						39.90694	-80.99028	188606438										SRNA:Report required due to naturally-occurring elements in coal.	NO	CSHESTAK@COALSOURCE.COM			YES	 	
44136DVNCD22557	1312210470047	007647010	HYDROCHLORIC ACID (1995 AND AFTER "ACID AEROSOLS" ONLY)	TRI	2012	MOMENTIVE PERFORMANCE MATERIALS QUARTZ INC	22557 W LUNN RD	STRONGSVILLE	CUYAHOGA	OH	44149	YES	NO	NO	NO								327125						41.29972	-81.87916	791064285								MOMENTIVE PERFORMANCE MATERIALS HOLDINGS LLC	791064285	SRNA:Require technical information on pollution prevention techniques applicable to specific production processes.	NO	CHARLES.FROEHLICH@MOMENTIVE.COM			NO	 	
43506THHRTONETO	1312209935131	001330207	XYLENE (MIXED ISOMERS)	TRI	2012	OHIO ART CO	ONE TOY ST	BRYAN	WILLIAMS	OH	43506	YES	NO	NO	NO								323110						41.47417	-84.54166	005034608										Due to change in product mix of customer orders, there was a decrease in coating (solvent-laden) usage in 2012 and an increase in ink usage (printing ink is low in solvent/chemical content compared to coating).	NO	PHILLIPSJ@OHIOART.COM			NO	 	
43040HNDFM2400A	1312210328377	001330207	XYLENE (MIXED ISOMERS)	TRI	2012	HONDA OF AMERICA MANUFACTURING INC	24000 HONDA PKWY	MARYSVILLE	UNION	OH	430409251	YES	NO	NO	NO								336111	333511	336211	336370	336112	447190	40.278217	-83.507965	092162643		OHD092162585		OH0097039				AMERICAN HONDA MOTOR CO INC	008860389	If you're interested in learning more about Honda's environmental activities in Ohio, please visit the following website: http://ohio.honda.com/environment/index.cfm	NO				NO	 	
