REPORTING YEAR	TITLE OF CERTIFYING OFFICIAL	NAME OF CERTIFYING OFFICIAL	TRIFID	FACILITY NAME	FACILITY STREET	FACILITY CITY	FACILITY COUNTY	FACILITY STATE	FACILITY ZIP CODE	FACILITY BIA CODE	FACILITY BIA NAME	MAILING NAME	MAILING STREET	MAILING CITY	MAILING STATE	MAILING PROVINCE	MAILING ZIP CODE	ENTIRE FACILITY IND	PARTIAL FACILITY IND	FEDERAL FACILITY IND	GOCO FACILITY IND	PUBLIC CONTACT NAME	PUBLIC CONTACT PHONE	PRIMARY SIC CODE	SIC CODE 2	SIC CODE 3	SIC CODE 4	SIC CODE 5	SIC CODE 6	NAICS ORIGIN	PRIMARY NAICS CODE	NAICS CODE 2	NAICS CODE 3	NAICS CODE 4	NAICS CODE 5	NAICS CODE 6	LATITUDE	LONGITUDE	DB NR A	DB NR B	RCRA NR A	RCRA NR B	NPDES NR A	NPDES NR B	UIC NR A	UIC NR B	PARENT COMPANY NAME	PARENT COMPANY DB NR	ASSIGNED FED. FACILITY FLAG	PUBLIC CONTACT EMAIL	10/3/2014	
2013	SECRETARY	JULIE PERKINS	43832NC   100EN	31 INC	100 ENTERPRISE DR	NEWCOMERSTOWN	TUSCARAWAS	OH	43832			31 INC	PO BOX 278	NEWCOMERSTOWN	OH		43832	YES	NO	NO	NO	PAUL G. CLARK	3303889839	3069							326299						40.2814	-81.56784	054663372		OHD054663372								NO	PCLARK@31INC.COM	
2013	PLANT MANAGER	MARGARET MARREN	44256RTNCR1030L	3M CO - MEDINA	1030 LAKE RD	MEDINA	MEDINA	OH	44256			3M CO - MEDINA	1030 LAKE RD	MEDINA	OH		44256	YES	NO	NO	NO	MARGARET MARREN	3307648840	2672							322222						41.11369	-81.89472	131822624								3M CO	006173082	NO	MAMARREN@MMM.COM	
2013	PLANT MANAGER	JOHN AKEY	44035NYLNG1301L	3M ELYRIA	1301 LOWELL ST	ELYRIA	LORAIN	OH	440354864			3M ELYRIA	1301 LOWELL ST	ELYRIA	OH		44035-4864	YES	NO	NO	NO	JOHN AKEY	4403236161	3089							325211						41.375556	-82.138889	092628510								3M CO	006173082	NO	JCAKEY@MMM.COM	
2013	PRESIDENT	TODD HOFFMAN	44646RNC  400NA	A R E ACCESSORIES LLC	400 NAVE RD SE	MASSILLON	STARK	OH	44646			A R E ACCESSORIES LLC	PO BOX 1100	MASSILLON	OH		44648	YES	NO	NO	NO	TODD HOFFMAN	3308307800	3792							336214						40.7676	-81.5157	080381734								ARE ACCESSORIES LLC		NO	THOFFMAN@4ARE.COM	
2013	BUSINESS UNIT LEADER AMERICAS CPC	ANTHONY MAGHES	4472WSCHLM8562P	A SCHULMAN COLOR CENTER	8562 PORT JACKSON AVE NW	NORTH CANTON	STARK	OH	44720			A SCHULMAN COLOR CENTER	8562 PORT JACKSON AVE NW	NORTH CANTON	OH		44720	YES	NO	NO	NO	AJ MAGHES	3304984840								325991						40.9042	-81.44603									A SCHULMAN INC	006998413	NO	AJ_MAGHES@US.ASCHULMAN.COM	
2013	SITE MANAGER	GREGORY ARNOLD	44306NTWRK1353E	A SCHULMAN EXETER FACILITY	1353 EXETER RD	AKRON	SUMMIT	OH	44306			A SCHULMAN EXETER FACILITY	1353 EXETER RD	AKRON	OH		44306	YES	NO	NO	NO	GREG ARNOLD	3307732700								325991						41.029248	-81.479023	155325137								A SCHULMAN INC		NO	GARNOLD@ASCHULMAN.COM	
2013	VP PROCESS	MOJIE MIRSALIMI	44111BRTPL3000W	A-BRITE PLATING CO	3000 W 121 ST	CLEVELAND	CUYAHOGA	OH	44111			A-BRITE PLATING CO	3000 W 121 ST	CLEVELAND	OH		44111	YES	NO	NO	NO	HAL  LEITCH	2162522995	3471							332813						41.4696	-81.77266	004199592										NO	HLEITCH@ABRITEPLATING.COM	
2013	ENVIRONMENTAL, HEALTH & SAFETY MANAGER	CURTIS HOAG	43402RMTCN11HAS	A-GAS REMTEC	1100 HASKINS RD	BOWLING GREEN	WOOD	OH	43402			A-GAS REMTEC	1100 HASKINS RD	BOWLING GREEN	OH		43402	YES	NO	NO	NO	CURTIS HOAG	4198678990								325120						41.39132	-83.67208	020830910								REMTEC INTERNATIONAL		NO	CURTIS.HOAG@REMTEC.NET	
2013	CORPORATE HUMAN RESOURCE MANAGER	KIMBERLY SCHUMM	43506CHLLN720EP	A-STAMP INDUSTRIES	633 COMMERCE DR	BRYAN	WILLIAMS	OH	43506			A-STAMP INDUSTRIES	633 COMMERCE DR	BRYAN	OH		43506	YES	NO	NO	NO	MICAH FRANKENFIELD	4196330662	3582							336370						41.46758	-84.5235	058071882		OHD005035084						ALEX PRODUCTS INC	068113703	NO	MICAH.FRANKENFIELD@ALEXPRODUCTS.CC	
2013	CHAIRMAN	RANDY WENDEL	45885PSTMR1100M	AAP ST MARYS CORP	1100 MCKINLEY RD	SAINT MARYS	AUGLAIZE	OH	45885			AAP ST MARYS CORP	1100 MCKINLEY RD	SAINT MARYS	OH		45885	YES	NO	NO	NO	DAN DANAHER	4193947840	3363							336399						40.55358	-84.37325	185385574								HITACHI METALS OF AMERICA LTD	070572482	NO	DAN.DANAHER@HITMET.COM	
2013	SENIOR VP MANUFACTURING OPERATIONS	DAVID HAKALA	4413WCLRRF34SLN	ACLARA TECHNOLOGIES LLC	30400 SOLON RD	SOLON	CUYAHOGA	OH	44139			ACLARA TECHNOLOGIES LLC	30400 SOLON RD	SOLON	OH		44139	YES	NO	NO	NO	GARY BROWN	4405287529								334412						41.38716	-81.46323	079353790	879869641							METER READINGS HOLDING LLC	079353790	NO	GBROWN@ACLARA.COM	
2013	PRESIDENT	RICHARD BURTON	44601CMHRD540NO	ACME HARD CHROME INC	555 N FREEDOM AVE	ALLIANCE	STARK	OH	44601			ACME HARD CHROME INC	PO BOX 2388	ALLIANCE	OH		44601	YES	NO	NO	NO	RICHARD W BURTON JR	3308213900	3471							332813						40.92566	-81.10203			OHD004173027								NO	RBURTON@ACMESDI.COM	
2013	PRESIDENT	TODD KRIEGEL	4587WCMMCH111PR	ACME MACHINE AUTOMATICS INC	111 PROGRESSIVE DR	OTTOVILLE	PUTNAM	OH	45876			ACME MACHINE AUTOMATICS INC	111 PROGRESSIVE DR	OTTOVILLE	OH		45876	YES	NO	NO	NO	TODD KRIEGEL	4192381896								332721						40.936109	-84.333115	806414413										NO	TKRIEGEL@GLOBALPRECISIONPARTSINC.COM	
2013	PRESIDENT	DEREK HUMPHRIES	44024CPLYM12080	ACO POLYMER PRODUCTS INC	12080 RAVENNA RD	CHARDON	GEAUGA	OH	44024			ACO POLYMER PRODUCTS INC	12080 RAVENNA RD	CHARDON	OH		44024	YES	NO	NO	NO	CHERYL L. BARTA	4402857000	3272							326199						41.54244	-81.1948	089890108								ACO POLYMER PRODUCTS INC		NO	CBARTA@ACO-ONLINE.COM	
2013	PLANT MANAGER	KEITH HIGGINS	44830RCHRD608FI	ADM	608 FINDLAY RD	FOSTORIA	HANCOCK	OH	44830			ADM	608 FINDLAY RD	FOSTORIA	OH		44830	YES	NO	NO	NO	MEDIA RELATIONS	2174245413	2075							311222						41.1494	-83.43295	144229721								ARCHER DANIELS MIDLAND CO	001307586	NO	MEDIA@ADM.COM	
2013	PLANT MANAGER	DOUGLAS MILLER	4468WDMLLN554PL	ADM ALLIANCE NUTRITION	554 PLEASANT VALLEY RD NW	SUGARCREEK	TUSCARAWAS	OH	44681			ADM ALLIANCE NUTRITION	554 PLEASANT VALLEY RD NW	SUGARCREEK	OH		44681	YES	NO	NO	NO	MEDIA RELATIONS	2174245413								311119						40.48873	-81.63541									ARCHER DANIELS MIDLAND CO	001307586	NO	MEDIA@ADM.COM	
2013	SENIOR MANUFACTURING ENGINEER	CHRISTIAN FORD	45036LCSSM1650K	ADVICS MANUFACTURING OHIO INC	1650 KINGSVIEW DR	LEBANON	WARREN	OH	45036			ADVICS MANUFACTURING OHIO INC	1650 KINGSVIEW DR	LEBANON	OH		45036	YES	NO	NO	NO	CHRIS FORD	5139327878	3471	3714						336340	332813					39.37682	-84.24702	196560759								ADVICS N.A. INC	176440592	NO	CFORD@ADVICS-OHIO.COM	
2013	MANAGER	LORIE WEBB	44060XCLCR7373P	AEXCEL CORP	7373 PRODUCTION DR	MENTOR	LAKE	OH	440600780			AEXCEL CORP	7373 PRODUCTION DR	MENTOR	OH		44060-0780	YES	NO	NO	NO	LORIE WEBB	4402057312	2851							325510						41.67089	-81.36039	068888833								AEXCEL CORP	068888833	NO	LWEBB@AEXCELCORP.COM	
2013	ENGINEERING MANAGER	NOAH KOONTZ	43311PTCHN1465W	AGC AUTOMOTIVE AMERICAS CO	1465 W SANDUSKY AVE	BELLEFONTAINE	LOGAN	OH	43311			AGC AUTOMOTIVE AMERICAS CO	1465 W SANDUSKY AVE	BELLEFONTAINE	OH		43311	YES	NO	NO	NO	NOAH KOONTZ	9375993131	3231							327215						40.36259	-83.78972	003374048								AGC FLAT GLASS N.A.	165270401	NO	NOAH.KOONTZ@US.AGC.COM	
2013	V.P.OPERATIONS	RICK BOLTE	45246GNMRB9756P	AGEAN MARBLE MANUFACTURING INC	9756 PRINCETON-GLENDALE RD	CINCINNATI	BUTLER	OH	45246			AGEAN MARBLE MANUFACTURING INC	9756 PRINCETON-GLENDALE RD	CINCINNATI	OH		45246	YES	NO	NO	NO	CHRIS BOLTE	5138743331	3088	3089						326191						39.31353	-84.4646									AGEAN MARBLE MFG INC		NO	CHRISBOLTE@AGEAN.COM	
2013	ENVIRONMENTAL MANAGER	STEVE PUCKE	45052KSRST10743	AGRIUM US INC	10743 BROWER RD	NORTH BEND	HAMILTON	OH	45052			AGRIUM US INC	10743 BROWER RD	NORTH BEND	OH		45052	YES	NO	NO	NO	GILL CRAIG	5134677314	2873							325311						39.12016	-84.79639	808957229								AGRIUM INC	808957229	NO	GILL.CRAIG@AGRIUM.COM	
2013	PRESIDENT	JUSTIN RUMMER	45177HRSTY2627S	AHRESTY WILMINGTON CORP	2627 S S ST	WILMINGTON	CLINTON	OH	45177			AHRESTY WILMINGTON CORP	2627 S S ST	WILMINGTON	OH		45177	YES	NO	NO	NO	JUSTIN L. RUMMER	9373826112	3363							331521						39.413526	-83.84483	196883227								AHRESTY WILMINGTON CORP	196883227	NO	JRUMMER@AHRESTY.COM	
2013	VICE PRESIDENT OF OPERATIONS	JOE MIKETO	4430WRNTRP735GL	AIR ENTERPRISES LLC	735 GLASER PKWY	AKRON	SUMMIT	OH	44306			AIR ENTERPRISES LLC	735 GLASER PKWY	AKRON	OH		44306	YES	NO	NO	NO	JOE MIKETO	3307949770								333412						41.04088	-81.46899	612364252										NO	JMIKETO@AIRENTERPRISES.COM	
2013	CHIEF COMPLIANCE OFFICER	CHRIS WEGMANN	44312SCLCT223PI	AIRBORN ELECTRONICS INC	2230 PICTON PKWY	AKRON	SUMMIT	OH	44312			AIRBORN ELECTRONICS INC	2230 PICTON PKWY	AKRON	OH		44312	YES	NO	NO	NO	CAROLYN ARRIAGA	3302452630								335999						41.00292	-81.46548	041070749								AIRBORN INC	007343429	NO	ARRIAGAC@AIRBORN.COM	
2013	PRESIDENT	GERALD OTT	44109RCRFT1106C	AIRCRAFT PLATING CORP	1106 CLARK AVE	CLEVELAND	CUYAHOGA	OH	44109			AIRCRAFT PLATING CORP	1106 CLARK AVE	CLEVELAND	OH		44109	YES	NO	NO	NO	GERALD C. OTT	2167815845	3471							332813						41.47009	-81.68915	004176681										NO	GOTT@AIRCRAFTPLATING.COM	
2013	SAFETY DIRECTOR	CHRISTINA ORTIZ	4583WRGSSP11713	AIRGAS SPECIALTY PRODUCTS INC DELPHOS OH	1171-3B SPENCERVILLE - DELPHOS RD	DELPHOS	VAN WERT	OH	45833			AIRGAS SPECIALTY PRODUCTS INC DELPHOS OH	2530 SEVER RD SUITE 300	LAWRENCEVILLE	GA		30043	YES	NO	NO	NO	DON DAYTON	6788983403								424690						40.8346	-84.3585									AIRGAS INC.	024492860	NO	DON.DAYTON@AIRGAS.COM	
2013	VICE PRESIDENT OF SAFETY AND COMPLIANCE	RYAN MCGREW	4414WRGSGR76AKL	AIRGAS USA LLC	7600 OAK LEAF RD	OAKWOOD VILLAGE	CUYAHOGA	OH	44146			AIRGAS USA LLC	6055 ROCKSIDE WOODS BLVD	INDEPENDENCE	OH		44131	YES	NO	NO	NO	RYAN MCGREW	5176481751								424690						41.35639	-81.51484	195221908								AIRGAS INC	024492860	NO	RYAN.MCGREW@AIRGAS.COM	
2013	VICE PRESIDENT OF SAFETY AND COMPLIANCE	RYAN MCGREW	44707GGSNC905BE	AIRGAS USA LLC	905 BELDEN AVE S.E	CANTON	STARK	OH	44707			AIRGAS USA LLC	6055 ROCKSIDE WOODS BLVD	INDEPENDENCE	OH		44131	YES	NO	NO	NO	RYAN MCGREW	5176481751	5169	4214						424690						40.78682	-81.34951	016739146								AIRGAS INC	024492800	NO	RYAN.MCGREW@AIRGAS.COM	
2013	VICE PRESIDENT OF SAFETY AND COMPLIANCE	RYAN MCGREW	4524WRGSGR131CI	AIRGAS USA LLC	10031 CINCINNATI DAYTON RD	CINCINNATI	BUTLER	OH	45241			AIRGAS USA LLC	6055 ROCKSIDE WOODS BLVD	INDEPENDENCE	OH		44131	YES	NO	NO	NO	RYAN MCGREW	5176481751								424690						39.30182	-84.41098	016739146								AIRGAS INC	024492800	NO	RYAN.MCGREW@AIRGAS.COM	
2013	VICE PRESIDENT OF SAFETY AND COMPLIANCE	RYAN MCGREW	45147RCDSTSTRT1	AIRGAS USA LLC MIAMIVILLE	160 ST RT 126	MIAMIVILLE	CLERMONT	OH	45147			AIRGAS USA LLC MIAMIVILLE	6055 ROCKSIDE WOODS BLVD	INDEPENDENCE	OH		44131	YES	NO	NO	NO	RYAN MCGREW	5176481751	2813							325120						39.215278	-84.310526	078462969								AIRGAS INC	024492860	NO	RYAN.MCGREW@AIRGAS.COM	
2013	VICE PRESIDENT OF SAFETY AND COMPLIANCE	RYAN MCGREW	44509GGSSN1055N	AIRGAS USA LLC YOUNGSTOWN	1055 N MERIDIAN RD	YOUNGSTOWN	MAHONING	OH	44509			AIRGAS USA LLC YOUNGSTOWN	6055 ROCKSIDE WOODS BLVD	INDEPENDENCE	OH		44131	YES	NO	NO	NO	RYAN MCGREW	5176481751	5169							424690						41.12559	-80.71113	016739146								AIRGAS INC	024492860	NO	RYAN.MCGREW@AIRGAS.COM	
2013	EHS MANAGER	GREGG RICHLEY	44720JXTCC8984M	AJAX TOCCO MAGNETHERMIC CORP NORTH CANTON	8984 MERIDIAN CIR	NORTH CANTON	STARK	OH	44720			AJAX TOCCO MAGNETHERMIC CORP NORTH CANTON	8984 MERIDIAN CIR	NORTH CANTON	OH		44720	YES	NO	NO	NO	DAVE AMOS	3304336612								333994						40.91559	-81.41265	004168001								PARK OHIO HOLDINGS CORP	041067752	NO	DAMOS@AJAXTOCCO.COM	
2013	EHS MANAGER	GREGG RICHLEY	44483JXTCC1745V	AJAX TOCCO WARREN OHIO PLANT	1745 OVERLAND AVE NE	WARREN	TRUMBULL	OH	44483			AJAX TOCCO WARREN OHIO PLANT	1745 OVERLAND AVE NE	WARREN	OH		44483	YES	NO	NO	NO	GREGG RICHLEY	3303728760	3567							333994						41.25869	-80.79645	004168001								PARK OHIO HOLDINGS CORP	041067752	NO	GRICHLEY@AJAXTOCCO.COM	
2013	SENIOR ENVIRONMENTAL ENGINEER	CHRIS POTTS	45043RMCNC1801C	AK STEEL CORP	1801 CRAWFORD ST	MIDDLETOWN	BUTLER	OH	45044			AK STEEL CORP	1801 CRAWFORD ST	MIDDLETOWN	OH		45044	YES	NO	NO	NO	BARRY L. RACEY	5134252749	3312							331110						39.480699	-84.381196	606072130								AK STEEL CORP	606072130	NO	BARRY.RACEY@AKSTEEL.COM	
2013	GENERAL MANAGER - OPERATIONS	NICHOLAS KOHLHAS	44901MPRDT913BO	AK STEEL CORP    MANSFIELD WO RKS	913 BOWMAN ST	MANSFIELD	RICHLAND	OH	44901			AK STEEL CORP    MANSFIELD WO RKS	913 BOWMAN ST	MANSFIELD	OH		44901	YES	NO	NO	NO	BARRY RACEY	5134252749	3312							331111						40.78449	-82.52327	606072130								AK STEEL CORP	606072130	NO	BARRY.RACEY@AKSTEEL.COM	
2013	GENERAL MANAGER - OPERATIONS	MICHAEL KERCSMAR	43701RMCDV1724L	AK STEEL CORP - ZANESVI LLE WORKS	1724 LINDEN AVE	ZANESVILLE	MUSKINGUM	OH	43701			AK STEEL CORP - ZANESVI LLE WORKS	PO BOX 1520	ZANESVILLE	OH		437011520	YES	NO	NO	NO	BARRY RACEY	5134252749	3316							331111						39.96136	-82.00034	606072130								AK STEEL CORP	606072130	NO	BARRY.RACEY@AKSTEEL.COM	
2013	GENERAL MANAGER - OPERATIONS	MICHAEL KERCSMAR	43812CSHCTSTATE	AK STEEL CORP COSHOCTON WORKS	17400 STATE RT 16	COSHOCTON	COSHOCTON	OH	43812			AK STEEL CORP COSHOCTON WORKS	17400 STATE RT 16	COSHOCTON	OH		43812	YES	NO	NO	NO	BARRY RACEY	5134252749	3316							331111						40.206799	-81.883321	004294567								AK STEEL CORP	606072130	NO	BARRY.RACEY@AKSTEEL.COM	
2013	VICE PRESIDENT OPERATIONS	ERIK ANDERSON	43465KTBWL34EBR	AK TUBE WALBRIDGE	30400 E BROADWAY	WALBRIDGE	WOOD	OH	43465			AK TUBE WALBRIDGE	30400 E BROADWAY	WALBRIDGE	OH		43465	YES	NO	NO	NO	ALAN MCCOY	5134255000								331210						41.59257	-83.51268	034278916								AK STEEL CORP		NO	MCCOY@AKSTREEL.COM	
2013	VICE PRESIDENT	WILLIAM SILVER	44224KRCHM4239H	AKROCHEM CORP	4239 HUDSON DR	STOW	SUMMIT	OH	44224			AKROCHEM CORP	4239 HUDSON DR	STOW	OH		44224	YES	NO	NO	NO	WILLIAM H. SILVER	3305352100	5169							424690						41.183	-81.47134	039998992										NO	BILLSILVER@AKROCHEM.COM	
2013	SENIOR VICE PRESIDENT OF OPERATIONS	RICHARD WUESCHER	44691KRNBSBOWMA	AKRON BRASS	1415 E BOWMAN ST	WOOSTER	WAYNE	OH	44691			AKRON BRASS	343 VENTURE BLVD.P.O. BOX 86	WOOSTER	OH		44691	YES	NO	NO	NO	RICHARD WUESCHER	3302877002	3429							332919						40.803917	-81.919768	071109094								AKRON BRASS		NO	RWUESCHER@AKRONBRASS.COM	
2013	SENIOR VICE PRESIDENT OF OPERATIONS	RICHARD WUESCHER	44691KRNBSOLDMA	AKRON BRASS	1615 OLD MANSFIELD RD	WOOSTER	WAYNE	OH	44691			AKRON BRASS	PO BOX 86	WOOSTER	OH		44691	YES	NO	NO	NO	RICK WUESCHER	3302877002	3429							332919						40.80348	-81.96617	071109094								AKRON BRASS		NO	RWUESCHER@AKRONBRASS.COM	
2013	CEO	MICHAEL GIUSTINO	44321KRNDS3291S	AKRON DISPERSIONS INC	3291 SAWMILL RD	COPLEY	SUMMIT	OH	443210295			AKRON DISPERSIONS INC	PO BOX 4195	AKRON	OH		443210295	YES	NO	NO	NO	MICHAEL J. GIUSTINO	3306660045	2899							325998						41.103669	-81.637386	045212776								AKRON DISPERSIONS INC	045212776	NO	MGIUSTINO@AKRONDISPERSIONS.COM	
2013	VP OF ADMINISTRATION	MICHAEL SUMMERS	44301KRNPN1390F	AKRON PAINT & VARNISH INC	1390 FIRESTONE PKWY	AKRON	SUMMIT	OH	44301			AKRON PAINT & VARNISH INC	1390 FIRESTONE PKWY	AKRON	OH		44301	YES	NO	NO	NO	MICHAEL SUMMERS	3307738911	2851							325510						41.04902	-81.52919	004163374										NO	MSUMMERS@APVCOATINGS.COM	
2013	SITE MANAGER	MICHAEL FROMAN	43211HNNCH1313W	AKZO NOBEL COATINGS INC	1313 WINDSOR AVE	COLUMBUS	FRANKLIN	OH	432112898			AKZO NOBEL COATINGS INC	PO BOX 489	COLUMBUS	OH		432160489	YES	NO	NO	NO	JOHN GABREK	6142981831	2851	2821						325211						39.994971	-82.972089	021973748								AKZO NOBEL NV	021973748	NO	JOHN.GABREK@CBS.AKZONOBEL.COM	
2013	SITE OPERATIONS MANAGER	NATHAN NORRIS	44839THGLD300SP	AKZO NOBEL COATINGS INC	300 SPROWL RD	HURON	ERIE	OH	44839			AKZO NOBEL COATINGS INC	300 SPROWL RD	HURON	OH		44839	YES	NO	NO	NO	NATE NORRIS	4194338509	2851							325211						41.37309	-82.54122									AKZO NOBEL NV	151334422	NO	NATE.NORRIS@AKZONOBEL.COM	
2013	VP OPERATIONS	DANIEL KLOOS	44432LBCFN230WM	ALBCO FOUNDRY INC	230 W MAPLE ST	LISBON	COLUMBIANA	OH	44432			ALBCO FOUNDRY INC	230 W MAPLE ST	LISBON	OH		44432	YES	NO	NO	NO	DANIEL F. KLOOS	3304247716	3369							331525						40.76989	-80.76968	004155832		OHR000001610		OHR000003						NO	JOE@ALBCO.COM	
2013	SITE COMPLIANCE MANAGER	JENNIFER FORDICK	44087LBMRL1664E	ALBEMARLE CORP	1664 E HIGHLAND RD	TWINSBURG	SUMMIT	OH	44087			ALBEMARLE CORP	1664 E HIGHLAND RD	TWINSBURG	OH		44087	YES	NO	NO	NO	JENNIFER FORDICK	8146847228								325199						41.297763	-81.462825	825080096								ALBEMARLE CORP	825080096	NO	JENNIFER.FORDICK@ALBEMARLE.COM	
2013	PLANT MANAGER	DEAN MERIDEW	44203BCRSR842NO	ALCOA BARBERTON (B&C RESEARCH	842 NORTON AVE	BARBERTON	SUMMIT	OH	44203			ALCOA BARBERTON (B&C RESEARCH	842 NORTON AVE	BARBERTON	OH		44203	NO	YES	NO	NO	MIKE VIDEMSEK	3308484000	3541							336120						41.02468	-81.61479	157280595		OHD987024114		OHR000003				ALCOA INC	001339472	NO	MICHAEL.VIDEMSEK@ALCOA.COM	
2013	LOCATION MANAGER	MICHAEL KINNEY	44105LMNMC1600H	ALCOA CLEVELAND WORKS	1600 HARVARD AVE	CUYAHOGA HEIGHTS	CUYAHOGA	OH	44105			ALCOA CLEVELAND WORKS	1600 HARVARD AVE	CUYAHOGA HEIGHTS	OH		44105	YES	NO	NO	NO	MICHELLE MATEJKA	2166414290	3463							332112						41.4476	-81.67533	083321299								ALCOA INC	001339472	NO	MICHELLE.MATEJKA@ALCOA.COM	
2013	OPERATIONS MANAGER	GARY HANTZ	44102LCNND7990B	ALCON INDUSTRIES INC	7990 BAKER AVE	CLEVELAND	CUYAHOGA	OH	44102			ALCON INDUSTRIES INC	7990 BAKER AVE	CLEVELAND	OH		44102	YES	NO	NO	NO	GARY HANTZ	2169611100	3325							331513						41.48553	-81.73993	087707642										NO	GHANTZ@ALCONALLOYS.COM	
2013	DIRECTOR OF OPERATIONS	ELWOOD HANNOLD	44683NWPRTCOUNT	ALERIS ROLLED PRODUCTS INC	7319 NEWPORT RD SE	UHRICHSVILLE	TUSCARAWAS	OH	44683			ALERIS ROLLED PRODUCTS INC	7319 NEWPORT RD SE	UHRICHSVILLE	OH		44683	YES	NO	NO	NO	ELWOOD HANNOLD	7409228329	3353							331315	331314					40.374422	-81.348933	824963214								ALERIS ROLLED PRODUCTS INC.	623977514	NO	ELWOOD.HANNOLD@ALERIS.COM	
2013	DIRECTOR, OPERATIONS	STEVEN KIRKLAND	43103RYNLDREYNO	ALERIS ROLLED PRODUCTS INC	1 REYNOLDS RD	ASHVILLE	PICKAWAY	OH	43103			ALERIS ROLLED PRODUCTS INC	1 REYNOLDS RD	ASHVILLE	OH		43103	YES	NO	NO	NO	STEVE KIRKLAND	7409831319	3448	3441						332311						39.72928	-82.96726	103532953								ALERIS INTERNATIONAL INC	103532953	NO	STEVE.KIRKLAND@ALERIS.COM	
2013	DIRECTOR OF ENVIRONMENTAL MANAGMENT SYST;EMS	JAMES BUCKERT	44035RCKCR320HU	ALERIS SPECIALTY PRODUCTS INC	320 HURON ST	ELYRIA	LORAIN	OH	44035			ALERIS SPECIALTY PRODUCTS INC	320 HURON ST	ELYRIA	OH		44035	YES	NO	NO	NO	DENNIS GUILMETTE	3304683500	3334							331314						41.37352	-82.12467	963915272								ALERIS RECYCLING INC.	057896847	NO	DENNIS.GUILMETTE@ALERIS.COM	
2013	DIRECTOR OF MANUFACTURING	DANIEL RANGEL	44084RCKCR2639E	ALERIS SPECIALTY PRODUCTS INC	2639 E WATER ST	ROCK CREEK	ASHTABULA	OH	44084			ALERIS SPECIALTY PRODUCTS INC	2639 E WATER ST	ROCK CREEK	OH		44084	YES	NO	NO	NO	DANIEL RANGEL	2169113671	3334							331314						41.65854	-80.84546	797780343								ALERIS SPECIALTY PRODUCTS INC.	801598699	NO	DANIEL.RANGEL@ALERIS.COM	
2013	CORPORATE HUMAN RESOURCE MANAGER	KIMBERLY SCHUMM	43555LXPRD19911	ALEX PRODUCTS INC	19911 COUNTY RD T	RIDGEVILLE CORNERS	HENRY	OH	43555			ALEX PRODUCTS INC	19911 COUNTY RD T	RIDGEVILLE CORNERS	OH		43555	YES	NO	NO	NO	MICAH FRANKENFIELD	4196330662								332999						41.427827	-84.246926	068113703								ALEX PRODUCTS INC	068113703	NO	MICAH.FRANKENFIELD@ALEXPRODUCTS.CC	
2013	CORPORATE HUMAN RESOURCE MANAGER	KIMBERLY SCHUMM	45879LXPRD81WGA	ALEX PRODUCTS INC	810 W GASSER RD	PAULDING	PAULDING	OH	45879			ALEX PRODUCTS INC	810 W GASSER RD	PAULDING	OH		45879	YES	NO	NO	NO	MICAH FRANKENFIELD	4196330662								332999						41.149873	-84.596425	023631554								ALEX PRODUCTS INC	023631554	NO	MICAH.FRANKENFIELD@ALEXPRODUCTS.CC	
2013	PRESIDENT	GILBERT WELLMAN	44094LLCRF4839E	ALL-CRAFT WELLMAN PRODUCTS INC	4839 E 345TH ST	WILLOUGHBY	LAKE	OH	44094			ALL-CRAFT WELLMAN PRODUCTS INC	4839 E 345TH ST	WILLOUGHBY	OH		44094	YES	NO	NO	NO	GIL WELLMAN	4409469646	3953	3451	3499					339943	332721	339950				41.62714	-81.44147	004155545										NO	GIL@ALL-CRAFTWELLMAN.COM	
2013	VICE PRESIDENT	DENNIS WHITAKER	4413WLLTYP769BN	ALL-TYPE WELDING & FABRICATION	7690 BOND ST	GLENWILLOW	CUYAHOGA	OH	44139			ALL-TYPE WELDING & FABRICATION	7690 BOND ST	GLENWILLOW	OH		44139	YES	NO	NO	NO	DENNIS WHITAKER	4403933990								332999	333999					41.35192	-81.4746	089247464										NO	DWHITAKER@ATWF-INC.COM	
2013	SENIOR DIRECTOR OF ENVIRONMENTAL SERVICES	DENISE WOOD	43031LLNCC143CO	ALLIANCE CARPET CUSHION - JOHNSTOWN OH	143 COMMERCE BLVD	JOHNSTOWN	LICKING	OH	43031			ALLIANCE CARPET CUSHION - JOHNSTOWN OH	PO BOX 1006 (ATTN ENVIRONMENTAL SERVICES)	DALTON	GA		30722	YES	NO	NO	NO	DENISE WOOD	7064288118	3086							326150						40.156819	-82.673526	014540079								MOHAWK INDUSTRIES INC	612757070	NO	DENISE_WOOD@MOHAWKIND.COM	
2013	GENERAL MANAGER	DOUGLAS BATTERSHELL	44601MRCNS1001E	ALLIANCE CASTINGS CO LLC	1001 E BROADWAY ST	ALLIANCE	STARK	OH	44601			ALLIANCE CASTINGS CO LLC	1001 E BROADWAY ST	ALLIANCE	OH		44601	YES	NO	NO	NO	JIMMY LANER	3308296280	3325							331513						40.917884	-81.090503	140207726								OHIO CASTINGS CO LLC		NO	JLANER@ALLIANCECASTINGS.COM	
2013	VICE PRESIDENT TUBING OPERATIONS	DAVID BRAUTIGAN	44601BBCCK640KE	ALLIANCE TUBULAR PRODUCTS LLC	640 KEYSTONE ST	ALLIANCE	STARK	OH	44601			ALLIANCE TUBULAR PRODUCTS LLC	640 KEYSTONE ST	ALLIANCE	OH		44601	YES	NO	NO	NO	MURRAY ROSE	2702204793	3317							331210						40.92831	-81.09623	786895341								PTC ALLIANCE HOLDINGS CORP	964516137	NO	MURRAY.ROSE@PTCALLIANCE.COM	
2013	VICE PRESIDENT ENVIRONMENTAL	BETH MOWREY	4413WLLDCR2214W	ALLIED CORP PLANT 76	2214 W THIRD ST	CLEVELAND	CUYAHOGA	OH	44113			ALLIED CORP PLANT 76	PO BOX 266	THORNVILLE	OH		43076	YES	NO	NO	NO	BETH MOWREY	7402465009								324121						41.487	-81.68451	018343152								OLDCASTLE INC	037176591	NO	BMOWREY@SHELLYCO.COM	
2013	SAFETY, HEALTH, AND ENVIRONMENT MANAGER	JEFFREY PFEIFFER	43026LLDMN2700S	ALLIED MINERAL PRODUCTS INC	2700 SCIOTO PKWY	COLUMBUS	FRANKLIN	OH	43221			ALLIED MINERAL PRODUCTS INC	2700 SCIOTO PKWY	COLUMBUS	OH		43221	YES	NO	NO	NO	WILLIAM M. CARMEAN	6148760244	3297							327125						40.00855	-83.11094	041078106										NO	WMC@ALLIEDMIN.COM	
2013	VICE PRESIDENT OF OPERATIONS	ROBERT RUIHLEY	43506LLDML222NU	ALLIED MOULDED PRODUCTS INC	222 N UNION ST	BRYAN	WILLIAMS	OH	435060587			ALLIED MOULDED PRODUCTS INC	222 N UNION ST	BRYAN	OH		43506-0587	YES	NO	NO	NO	JAMES HUSTON	4196364217	3089							326199						41.47679	-84.53643	005049317										NO		
2013	VP MANUFACTURING	ALLYN LUCE	43506LTNLH215WI	ALTENLOH BRINK & CO US INC	02105 WILLIAMS COUNTY RD 12-C	BRYAN	WILLIAMS	OH	43506			ALTENLOH BRINK & CO US INC	02105 WILLIAMS COUNTY RD 12-C	BRYAN	OH		43506	YES	NO	NO	NO	ALLYN LUCE	4196366715								332722						41.44401	-84.59637	832865583										NO	ALUCE@TRUFAST.COM	
2013	VP OPERATIONS	DOUGLAS CIRBUS	44420LTRNC712TR	ALTRONIC LLC	712 TRUMBULL AVE	GIRARD	TRUMBULL	OH	44420			ALTRONIC LLC	712 TRUMBULL AVE	GIRARD	OH		44420	YES	NO	NO	NO	DOUGLAS CIRBUS	3305459768	3694	3823						333618						41.14115	-80.67652	041635731										NO	DOUG.CIRBUS@HOERBIGER.COM	
2013	PRESIDENT	PERCY KANGA	4426WLMNMW446WE	ALUMINUM WHEEL TECHNOLOGIES INC	446 W LAKE ST	RAVENNA	PORTAGE	OH	44266			ALUMINUM WHEEL TECHNOLOGIES INC	446 W LAKE ST	RAVENNA	OH		44266	YES	NO	NO	NO	PERCY KANGA	3302967900								331315						41.14752	-81.24681	788140338										NO	PERCY.KANGAMFG@SBCGLOBAL.NET	
2013	PURCHASING AGENT	CAROL SOJKA	44130MCNTR5909W	AMAC ENTERPRISES INC	5925 W 130 TH ST	PARMA	CUYAHOGA	OH	44130			AMAC ENTERPRISES INC	5909 W 130 TH ST	PARMA	OH		44130	YES	NO	NO	NO	THOMAS CHIMPLES	2163621880	3471	3398						332813						41.401771	-81.784251	994161733										NO	PURCHASING@AMACENT.COM	
2013	VICE PRESIDENT - OPERATIONS	DAVID HAMMOND	4428WMRCNG135US	AMERICAN AUGERS INC	135 US RT 42	WEST SALEM	ASHLAND	OH	44287			AMERICAN AUGERS INC	PO BOX 814	WEST SALEM	OH		44287	YES	NO	NO	NO	DAVID HAMMOND	4198691819	3533							333132						40.93869	-82.15134	055828289								ASTEC INDUSTRIES INC	061308649	NO	DHAMMOND@AMERICANAUGERS.COM	
2013	VICE PRESIDENT, ENGINEERING	ALAN BAETHKE	4409WMRCNB4428H	AMERICAN BRAZING DIV	4428 HAMANN PKWY	WILLOUGHBY	LAKE	OH	440945628			AMERICAN BRAZING DIV	4428 HAMANN PKWY	WILLOUGHBY	OH		44094-5628	YES	NO	NO	NO	STEVE BIZUB	3144504361								332811						41.63501	-81.42147	006267769								PAULO PRODUCTS CO	006267769	NO	SBIZUB@PAULO.COM	
2013	PRESIDENT	GERALD GOLDSTEIN	44115MRCNB2941E	AMERICAN BRONZE CORP	2941 BROADWAY AVE	CLEVELAND	CUYAHOGA	OH	44115			AMERICAN BRONZE CORP	2941 BROADWAY AVE	CLEVELAND	OH		44115	YES	NO	NO	NO	GERALD GOLDSTEIN	2163417800	3366							331525						41.481352	-81.665451	004183182										NO	ABC@AMBROCO.COM	
2013	VICE PRESIDENT	PATRICK MILITELLO	44870MRCNC1110E	AMERICAN COLORS INC DISPERSION PLANT SANDUSKY OHIO	1110 EDGEWATER AVE	SANDUSKY	ERIE	OH	44870			AMERICAN COLORS INC DISPERSION PLANT SANDUSKY OHIO	PO BOX 397	SANDUSKY	OH		44871	YES	NO	NO	NO	JIM SAYRE	4196214002	2851							325510						41.44269	-82.75132									AMERICAN COLORS INC	077751535	NO	J.SAYRE@AMERICANCOLORS.COM	
2013	DIRECTOR - AIR QUALITY SERVICES	JOHN HENDRICKS	43913CRDNL306CO	AMERICAN ELECTRIC POWER CARDINAL PLANT	306 COUNTY RD 7 E	BRILLIANT	JEFFERSON	OH	43913			AMERICAN ELECTRIC POWER CARDINAL PLANT	1 RIVERSIDE PLAZA ATTN: MICHAEL D BAYES	COLUMBUS	OH		43215	YES	NO	NO	NO	CARMEN PRATI-MILLER	7406997842	4911							221112						40.2522	-80.6486	051139202								AMERICAN ELECTRIC POWER	051519973	NO	CAPRATIMILLER@AEP.COM	
2013	DIRECTOR - AIR QUALITY SERVICES	JOHN HENDRICKS	43811MRCNL47201	AMERICAN ELECTRIC POWER CONESVILLE PLANT	47201 COUNTY RD 273	CONESVILLE	COSHOCTON	OH	43811			AMERICAN ELECTRIC POWER CONESVILLE PLANT	1 RIVERSIDE PLAZA ATTN: MICHAEL D BAYES	COLUMBUS	OH		43215	YES	NO	NO	NO	VIKKI MICHALSKI	6148836925	4911							221112						40.185978	-81.878554	069068450	194260238							AMERICAN ELECTRIC POWER	006979868	NO	VRMICHALSKI@AEP.COM	
2013	DIRECTOR - AIR QUALITY SERVICES	JOHN HENDRICKS	45620MRCNL7397N	AMERICAN ELECTRIC POWER GAVIN PLANT	7397 N STATE RT 7	CHESHIRE	GALLIA	OH	45620			AMERICAN ELECTRIC POWER GAVIN PLANT	1 RIVERSIDE PLAZA ATTN MICHAEL D BAYES	COLUMBUS	OH		43215	YES	NO	NO	NO	JEFF RENNIE	7405941928	4911							221112						38.9347	-82.1158	046877270	081314874							AMERICAN ELECTRIC POWER	006979868	NO	JJRENNIE@AEP.COM	
2013	DIRECTOR - AIR QUALITY SERVICES	JOHN HENDRICKS	45715MRCNLCOUNT	AMERICAN ELECTRIC POWER MUSKINGUM RIVER PLANT	COUNTY LN RD #32	BEVERLY	WASHINGTON	OH	45715			AMERICAN ELECTRIC POWER MUSKINGUM RIVER PLANT	1 RIVERSIDE PLAZA ATTN: MICHAEL D BAYES	COLUMBUS	OH		43215	YES	NO	NO	NO	VIKKI MICHALSKI	6148836925	4911							221112						39.588493	-81.682523	063765341	081564619							AMERICAN ELECTRIC POWER	006979868	NO	VRMICHALSKI@AEP.COM	
2013	DIRECTOR - AIR QUALITY SERVICES	JOHN HENDRICKS	43137MRCNL9301U	AMERICAN ELECTRIC POWER PICWAY PLANT	9301 U.S. RT 23	LOCKBOURNE	PICKAWAY	OH	43137			AMERICAN ELECTRIC POWER PICWAY PLANT	1 RIVERSIDE PLAZA ATTN:MICHAEL D BAYES	COLUMBUS	OH		43215	YES	NO	NO	NO	VIKKI MICHALSKI	6148836925	4911							221112						39.794332	-83.008909	168817039								AMERICAN ELECTRIC POWER	006979868	NO	VRMICHALSKI@AEP.COM	
2013	ASS'T DIRECTOR OF ENVIRONMENTAL COMPLIANCE	CHARLES SHESTAK	4371WMRCNN43521	AMERICAN ENERGY CORP	43521 MAYHUGH HILL RD	BEALLSVILLE	MONROE	OH	43716			AMERICAN ENERGY CORP	43521 MAYHUGH HILL RD	BEALLSVILLE	OH		43716	YES	NO	NO	NO	CHARLIE SHESTAK	7403383100								212112						39.89493	-81.015124	004962432										NO	CSHESTAK@COALSOURCE.COM	
2013	PRESIDENT	ERIN FAUBER	44256MRCNM835WE	AMERICAN METAL CHEMICAL CORP	835 W SMITH RD	MEDINA	MEDINA	OH	44256			AMERICAN METAL CHEMICAL CORP	835 W SMITH RD	MEDINA	OH		44256	YES	NO	NO	NO	TED H. FAUBER	3307254501	2899							325998						41.136146	-81.886585	060429990										NO	PATTI@AMCOR-USA.COM	
2013	PRESIDENT	KONSTANTINOS DOTSIKAS	44110MRCNM1088I	AMERICAN METAL COATINGS INC	1088 IVANHOE RD	CLEVELAND	CUYAHOGA	OH	44110			AMERICAN METAL COATINGS INC	1088 IVANHOE RD	CLEVELAND	OH		44110	YES	NO	NO	NO	DINO DOTSIKAS	2164513131	3471							332813						41.55049	-81.57162											NO	DINO@AMERICAN-METAL.COM	
2013	ENV SUP	MICHAEL RADCA	44145MRCNM1000C	AMERICAN METALS CORP	1000 CROCKER RD	WESTLAKE	CUYAHOGA	OH	44145			AMERICAN METALS CORP	1000 CROCKER RD	WESTLAKE	OH		44145	YES	NO	NO	NO	MICHAEL W. RADCA	4408927316	3479							332812						41.47508	-81.95042	004528873								USG CORP	148310014	NO	MRADCA@USG.COM	
2013	ENGINEERING MANAGER	JOHN WOODS	45103MRCLM4288A	AMERICAN MICRO PRODUCTS	4288 ARMSTRONG BLVD	BATAVIA	CLERMONT	OH	45103			AMERICAN MICRO PRODUCTS	4288 ARMSTRONG BLVD	BATAVIA	OH		45103	YES	NO	NO	NO	JOHN WOODS	5137357128								332710						39.08105	-84.21738	004234993								AMERICAN MICRO PRODUCTS		NO	JWOODS@AMERICAN-MICRO.COM	
2013	VICE PRESIDENT OF OPERATIONS	JAMES MARTIN	4407WMRCNR892CA	AMERICAN ROLL FORMED PRODUCTS	892 CALLENDAR BLVD	PAINESVILLE	LAKE	OH	44077			AMERICAN ROLL FORMED PRODUCTS	892 CALLENDAR BLVD	PAINESVILLE	OH		44077	YES	NO	NO	NO	US COMPLIANCE CORPORATION	9522523000								332114						41.72653	-81.28321	004173407								AMERICAN ROLLED FORMED PRODUCTS		NO	EPCRA@USCOMPLIANCE.COM	
2013	VICE PRESIDENT OF OPERATIONS	JAMES MARTIN	4407WMRCNR141WW	AMERICAN ROLL FORMED PRODUCTS	141 W WALNUT BLVD	PAINESVILLE	LAKE	OH	44077			AMERICAN ROLL FORMED PRODUCTS	141 W WALNUT BLVD	PAINESVILLE	OH		44077	YES	NO	NO	NO	US COMPLIANCE CORPORATION	9522523000								332114						41.71532	-81.24463	004173407								AMERICAN ROLLED FORMED PRODUCTS		NO	EPCRA@USCOMPLIANCE.COM	
2013	ENVIRONMENTAL, HEATH, AND SAFETY SENIOR MGR.	DAISY CHILDS	43074SNBRY707WE	AMERICAN SHOWA INC	707 W CHERRY ST	SUNBURY	DELAWARE	OH	43074			AMERICAN SHOWA INC	707 W CHERRY ST	SUNBURY	OH		43074	YES	NO	NO	NO	DAISY CHILDS	7409657143	3714	3751						336330						40.25155	-82.87339	178297297								AMERICAN SHOWA INC		NO	DCHILDS@AMSHOWA.COM	
2013	ENVIRONMENTAL, HEALTH & SAFETY MANAGER	MICHAEL THELEN	45107MRCNS3343S	AMERICAN SHOWA INC	960 CHERRY ST	BLANCHESTER	CLINTON	OH	45107			AMERICAN SHOWA INC	960 CHERRY ST	BLANCHESTER	OH		45107	YES	NO	NO	NO	IWAN GIBBY	9377831746	3714							336330						39.29865	-83.96449	827516030								AMERICAN SHOWA INC		NO		
2013	EHS MANAGER	PETER ANSELMI	44146MRCNS26300	AMERICAN SPRING WIRE CORP	26300 MILES RD	BEDFORD HEIGHTS	CUYAHOGA	OH	44146			AMERICAN SPRING WIRE CORP	26300 MILES RD	BEDFORD HEIGHTS	OH		44146	YES	NO	NO	NO	PETER ANSELMI	2162924620	3315							331222						41.42232	-81.492529	042708586								AMERICAN SPRING WIRE CORP		NO	PANSELMI@AMSPRINGWIRE.COM	
2013	ENVIRONMENTAL, HEALTH AND SAFETY MANAGER	GUY DONZELLA	44903CRNPL41CAI	AMERICAN STANDARD BRANDS INC	41 CAIRNS RD	MANSFIELD	RICHLAND	OH	44903			AMERICAN STANDARD BRANDS INC	41 CAIRNS RD	MANSFIELD	OH		44903	YES	NO	NO	NO	RANDY SWANDER	4193372137	3088							326191						40.80565	-82.51501	115373227										NO	SWANDERR@AMERICANSTANDARD.COM	
2013	DIRECTOR OF OPERATIONS	DAN CADOTTE	44111MRCNT12314	AMERICAN TANK & FABRICATING CO	12314 ELMWOOD AVE NW	CLEVELAND	CUYAHOGA	OH	44111			AMERICAN TANK & FABRICATING CO	12314 ELMWOOD AVE NW	CLEVELAND	OH		44111	YES	NO	NO	NO	STEVE KNOBLE	2166883148	3443	3498						332420						41.46738	-81.77398	004152708										NO	KNOBLES@ATFCO.COM	
2013	VICE PRESIDENT	TODD MOORE	44857MDWST4832P	AMERICAN TIMBER & STEEL	4832 PLANK RD	NORWALK	HURON	OH	44857			AMERICAN TIMBER & STEEL	4832 PLANK RD	NORWALK	OH		44857	YES	NO	NO	NO	TODD C. MOORE	4196681610	2491							321114						41.27251	-82.61491	119284180										NO	TODD@AMTIM.COM	
2013	PRESIDENT	DOUGLAS CLARK	45154TRNTYFRONT	AMERICAN TRAILER WORKS OHIO LLC	200 FRONT ST	MOUNT ORAB	BROWN	OH	451548964			AMERICAN TRAILER WORKS OHIO LLC	200 FRONT ST	MOUNT ORAB	OH		45154-8964	YES	NO	NO	NO	DOUGLAS CLARK	9037856879	3743							336212						39.02923	-83.91721									PJ TRAILERS MFG. CO.		NO	DOUGC@PJTRAILERS.COM	
2013	VP & CTO	RICKARD PFEIFER	45365THSTL1501W	AMERICAN TRIM	1501 W MICHIGAN ST	SIDNEY	SHELBY	OH	45365			AMERICAN TRIM	1005 W GRAND AVE	LIMA	OH		45801	YES	NO	NO	NO	RICK PFEIFER	4199964964	3469	3714						332812						40.28789	-84.17749	938695020								AMERICAN TRIM	938695020	NO	RPFEIFER@AMTRIM.COM	
2013	VP & CTO	RICKARD PFEIFER	45895SPRRMKREIN	AMERICAN TRIMLLC PRODUCT CENTER 3	317 E KREIN ST	WAPAKONETA	AUGLAIZE	OH	45895			AMERICAN TRIMLLC PRODUCT CENTER 3	317 E KREIN ST	WAPAKONETA	OH		45895	YES	NO	NO	NO	CLIFFORD FALLS	9374946248	3471							332813						40.562394	-84.19034	938695020								AMERICAN TRIM LLC	938695020	NO	CFALLS@AMTRIM.COM	
2013	QUALITY DIRECTOR	JEFFREY DUER	44138MRCNW7951B	AMERICAN WIRE & CABLE	7951 BRONSON RD	OLMSTED FALLS	CUYAHOGA	OH	44138			AMERICAN WIRE & CABLE	7951 BRONSON RD	OLMSTED FALLS	OH		44138	YES	NO	NO	NO	DAVID MCCLAIN	4402351140	3089							335929						41.37611	-81.967234									AMERICAN WIRE & CABLE CO		NO	DAVIDMCCLAIN@AWCC.COM	
2013	SITE MANAGER	CARL DARLING	4563WMRCSS925CU	AMERICAS STYRENICS LLC	925 COUNTY RD 1A	IRONTON	LAWRENCE	OH	45638			AMERICAS STYRENICS LLC	925 COUNTY RD 1A	IRONTON	OH		45638	YES	NO	NO	NO	CARL DARLING	7403028679								325211						38.575	-82.791667	825292100								AMERICAS STYRENICS LLC	825292100	NO	CFDARLING@AMSTY.COM	
2013	PLANT MANAGER	KENNETH BOWEN	45750CHVRNROUTE	AMERICAS STYRENICS LLC	17401 STATE RT SEVEN S	MARIETTA	WASHINGTON	OH	45750			AMERICAS STYRENICS LLC	PO BOX 1000	MARIETTA	OH		45750	YES	NO	NO	NO	IVIN ROHRER	7407600669	2821							325211						39.3732	-81.50852	825292100								AMERICAS STYRENICS LLC	825292100	NO	IEROHRER@AMSTY.COM	
2013	DIRECTOR GLOBAL MANUFACTURING	JAMES MILK	44224MRCHM155ES	AMERICHEM INC SCP	155 E STEELS CORNERS RD	CUYAHOGA FALLS	SUMMIT	OH	44224			AMERICHEM INC SCP	155 E STEELS CORNERS RD	CUYAHOGA FALLS	OH		44224	YES	NO	NO	NO	LINDA MOORE-BOYETT	3309294213	3087							325991						41.18099	-81.5042	004467387								AMERICHEM INC		NO	LBOYETT@AMERICHEM.COM	
2013	PLANT MANAGER	RONALD GASIOR	45895MTKNCRTE33	AMETEK INC WESTCHESTER PLASTICS	14097 CEMETERY RD	WAPAKONETA	AUGLAIZE	OH	45895			AMETEK INC WESTCHESTER PLASTICS	PO BOX 385	WAPAKONETA	OH		45895	YES	NO	NO	NO	RON GASIOR	4197393224	3087							325991						40.556873	-84.164524	068093731								AMETEK INC	001345149	NO	RON.GASIOR@AMETEK.COM	
2013	DIVISION VICE PRESIDENT/BUSINESS UNIT MANAGER	GEORGE ARDOLINO	43085MTKSL875DE	AMETEK SOLIDSTATE CONTROLS	875 DEARBORN DR	COLUMBUS	FRANKLIN	OH	430851596			AMETEK SOLIDSTATE CONTROLS	875 DEARBORN DR	COLUMBUS	OH		43085-1596	YES	NO	NO	NO	DAN R WALTERS	6148467500	3699							335999						40.11455	-82.99283	001345149								AMETEK INC	001345149	NO	DAN.WALTERS@AMETEK.COM	
2013	PRESIDENT	MITCHELL KIDD	43725SHLDLSTATE	AMG VANADIUM INC	60790 SOUTHGATE RD	CAMBRIDGE	GUERNSEY	OH	43725			AMG VANADIUM INC	PO BOX 310	CAMBRIDGE	OH		43725	YES	NO	NO	NO	RICHARD CALDWELL	7404354665	3313							331112						39.98233	-81.56537	621642094								AMG VANADIUM INC	001374669	NO	RCALDWELL@AMG-V.COM	
2013	PLANT MANAGER	MICHAEL BENVIE	43056QNTMC1855J	AMPACET CORP	1855 JAMES PKWY	HEATH	LICKING	OH	43056			AMPACET CORP	1855 JAMES PKWY	HEATH	OH		43056	YES	NO	NO	NO	DENISE R. HOLL	9146316600	3087							325991						40.0009	-82.47536	081002871								AMPACET CORP	081002871	NO	DENISE.HOLL@AMPACET.COM	
2013	ENVIRONMENTAL MANAGER	KIM MYERS	43125GRFFN3900B	AMSTED RAIL CO INC	3900 BIXBY RD	GROVEPORT	FRANKLIN	OH	43125			AMSTED RAIL CO INC	3900 BIXBY RD	GROVEPORT	OH		43125	YES	NO	NO	NO	ROBERT RIBBING	6182256419	3325							331513						39.87284	-82.90247	826334729								AMSTED RAIL CO INC.	826334729	NO	RRIBBING@AMSTEDRAIL.COM	
2013	VICE PRESIDENT OF OPERATIONS	TOM MCCORMICK	4620WMTKCN125RE	AMTEKCO INDUSTRIES INC N WASSERSTROM & SONS	1205 REFUGEE RD CO	COLUMBUS	FRANKLIN	OH	43207			AMTEKCO INDUSTRIES INC N WASSERSTROM & SONS	2300 LOCKBOURNE RD	COLUMBUS	OH		43207	YES	NO	NO	NO	KIM ROOT	6147378962								337127						39.91985	-82.964201	004305835										NO	KIMROOT@WASSERSTROM.COM	
2013	VICE PRESIDENT OPERATIONS, GENERAL MANAGER	ROBERT MACKAY	45071MYLNH8814T	AMYLIN OHIO LLC	8814 TRADE PORT DR	WEST CHESTER	BUTLER	OH	45071			AMYLIN OHIO LLC	8814 TRADE PORT DR	WEST CHESTER	OH		45071	YES	NO	NO	NO	JEFF BOYLE	5136452988								325412						39.33457	-84.46834	621236129								AMYLIN PHARMACEUTICALS INC	196877526	NO	JEFFREY.BOYLE@ASTRAZENECA.COM	
2013	CEO	BEN TRAVIS	43537NTRCN434WD	ANATRACE	434 W DUSSEL DR	MAUMEE	LUCAS	OH	43537			ANATRACE	434 W DUSSEL DR	MAUMEE	OH		43537	YES	NO	NO	NO	BEN TRAVIS	4197406606								325998						41.580179	-83.682137	079339062								ANATRACE PRODUCTS LLC	079339062	NO	BEN_TRAVIS@ANATRACE.COM	
2013	REGULATORY COMPLIANCE MANAGER	ALLISON MOYER	43402THNDR14357	ANDERSONS INC BG LAWN PRODUCTS	14357 W KRAMER RD	BOWLING GREEN	WOOD	OH	43402			ANDERSONS INC BG LAWN PRODUCTS	PO BOX 119	MAUMEE	OH		43537	YES	NO	NO	NO	MR. STACY SCHMIDT	4198912957	3999							339999						41.34258	-83.67652	196991731								ANDERSONS INC	196991731	NO	STACY_SCHMIDT@ANDERSONSINC.COM	
2013	REGULATORY COMPLIANCE MANAGER	ALLISON MOYER	43537THNDR507IL	ANDERSONS LAWN PRODUCTS GROUP	525 ILLINOIS AVE	MAUMEE	LUCAS	OH	43537			ANDERSONS LAWN PRODUCTS GROUP	525 ILLINOIS AVE	MAUMEE	OH		43537	YES	NO	NO	NO	MR. STACY SCHMIDT	4198912957	3999							339999						41.568335	-83.666602	196991731								THE ANDERSONS INC	196991731	NO	STACY_SCHMIDT@ANDERSONSINC.COM	
2013	GENERAL MANAGER	KEVIN LEE	43229NHSRB700ES	ANHEUSER-BUSCH	700 SCHROCK RD	COLUMBUS	FRANKLIN	OH	432291159			ANHEUSER-BUSCH	700 SCHROCK RD	COLUMBUS	OH		43229-1159	YES	NO	NO	NO	KEVIN J. LEE	6148886644	2082							312120						40.103056	-82.993056	046428405								ANHEUSER-BUSCH INBEV	098630254	NO	KEVIN.LEE@ANHEUSER-BUSCH.COM	
2013	PRESIDENT	WILLIAM RUSCH	43055NMTCC1650T	ANOMATIC CORP	1650 TAMARACK RD	NEWARK	LICKING	OH	43055			ANOMATIC CORP	1650 TAMARACK RD	NEWARK	OH		43055	YES	NO	NO	NO	WILLIAM B. RUSCH	7405222203	3471							332813						40.040732	-82.46207	069067932										NO		
2013	PRESIDENT	WILLIAM RUSCH	4303WNMTCC888IN	ANOMATIC CORP - OHIO PLANT II	8880 INNOVATION CAMPUS CT	JOHNSTOWN	LICKING	OH	43031			ANOMATIC CORP - OHIO PLANT II	8880 INNOVATION CAMPUS CT	JOHNSTOWN	OH		43031	YES	NO	NO	NO	WILLIAM B. RUSCH	7405222203								332813						40.089859	-82.748594									ANOMATIC CORP	069067932	NO		
2013	SR. MANAGER, CORPORATE EHS	RHONDA VETE	45656PGRNRCOUNT	AP GREEN REFRACTORIES	1627 PYRO RD	OAK HILL	JACKSON	OH	45656			AP GREEN REFRACTORIES	1627 PYRO RD	OAK HILL	OH		45656	YES	NO	NO	NO	RHONDA VETE	4123756848	3255							327124						38.934333	-82.561273	006504005								AP GREEN INDUSTRIES INC	006504005	NO	RVETE@ANHREFRACTORIES.COM	
2013	DIRECTOR OF OPERATIONS	MICHAEL RENFRO	45408PXDVS762WE	APEX TOOL GROUP LLC	762 W STEWART ST	DAYTON	MONTGOMERY	OH	45417			APEX TOOL GROUP LLC	762 W STEWART ST	DAYTON	OH		45417	YES	NO	NO	NO	MIKE RENFRO	9372853223	3423	3546	3568					332212						39.741761	-84.208205									APEX TOOL GROUP LLC	963348037	NO	MICHAEL.RENFRO@APEXTOOLGROUP.COM	
2013	SECRETARY TREASURER	ADRIANNE SCHEURMAN	44012PPLDS33555	APPLIED SPECIALTIES INC	33555 PIN OAK PKWY	AVON LAKE	LORAIN	OH	44012			APPLIED SPECIALTIES INC	PO BOX 307	AVON LAKE	OH		44012	YES	NO	NO	NO	TERRY SCHEURMAN	4409339442	2899							325998						41.48166	-82.03946	013530902										NO	SCHEURMAN.TERRY@APPLIEDSPECIALTIES.COM	
2013	PLANT MANAGER	ALAN NEWBRIGHT	45449PPLTN1030W	APPVION INC	1030 W ALEX BELL RD	WEST CARROLLTON	MONTGOMERY	OH	454491923			APPVION INC	1030 W ALEX BELL RD	WEST CARROLLTON	OH		45449-1923	YES	NO	NO	NO	ALAN NEWBRIGHT	9378477223	2672							322220						39.652125	-84.186707	112889456								APPVION INC	089581557	NO	ANEWBRIGHT@APPVION.COM	
2013	SENIOR DIRECTOR, MANUFACTURING OPERATIONS NA	BRIAN JACKEY	45377RNDMR845CE	APTALIS PHARMATECH INC	845 CENTER DR	VANDALIA	MONTGOMERY	OH	45377			APTALIS PHARMATECH INC	845 CENTER DR	VANDALIA	OH		45377	YES	NO	NO	NO	BRIAN JACKEY	9374151592	2834							325412						39.88431	-84.18327	097916506								APTALIS PHARMA INC	829696306	NO	BJACKEY@APTALISPHARMA.COM	
2013	ENVIRONMENTAL MANAGER	STANLEY RIHTAR	44105SGCLV3060E	ARCELORMITTAL CLEVELAND LLC	3060 EGGERS AVE	CLEVELAND	CUYAHOGA	OH	44105			ARCELORMITTAL CLEVELAND LLC	3060 EGGERS AVE	CLEVELAND	OH		44105	YES	NO	NO	NO	STAN RIHTAR	2164296396	3312	3316						331110	331111					41.463486	-81.667828	107970886		OHD004218673		OH0000957				ARCELORMITTAL USA INC		NO		
2013	OPERATIONS MANAGER	WILLIAM WALLACE	43207LSLCT1800W	ARCELORMITTAL COLUMBUS LLC	1800 WATKINS RD	COLUMBUS	FRANKLIN	OH	43207			ARCELORMITTAL COLUMBUS LLC	1800 WATKINS RD	COLUMBUS	OH		43207	YES	NO	NO	NO	ADAM WARRINGTON	3128993596	3312							331111						39.90428	-82.94609									ARCELORMITTAL USA INC	107970886	NO	ADAM.WARRINGTON@ARCELORMITTAL.COM	
2013	PLANT MANAGER	CHAD OUSLEY	43301LTVCP686WF	ARCELORMITTAL TUBULAR PRODUCTS MARION INC	686 W FAIRGROUND ST	MARION	MARION	OH	433021706			ARCELORMITTAL TUBULAR PRODUCTS MARION INC	686 W FAIRGROUND ST	MARION	OH		43302-1706	YES	NO	NO	NO	DOUGLAS BLEY	3306599160	3317							331210						40.60042	-83.14786	118549323								ARCELORMITTAL USA INC		NO	DOUGLAS.BLEY@ARCELORMITTAL.COM	
2013	GENERAL OPERATIONS MANAGER	DANE SMITH	44875HSTLT140WE	ARCELORMITTAL TUBULAR PRODUCTS SHELBY LLC	132 W MAIN ST	SHELBY	RICHLAND	OH	448751471			ARCELORMITTAL TUBULAR PRODUCTS SHELBY LLC	132 W MAIN ST	SHELBY	OH		44875-1471	YES	NO	NO	NO	MARY BETH HOLDFORD	3306599121	3317							331210						40.88135	-82.66758	180541435								ARCELORMITTAL USA INC		NO	MARYBETH.HOLDFORD@ARCELORMITTAL.COM	
2013	OPERATIONS MANAGER	JEFFERY FOSTER	44482LTVST2234M	ARCELORMITTAL WARREN	2234 MAIN AVE	WARREN	TRUMBULL	OH	44481			ARCELORMITTAL WARREN	2234 MAIN AVE	WARREN	OH		44481	YES	NO	NO	NO	ADAM WARRINGTON	3128993596	3312							324199						41.21013	-80.81558	788162600								ARCELORMITTAL USA INC	107970886	NO	ADAM.WARRINGTON@ARCELORMITTAL.COM	
2013	PRESIDENT	LYNN ASCHLIMAN	43502RCHBL8WBAR	ARCHBOLD CONTAINER CORP	800 W BARRE RD	ARCHBOLD	FULTON	OH	43502			ARCHBOLD CONTAINER CORP	PO BOX 10	ARCHBOLD	OH		43502	YES	NO	NO	NO	SHELIA SANTIAGO	4194460533								326140	322211					41.51429	-84.29677	068085059								GREEN BAY PACKAGING INC	006146997	NO	SSANTIAGO@ACCGBP.COM	
2013	GENERAL MANAGER	MICHAEL DOBRONOS	4412WRCHTC83BES	ARCHITECTURAL FIBERGLASS INC	8300 BESSEMER AVE	CLEVELAND	CUYAHOGA	OH	441271839			ARCHITECTURAL FIBERGLASS INC	8300 BESSEMER AVE	CLEVELAND	OH		44127-1839	YES	NO	NO	NO	MICHAEL C. DOBRONOS	2166418300								326130						41.46695	-81.62865	932439730										NO	MIKE@FIBERGLASS-AFI.COM	
2013	PLANT MANAGER	WARREN SHUNK	43612CHMBN6175A	ARCLIN USA LLC	6175 AMERICAN RD	TOLEDO	LUCAS	OH	43612			ARCLIN USA LLC	6175 AMERICAN RD	TOLEDO	OH		43612	YES	NO	NO	NO	WARREN SHUNK	4197265013	2821	2869						325211	325199					41.729167	-83.521111	009420126								BLACK DIAMOND CAPITAL MANAGEMENT LLC & SILVER POINT CAPITAL	255298184	NO	WARREN.SHUNK@ARCLIN.COM	
2013	ENVIRONMENTAL, HEALTH & SAFETY MANAGER	HELEN REVELAS	43701NCHRG1555F	ARDAGH GLASS INC	1555 FAIRVIEW RD	ZANESVILLE	MUSKINGUM	OH	43701			ARDAGH GLASS INC	1555 FAIRVIEW RD	ZANESVILLE	OH		43701	YES	NO	NO	NO	SHANE MCLOUGHLIN	7404522743	3544							333511						40.00892	-82.01956	137381851								ARDAGH GROUP	966475170	NO	SHANE.MCLOUGHLIN@ANCHORGLASS.COM	
2013	PRESIDENT	TODD HOFFMAN	44659RNC  17494	ARE ACCESSORIES LLC	17494 DOVER RD	MOUNT EATON	WAYNE	OH	446590343			ARE ACCESSORIES LLC	PO BOX 343	MOUNT EATON	OH		446590343	YES	NO	NO	NO	TODD HOFFMAN	3308307800	3792							336214						40.6848	-81.6733	080381734								ARE ACCESSORIES LLC		NO	THOFFMAN@4ARE.COM	
2013	PLANT MANAGER	JOHN TROUTS	44622NNCMP875HA	ARIZONA CHEMICAL CO LLC	875 HARGER ST	DOVER	TUSCARAWAS	OH	44622			ARIZONA CHEMICAL CO LLC	875 HARGER ST	DOVER	OH		44622	YES	NO	NO	NO	JOHN T. TROUTS	3303437701	2869	2899						325199						40.508398	-81.474839									ARIZONA CHEMICAL CO LLC		NO	JOH.TROUTS@AZCHEM.COM	
2013	GENERAL MANAGER	R. NEIL PARRISH	43140THDLC110WE	ARMALY BRANDS LLC  LONDON PLANT	110 W FIRST ST	LONDON	MADISON	OH	43140			ARMALY BRANDS LLC  LONDON PLANT	110 W FIRST ST	LONDON	OH		43140	YES	NO	NO	NO	GILBERT ARMALY	2486692100	3291							332999						39.88341	-83.44902	001211952								ARMALY BRANDS LLC	001211952	NO	GCARMALY@ARMALYBRANDS.COM	
2013	PRESIDENT	STEPHEN NEELY	45505RMLYF195EL	ARMOLOY OF OHIO INC	1950 E LEFFEL LN	SPRINGFIELD	CLARK	OH	45505			ARMOLOY OF OHIO INC	1950 E LEFFEL LN	SPRINGFIELD	OH		45505	YES	NO	NO	NO	STEPHEN NEELY	9373238702	3471							332813						39.892998	-83.783567											NO	SNEELY@ARMOLOYOFOHIO.COM	
2013	VICE PRESIDENT	JOE NEGREY	44017THCLC140SH	ARNCO	140 SHELDON RD	BEREA	CUYAHOGA	OH	44017			ARNCO	5141 FIRESTONE PL	SOUTH GATE	CA		90280	YES	NO	NO	NO	JOE NEGREY	3232497500	2899							325211						41.38951	-81.84727	059795468								ARNCO	059795468	NO	JOEN@ARNCONET.COM	
2013	V PRES	ADRIENNE KLEIN	44109THRTG3935V	ART GALVANIZING WORKS INC	3935 VALLEY RD	CLEVELAND	CUYAHOGA	OH	44109			ART GALVANIZING WORKS INC	3935 VALLEY RD	CLEVELAND	OH		44109	YES	NO	NO	NO	ADRIENNE KLEIN	2167490020	3479							332812						41.44595	-81.69165	004166575										NO	ARTGALV@AOL.COM	
2013	CHIEF FINANCIAL OFFICER	EDWARD KURZENBERGER	44691THGRS1425E	ARTIFLEX MANUFACTURING LLC GERSTCO DIV WOOSTER	1425 E BOWMAN ST	WOOSTER	WAYNE	OH	44691			ARTIFLEX MANUFACTURING LLC GERSTCO DIV WOOSTER	1425 E BOWMAN ST	WOOSTER	OH		44691	YES	NO	NO	NO	ED KURZENBERGER	3302622015	3465							336370						40.80392	-81.91982	004469011								ARTIFLEX MANUFACTURING LLC	156749231	NO	ED.KURZENBERGER@ARTIFLEXMFG.COM	
2013	PLANT MANAGER - METALS AND ACRYLICS	PAUL LEE	44460MRCNS605SE	AS AMERICA INC	605 S ELLSWORTH AVE	SALEM	COLUMBIANA	OH	44460			AS AMERICA INC	605 S ELLSWORTH AVE	SALEM	OH		44460	YES	NO	NO	NO	PAUL LEE	3303372683	3088							332998	326191					40.89609	-80.85679	001344621								AS AMERICA INC	001344621	NO	LEEP@AMERICANSTANDARD.COM	
2013	PLANT MANAGER	ALBERT LOMBARDI	43223CNTRY802HA	ASHLAND PERFORMANCE MATERIALS	802 HARMON AVE	COLUMBUS	FRANKLIN	OH	43223			ASHLAND PERFORMANCE MATERIALS	802 HARMON AVE	COLUMBUS	OH		43223	YES	NO	NO	NO	GARY L. RHODES	8598153047	2891							325520						39.94379	-83.01605	070552633								ASHLAND INC	005003264	NO	GLRHODES@ASHLAND.COM	
2013	PLANT MANAGER	FERNANDO CARVALHO	44805SHLND1745C	ASHLAND SPECIALTY INGREDIENTS	1745 COTTAGE ST	ASHLAND	ASHLAND	OH	44805			ASHLAND SPECIALTY INGREDIENTS	1745 COTTAGE ST	ASHLAND	OH		44805	YES	NO	NO	NO	GARY L RHODES	8598153047	2891							325520						40.88273	-82.32295	108623125								ASHLAND INC	005003264	NO	GLRHODES@ASHLAND.COM	
2013	VICE PRESIDENT OF OPERATIONS	RICHARD JACKSON	44004LCPCH3509M	ASHTA CHEMICALS INC	3509 MIDDLE RD	ASHTABULA	ASHTABULA	OH	44004			ASHTA CHEMICALS INC	PO BOX 858	ASHTABULA	OH		44004	YES	NO	NO	NO	RICHARD JACKSON	4409976863	2812							325181						41.896389	-80.751944	604393355										NO	RJACKSON@ASHTACHEMICALS.COM	
2013	MANAGER, ENVIRONMENTAL GENERATION AIR PROGRAM	MICHAEL JIROUSEK	44004FRSTN2133L	ASHTABULA POWER PLANT	2133 LAKE RD E	ASHTABULA	ASHTABULA	OH	440043867			ASHTABULA POWER PLANT	76 S MAIN ST (AGO-13)	AKRON	OH		44308	YES	NO	NO	NO	MARK H. DURBIN	3307614365	4911							221112	221119	221113	221122	221111	221121	41.90775	-80.76765	158932579								FIRSTENERGY GENERATION LLC	800459724	NO	DURBINM@FIRSTENERGYCORP.COM	
2013	ENVIRONMENTAL CONSULTANT	THEADOR HEBERT	44004SHTBL2751W	ASHTABULA RUBBER CO INC	2751 W AVE	ASHTABULA	ASHTABULA	OH	44004			ASHTABULA RUBBER CO INC	2751 W AVE	ASHTABULA	OH		44004	YES	NO	NO	NO	SHARON CEGLIE	4409922195	3069							326220						41.87533	-80.79964	012004967										NO	SCEGLIE@ASHTABULARUBBER.COM	
2013	PLANT MANAGER	RICHARD DAFF	44102SHLND2191W	ASK CHEMICALS LP	2191 W 110TH ST	CLEVELAND	CUYAHOGA	OH	44102			ASK CHEMICALS LP	2191 W 110TH ST	CLEVELAND	OH		44102	YES	NO	NO	NO	STEVEN HENSON	2169612725	2821							325211						41.4725	-81.761944	964378454								ASK CHEMICALS LP	964378454	NO	STEVEN.HENSON@ASK-CHEMICALS.COM	
2013	VICE-PRESIDENT	ERIC WERNER	4575WSPHLT13925	ASPHALT MATERIALS INC	13925 S STATE RD 7	MARIETTA	WASHINGTON	OH	45750			ASPHALT MATERIALS INC	5400 W 86TH ST	INDIANAPOLIS	IN		46268	YES	NO	NO	NO	DOUGLAS LOZIER	3178754676								324121						39.343062	-81.557463	351002095								ASPHALT MATERIALS INC	006420160	NO	DOUG.LOZIER@ASPHALT-MATERIALS.COM	
2013	VICE-PRESIDENT	ERIC WERNER	43616SPHLT940NW	ASPHALT MATERIALS INC	940 N WYNN RD	OREGON	LUCAS	OH	43616			ASPHALT MATERIALS INC	5400 W 86TH ST	INDIANAPOLIS	IN		46268	YES	NO	NO	NO	DOUGLAS A. LOZIER	3178754676	2951							324121						41.67008	-83.42947	020270914								ASPHALT MATERIALS INC	006420160	NO	DOUG.LOZIER@ASPHALT-MATERIALS.COM	
2013	PLANT MANAGER	JOHN MATTOCKS	4443WSTRLL1445S	ASTRALLOY STEEL PRODUCTS INC	1445 STANDARD AVE	MASURY	TRUMBULL	OH	44438			ASTRALLOY STEEL PRODUCTS INC	251 WHEELER PL.	SHARON	PA		16146	YES	NO	NO	NO	JOHN MATTOCKS	3604424115								332313						41.205508	-80.533897	061025602								NUCOR CORP	003446796	NO	JOHN.MATTOCKS@ASTRALLOY.COM	
2013	EHS MANAGER	RON BUNOFSKY	44471STRCT65MAI	ASTRO SHAPES LLC	65 MAIN ST	STRUTHERS	MAHONING	OH	444711942			ASTRO SHAPES LLC	65 MAIN ST	STRUTHERS	OH		44471-1942	YES	NO	NO	NO	RON BUNOFSKY	3307551414	3354							331316						41.05805	-80.59089	054661202								TANG INDUSTRIES INC.	064399629	NO	RON.BUNOFSKY@ASTROSHAPES.COM	
2013	DIRECTOR OF RESEARCH & MANUFACTURING	BRUCE PHILLIPPI	45177TCHMX1225W	AT-CHEM INC	1225 W MAIN ST	WILMINGTON	CLINTON	OH	45177			AT-CHEM INC	1225 W MAIN ST	WILMINGTON	OH		45177	YES	NO	NO	NO	DAVID ATSALIS	9373827511	2841							325611						39.44528	-83.8498	023928161										NO	DATSALIS@CHEMSTATION.NET	
2013	DIRECTOR OR CORPORATE ENGINEERING	DUDLEY LIGHTSEY	45005TLSRF675OX	ATLAS ROOFING CORP	675 OXFORD RD	FRANKLIN	WARREN	OH	45005			ATLAS ROOFING CORP	675 OXFORD RD	FRANKLIN	OH		45005	YES	NO	NO	NO	DUDLEY LIGHTSEY	9036453988	2952							324122						39.55788	-84.31413	004546859								ATLAS ROOFING CORP	004546859	NO	DLIGHTSEY@ATLASROOFING.COM	
2013	DIRECTOR OF TECHNOLOGY	JAMES FLYNN	44241RRPLS928JE	AURORA PLASTICS INC	9280 JEFFERSON ST	STREETSBORO	PORTAGE	OH	44241			AURORA PLASTICS INC	9280 JEFFERSON ST	STREETSBORO	OH		44241	YES	NO	NO	NO	JAMES FLYNN	3306266425								325991						41.2442	-81.37697									AURORA PLASTICS		NO	JFLYNN@AURORAPLASTICS.COM	
2013	DIRECTOR OF MANUFACTURING	KEITH MILLS	45651STNPW430PO	AUSTIN POWDER CO	430 POWDER PLANT RD	MC ARTHUR	VINTON	OH	456510317			AUSTIN POWDER CO	PO BOX 317	MC ARTHUR	OH		456510317	YES	NO	NO	NO	GERALD G STEWART JR.	7405965286	2892							325920						39.252778	-82.420833	004293775								AUSTIN POWDER HOLDINGS CO	932641988	NO	GERALD.STEWART@AUSTINPOWDER.COM	
2013	CORPORATE DIRECTOR, EHS	PHIL WILLIAMSON	4361WTNMNR115NW	AUTONEUM NA INC	1150 N WYNN RD	OREGON	LUCAS	OH	43616			AUTONEUM NA INC	1150 N WYNN RD	OREGON	OH		43616	YES	NO	NO	NO	PHIL WILLIAMSON	2694654195								336399						41.674777	-83.429609	068091438										NO	PHIL.WILLIAMSON@AUTONEUM.COM	
2013	EHS COMPLIANCE MANAGER	LINDSEY KRAUTH	44142VLNPR15583	AVALON PRECISION CASTING CO LLC	15583 BROOKPARK RD	BROOK PARK	CUYAHOGA	OH	44142			AVALON PRECISION CASTING CO LLC	15583 BROOKPARK RD	BROOK PARK	OH		44142	YES	NO	NO	NO	LINDSEY KRAUTH	2163624100	3324							331512						41.41854	-81.80626	054429717										NO	LKRAUTH@AVALON-CASTINGS.COM	
2013	PURCHASING	BARBARA WIESE	43081VCMSM213EB	AVCOM SMT INC	213 E BROADWAY AVE	WESTERVILLE	FRANKLIN	OH	43081			AVCOM SMT INC	213 E BROADWAY AVE	WESTERVILLE	OH		43081	YES	NO	NO	NO	PAUL WIESE	6148828176	3679							334418						40.12969	-82.92521	071633192										NO	PAUL@AVCOMSMT.COM	
2013	REGIONAL PLANT MANAGER	JEREMY LETTERMAN	44077VRYDR670HA	AVERY DENNISON - BUILDING 11	670 HARDY RD	PAINESVILLE	LAKE	OH	44077			AVERY DENNISON - BUILDING 11	670 HARDY RD	PAINESVILLE	OH		44077	YES	NO	NO	NO	HEATHER VALENTINO	4403583460	2672							322222						41.7561	-81.2307	622634905								AVERY DENNISON CORP	008256364	NO	HEATHER.VALENTINO@AVERYDENNISON.COM	
2013	REGIONAL PLANT MANAGER	JEREMY LETTERMAN	44077VRY2 250CH	AVERY DENNISON BUILDING 7	215 CHESTER ST	PAINESVILLE	LAKE	OH	44077			AVERY DENNISON BUILDING 7	250 CHESTER ST BUILDING 7	PAINESVILLE	OH		44077	YES	NO	NO	NO	DAVID FRAIL	6263042014	2672							322222						41.730597	-81.251911	061756185								AVERY DENNISON CORP	008256364	NO	DAVID.FRAIL@AVERYDENNISON.COM	
2013	VP OF OPERATIONS AND SUPPLY CHAIN	ROBERT ROTELLA	44077VRYSP205CH	AVERY DENNISON CORP SPECIALTY TAPE DIV	205 CHESTER ST	PAINESVILLE	LAKE	OH	44077			AVERY DENNISON CORP SPECIALTY TAPE DIV	250 CHESTER ST BUILDING 5	PAINESVILLE	OH		44077	YES	NO	NO	NO	JEFF NICK	4403583198	2672							322222						41.730413	-81.252232	008256364								AVERY DENNISON CORP	008256364	NO	JEFF.NICK@AVERYDENNISON.COM	
2013	PLANT MANAGER	CHRISTOPHER SELAN	44077VRY  250CH	AVERY DENNISON FASSON ROLL NA	250 CHESTER ST BUILDING 3	PAINESVILLE	LAKE	OH	44077			AVERY DENNISON FASSON ROLL NA	250 CHESTER ST BUILDING 3	PAINESVILLE	OH		44077	YES	NO	NO	NO	DAVID FRAIL	6263042014	2672							322222						41.73158	-81.25019	836338178								AVERY DENNISON CORP	008256364	NO	DAVID.FRAIL@AVERYDENNISON.COM	
2013	PLANT MANAGER	RYAN NIEHENKE	44060VRYDN77SPI	AVERY DENNISON STD-BLDG 19	7070 SPINACH DR	MENTOR	LAKE	OH	44060			AVERY DENNISON STD-BLDG 19	250 CHESTER ST, BLDG 5	PAINESVILLE	OH		44077	YES	NO	NO	NO	DAVID FRAIL	6263042014								322222						41.68014	-81.344253	008256364								AVERY DENNISON CORP	008256364	NO	DAVID.FRAIL@AVERYDENNISON.COM	
2013	PLANT MANAGER	DANIEL ROGATTO	44012FRSTN33570	AVON LAKE POWER PLANT	33570 LAKE RD	AVON LAKE	LORAIN	OH	44012			AVON LAKE POWER PLANT	33570 LAKE RD	AVON LAKE	OH		44012	YES	NO	NO	NO	SCOTT CAMERON	4409306564	4911							221112						41.50458	-82.05433									NRG ENERGY INC	793422213	NO	SCOTT.CAMERON@NRGENERGY.COM	
2013	VP/GM	ROBERT DANIEL	44125ZLMNF6255H	AVTRON LOADBANK INC	6255 HALLE DR	VALLEY VIEW	CUYAHOGA	OH	441254681			AVTRON LOADBANK INC	6255 HALLE DR	VALLEY VIEW	OH		44125-4681	YES	NO	NO	NO	BOB DANIEL	2165737600	3451							335314						41.3901	-81.61657	004196622								EMERSON ELECTRIC CO	167253504	NO	BOB.DANIEL@EMERSON.COM	
2013	VP/GM	ROBERT DANIEL	44131SNWMT8400E	AVTRON LOADBANKS INC	8400 E PLEASANT VALLEY DR	INDEPENDENCE	CUYAHOGA	OH	441315519			AVTRON LOADBANKS INC	6255 HALLE DR	VALLEY VIEW	OH		441254681	YES	NO	NO	NO	BOB DANIEL	2165737600	3451							335314						41.36198	-81.62366	004196622		OHD004204343						EMERSON ELECTRIC CO	167253504	NO	BOB.DANIEL@EMERSON.COM	
2013	PLANT MANAGER	JOSEPH CAMPBELL	43613DPNT 1930T	AXALTA COATING SYSTEMS LLC - TOLEDO PLANT	1930 TREMAINSVILLE RD	TOLEDO	LUCAS	OH	43613			AXALTA COATING SYSTEMS LLC - TOLEDO PLANT	1930 TREMAINSVILLE RD	TOLEDO	OH		43613	YES	NO	NO	NO	JOSEPH F CAMPBELL	5864689001	2821							325211						41.69616	-83.59095	005041743								AXALTA COATING SYSTEMS LLC	078611267	NO	JOSEPH.F.CAMPBELL@AXALTACS.COM	
2013	GLOBAL ENVIRONMENTAL COMPETENCY LEAD	DENISE TRABBIC-POINTER	43026BCKRP4150L	AXALTA POWDER COATINGS USA INC	4130 LYMAN DR	HILLIARD	FRANKLIN	OH	43026			AXALTA POWDER COATINGS USA INC	4130 LYMAN DR	HILLIARD	OH		43026	YES	NO	NO	NO	KAREN CANTERBURY	6147777222	2851							325510						40.03741	-83.12909	054089706								AXALTA POWDER COATING SYSTEMS USA INC.	788137867	NO	KAREN.L.CANTERBURY@AXALTACS.COM	
2013	VICE PRESIDENT - EASTERN OPERATIONS	JOHN LINCOLN	45209WTTC 4454S	AZZ GALVANIZING SERVICES-CINCINNATI	4454 STEEL PL	CINCINNATI	HAMILTON	OH	45209			AZZ GALVANIZING SERVICES-CINCINNATI	4454 STEEL PL	CINCINNATI	OH		45209	YES	NO	NO	NO	JASON PENCE	8178100095	3479	3499						332812						39.15822	-84.41455	076786581								AZZ INC	008012148	NO	JASONPENCE@AZZ.COM	
2013	OPERATIONS MANAGER	TERRENCE BOND	44117RLNCL24703	BABCOCK & WILCOX COS NUCLEAR OPERATIONS GROUP	24703 EUCLID AVE	CLEVELAND	CUYAHOGA	OH	44117			BABCOCK & WILCOX COS NUCLEAR OPERATIONS GROUP	24703 EUCLID AVE	CLEVELAND	OH		44117	YES	NO	NO	NO	LILLI STAPP	2169123411	3499							332999						41.58144	-81.51021									THE BABCOCK & WILCOX CO INC	829307920	NO	LDSTAPP@BABCOCK.COM	
2013	OPERATIONS MANAGER	TERRENCE BOND	44117MRNMC23555	BABCOCK & WILCOX COS NUCLEAR OPERATIONS GROUP	23555 EUCLID AVE	CLEVELAND	CUYAHOGA	OH	44117			BABCOCK & WILCOX COS NUCLEAR OPERATIONS GROUP	24703 EUCLID AVE	CLEVELAND	OH		44117	YES	NO	NO	NO	LILLI STAPP	2169123411	3499							332999						41.57723	-81.51633									THE BABCOCK & WILCOX CO INC	829307920	NO	LDSTAPP@BABCOCK.COM	
2013	MANAGER, PLANT SERVICE	RANDALL WILKE	44203BBCCK91STI	BABCOCK & WILCOX NUCLEAR OPERATIONS GROUP INC	91 STIRLING AVE	BARBERTON	SUMMIT	OH	44203			BABCOCK & WILCOX NUCLEAR OPERATIONS GROUP INC	91 STIRLING AVE	BARBERTON	OH		44203	NO	YES	NO	NO	RW CARTER	7046254753	3321	3443						332410						41.00775	-81.60916	001289065	829307920	OHD004191441		OH0006025				THE BABCOCK & WILCOX CO INC	787523976	NO	RWCARTER@BABCOCK.COM	
2013	DIRECTOR OF OPERATIONS	LARRY KANDEL	45232BRLCH5890H	BAERLOCHER PRODUCTION USA LLC	5890 HIGHLAND RIDGE DR	CINCINNATI	HAMILTON	OH	45232			BAERLOCHER PRODUCTION USA LLC	5890 HIGHLAND RIDGE DR	CINCINNATI	OH		45232	YES	NO	NO	NO	MIKE ODLE	5134826340	2869							325199						39.191645	-84.500188	844257985								BAERLOCHER USA		NO	ODLE.MIKE@BAERLOCHER.COM	
2013	DIRECTOR OF OPERATIONS	LARRY KANDEL	44622BRLCH3676D	BAERLOCHER USA	3676 DAVIS RD NW	DOVER	TUSCARAWAS	OH	44622			BAERLOCHER USA	PO BOX 545	DOVER	OH		446220545	YES	NO	NO	NO	LARRY KANDEL	3306021528	2899	2819						325188						40.53204	-81.49331	610001984								BAERLOCHER USA		NO	KANDEL.LARRY@BAERLOCHER.COM	
2013	DIRECTOR, EHS	JOETTE BAILEY-KEOWN	45840BLLPC12340	BALL METAL BEVERAGE CONTAINER CORP	12340 TOWNSHIP RD 99 E	FINDLAY	HANCOCK	OH	45840			BALL METAL BEVERAGE CONTAINER CORP	9300 W 108TH CIR	BROOMFIELD	CO		80021	YES	NO	NO	NO	SCOTT MCCARTY	3034605774	3411							332431						41.091279	-83.642788	063701957								BALL CORP	006419147	NO	SMCCARTY@BALL.COM	
2013	CONSULTANT	JOSEPH ARAR	45601NMSPR387WE	BARBER SPRING OHIO	387 WETZEL DR	CHILLICOTHE	ROSS	OH	45601			BARBER SPRING OHIO	P. O. BOX 243	CHILLICOTHE	OH		45601	YES	NO	NO	NO	SCOTT DIEHL	7407756450	3493							332611						39.32896	-82.94929	055403752								WABTEC CORP	055403752	NO	SDIEHL@WABTEC.COM	
2013	PRESIDENT	DEBORAH VENCI	43952BRMCHCOUNT	BARIUM & CHEMICALS INC	515 KINGSDALE RD	STEUBENVILLE	JEFFERSON	OH	43952			BARIUM & CHEMICALS INC	PO BOX 218	STEUBENVILLE	OH		439525218	YES	NO	NO	NO	DEBORAH A. VENCI, CHMM	7402829776	2819							325188						40.401177	-80.624368	004323465										NO	DAVENCI@BARIUMCHEMICALS.COM	
2013	GENERAL MANAGER	BILL GALLAGHER	44110CRTSN1028E	BARKER PRODUCTS CO	1028 E 134TH ST	CLEVELAND	CUYAHOGA	OH	44110			BARKER PRODUCTS CO	1028 E 134TH ST	CLEVELAND	OH		44110	YES	NO	NO	NO	BEN DAGLEY	3304653166	3471							332813						41.55002	-81.59004	004175030										NO	BENDAGLEY@GMAIL.COM	
2013	DIVSION MANAGER	BRIAN DORAN	45069BRNSR9826C	BARNES AEROSPACE	9826 CRESCENT PARK DR	WEST CHESTER	BUTLER	OH	45069			BARNES AEROSPACE	9826 CRESCENT PARK DR	WEST CHESTER	OH		45069	YES	NO	NO	NO	QUENTIN NICHOLS	5137126272	3724							336412						39.306628	-84.42004	125767186								BARNES GROUP INC	001145481	NO	QNICHOLS@BARNESAERO.COM	
2013	OPERATIONS MANAGER	LEON ZAVODNIK	44035NGLHR120PI	BASF CORP	120 PINE ST	ELYRIA	LORAIN	OH	44035			BASF CORP	120 PINE ST	ELYRIA	OH		44035	YES	NO	NO	NO	SANDY KOWALESKI	4403292510	2819							325180	325188					41.370042	-82.102988	004203519								BASF CORP	071014385	NO	SANDY.KOWALESKI@BASF.COM	
2013	SR. EHS SPECIALIST	TIMOTHY ANGLIN	44241MSTRB9658S	BASF CORP	9658 STATE RT 43	STREETSBORO	PORTAGE	OH	44241			BASF CORP	9658 STATE RT 43	STREETSBORO	OH		44241	YES	NO	NO	NO	JEFF KURTZ	3304227564	3272							327390						41.25391	-81.3454									BASF CORP		NO	JEFF.KURTZ@BASF.COM	
2013	SITE MANAGER	CHRISTOPHER LEEDY	45232CGNSC49EST	BASF CORP	4900 ESTE AVE	CINCINNATI	HAMILTON	OH	45232			BASF CORP	4900 ESTE AVE	CINCINNATI	OH		45232	YES	NO	NO	NO	CHRIS LEEDY	5134825571								325998						39.17835	-84.504484	114571107								BASF CORP		NO	CHRIS.LEEDY@BASF.COM	
2013	MFG COMM DIRECTOR	DAVID WYNN	45331BSFCRSTATE	BASF CORP	1175 MARTIN ST	GREENVILLE	DARKE	OH	453311886			BASF CORP	1175 MARTIN ST	GREENVILLE	OH		45331-1886	YES	NO	NO	NO	DAVID L. WYNN	9375476702	2821	2851						325211	325510					40.098611	-84.610556	026411434								BASF CORP	001307032	NO	DAVID.WYNN@BASF.COM	
2013	PRESIDENT	THOMAS BYRNE	44110BSCLM1325E	BASIC ALUMINUM CASTINGS CO	1325 E 168TH ST	CLEVELAND	CUYAHOGA	OH	44110			BASIC ALUMINUM CASTINGS CO	1325 E 168TH ST	CLEVELAND	OH		44110	YES	NO	NO	NO	T.M. BYRNE	2164815606	3363							331521						41.56552	-81.56396	004188785										NO		
2013	HSEQ MANAGER	WILLIAM STEORTS	43025BYRCR1111O	BAYER MATERIALSCIENCE NEWARK COMPOUNDING FACILITY	1111 O'NEILL DR S E	HEBRON	LICKING	OH	430259660			BAYER MATERIALSCIENCE NEWARK COMPOUNDING FACILITY	1111 O'NEILL DR S E	HEBRON	OH		43025-9660	YES	NO	NO	NO	LORA RAND	7409292276	3087							325991						39.97221	-82.47312	112118117								BAYER GROUP	112118117	NO	LORA.RAND@BAYER.COM	
2013	MANAGER, ENVIRONMENTAL GENERATION AIR PROGRAM	MICHAEL JIROUSEK	43616FRSTN4701B	BAYSHORE PLANT	4701 BAYSHORE RD	OREGON	LUCAS	OH	436161038			BAYSHORE PLANT	76 S MAIN ST (AGO-13)	AKRON	OH		44308	YES	NO	NO	NO	MARK H. DURBIN	3307614365	4911							221112	221113	221119	221122	221121	221111	41.6925	-83.4375	860951045								FIRSTENERGY GENERATION LLC	800459724	NO	DURBINM@FIRSTENERGYCORP.COM	
2013	CORPORATE ENVIRONMENTAL MANAGER, NA	MARK MAHONY	44667CNTRS510CO	BEKAERT CORP	510 COLLINS BLVD	ORRVILLE	WAYNE	OH	44667			BEKAERT CORP	PO BOX 608	ORRVILLE	OH		446670608	YES	NO	NO	NO	RICK MCWHIRT	4796317661	3316							331221						40.86518	-81.75688	142302350								BEKAERT CORP	051525129	NO	RICK.MCWHIRT@BEKAERT.COM	
2013	ENVIRONMENTAL MANAGER	JOHN STREB	44681BLDNB700ED	BELDEN BRICK CO PLANT 2	375 DOVER RD NW	SUGARCREEK	TUSCARAWAS	OH	44681			BELDEN BRICK CO PLANT 2	475 DOVER RD NW	SUGARCREEK	OH		44681	YES	NO	NO	NO	JOHN STREB	3308522424	3251							327121						40.508204	-81.64369									THE BELDEN BRICK CO	004468690	NO	JOHN.STREB@BELDENBRICK.COM	
2013	ENVIRONMENTAL MANAGER	JOHN STREB	44681THBLDDOVER	BELDEN BRICK CO PLANT 3	690 DOVER RD NE	SUGARCREEK	TUSCARAWAS	OH	44681			BELDEN BRICK CO PLANT 3	475 DOVER RD NW	SUGARCREEK	OH		44681	YES	NO	NO	NO	JOHN STREB	3308522424	3251							327121						40.50802	-81.62845									THE BELDEN BRICK CO	004468690	NO	JOHN.STREB@BELDENBRICK.COM	
2013	ENVIRONMENTAL MANAGER	JOHN STREB	44681THBLDCOUNT	BELDEN BRICK CO PLANT 6	600EDELWEISS DR NE	SUGARCREEK	TUSCARAWAS	OH	44681			BELDEN BRICK CO PLANT 6	475 DOVER RD NW	SUGARCREEK	OH		44681	YES	NO	NO	NO	JOHN STREB	3308522424	3251							327121						40.51213	-81.62873									THE BELDEN BRICK CO	004468690	NO	JOHN.STREB@BELDENBRICK.COM	
2013	ENVIRONMENTAL MANAGER	JOHN STREB	44681BLDNBCOUNT	BELDEN BRICK CO PLANT 8	700 EDELWEISS DR NE	SUGARCREEK	TUSCARAWAS	OH	44681			BELDEN BRICK CO PLANT 8	475 DOVER RD NW	SUGARCREEK	OH		44681	YES	NO	NO	NO	JOHN STREB	3308522424	3251							327121						40.513562	-81.628661									THE BELDEN BRICK CO	004468690	NO	JOHN.STREB@BELDENBRICK.COM	
2013	ENVIRONMENTAL MANAGER	JOHN STREB	44681THBLDMAINS	BELDEN BRICK CO PLANT 9	225 E MAIN ST	SUGARCREEK	TUSCARAWAS	OH	44681			BELDEN BRICK CO PLANT 9	475 DOVER RD NW	SUGARCREEK	OH		44681	YES	NO	NO	NO	JOHN STREB	3308522424	3251							327121						40.50146	-81.63828									THE BELDEN BRICK CO	004468690	NO	JOHN.STREB@BELDENBRICK.COM	
2013	ENVIRONMENTAL MANAGER	JOHN STREB	44681BLDNBDOVER	BELDEN BRICK PLANT 4	475 DOVER RD NW	SUGARCREEK	TUSCARAWAS	OH	44681			BELDEN BRICK PLANT 4	475 DOVER RD NW	SUGARCREEK	OH		44681	YES	NO	NO	NO	JOHN STREB	3308522424	3251							327121						40.514902	-81.641091									THE BELDEN BRICK CO	004468690	NO	JOHN.STREB@BELDENBRICK.COM	
2013	SR MGR QA AND PRODUCT DEVELOPMENT	ERIC TANNER	43311BLLTC700WL	BELLETECH CORP	700 W LAKE AVE	BELLEFONTAINE	LOGAN	OH	43311			BELLETECH CORP	PO BOX 790	BELLEFONTAINE	OH		43311	YES	NO	NO	NO	ERIC TANNER	9375993774	3231	3714						327215	336399					40.347371	-83.772828	131892994										NO	ETANNER@BELLETECHCORP.COM	
2013	QUALITY, ENVIRONMENTAL, AND SAFETY MANAGER	LEE FREDERICK	45040BRNFL1229C	BERENFIELD CONTAINERS INC MASON	1229 CASTLE DR	MASON	WARREN	OH	45040			BERENFIELD CONTAINERS INC MASON	PO BOX 350	MASON	OH		45040	YES	NO	NO	NO	LEE FREDERICK	5133981300	3412							332439						39.33228	-84.34551	161064993								BERENFIELD CONTAINERS INC	161064993	NO	LFREDERICK@BERENFIELD.COM	
2013	TECHNICAL DIRECTOR	MIKE KINNAN	44202FLMCN1450S	BERRY PLASTICS	1450 S CHILLICOTHE RD	AURORA	PORTAGE	OH	44202			BERRY PLASTICS	1450 S CHILLICOTHE RD	AURORA	OH		44202	YES	NO	NO	NO	STEPHEN NENADOV	3307327646	3081							326112						41.2765	-81.34589	073530260										NO	STEPHENNENADOV@YAHOO.COM	
2013	PRESIDENT	JOHN GALLAGHER	44094BSCST4600E	BESCAST INC	4600 E 355TH ST	WILLOUGHBY	LAKE	OH	44094			BESCAST INC	4600 E 355TH ST	WILLOUGHBY	OH		44094	YES	NO	NO	NO	BESCAST, INC.	4409465300	3724							336412						41.63086	-81.43495											NO	JGALLAGHER@BESCAST.COM	
2013	VP RESEARCH & DEVELOPMENT	KURT BISCHOFF	43607BTCCR1001B	BETCO CORP	1001 BROWN AVE	TOLEDO	LUCAS	OH	43607			BETCO CORP	1001 BROWN AVE	TOLEDO	OH		43607	YES	NO	NO	NO	KIRK PETERMAN	4197253672	2842	2841	2851					325612	325611	325510				41.65065	-83.5859	005050158								BETCO CORORATION	005050158	NO	KPETERMAN@BETCO.COM	
2013	INDUSTRIAL ENGINEERING MANAGER	TABER MOSS	43502BLJXN125TA	BIL-JAX INC	125 TAYLOR PKWY	ARCHBOLD	FULTON	OH	43502			BIL-JAX INC	125 TAYLOR PKWY	ARCHBOLD	OH		43502	YES	NO	NO	NO	GUY BURKHOLDER	4194458915	3536							332323						41.502581	-84.309603	005048236								HAULOTTE US INC	850220172	NO	GBURKHOLDER@HAULOTTE.COM	
2013	PRESIDENT	ROGER REEDY	45439THBMC3034D	BIMAC CORP	3034 DRYDEN RD	DAYTON	MONTGOMERY	OH	45439			BIMAC CORP	3034 DRYDEN RD	DAYTON	OH		45439	YES	NO	NO	NO	ROGER REEDY	9372717174	3324							331512						39.70954	-84.22222	004244240								BIMAC CORP	004244240	NO	RREEDY@BIMAC.COM	
2013	GENERAL MANAGER	DAVID JENTZSCH	44273BLRRB52PAN	BLAIR RUBBER CO	5020 PANTHER PKWY	SEVILLE	MEDINA	OH	44273			BLAIR RUBBER CO	5020 PANTHER PKWY	SEVILLE	OH		44273	YES	NO	NO	NO	DAVID P. JENTZSCH	3307695583								326299						41.02711	-81.86934	057384760								GOLDIS ENTERPRISES INC		NO	DAVE.JENTZSCH@BLAIRRUBBER.COM	
2013	PRESIDENT	GREG BALLINGER	45107THBLN214EC	BLANCHESTER FOUNDRY	214 E CHERRY ST	BLANCHESTER	CLINTON	OH	45107			BLANCHESTER FOUNDRY	PO BOX 126	BLANCHESTER	OH		45107	YES	NO	NO	NO	GREG T. BALLINGER	9377832091	3321							331511						39.29353	-83.9855	004234639										NO	GREG@BLANCHESTERFOUNDRY.COM	
2013	VICE PRESIDENT	TIMOTHY MAEGLY	44273BLCHT8929R	BLEACHTECH LLC	320 RYAN RD	SEVILLE	MEDINA	OH	44273			BLEACHTECH LLC	350 RYAN RD	SEVILLE	OH		44273	YES	NO	NO	NO	TIMOTHY F MAEGLY	3304212134	2812							325181						41.02914	-81.87646	784761285										NO	TIM@BLEACHTECH.COM	
2013	VICE PRESIDENT, QUALITY AFFAIRS	DOUGLAS LIPPS	43228RXNLB1509W	BOEHRINGER INGELHEIM ROXANE INC	1809 WILSON RD	COLUMBUS	FRANKLIN	OH	43228			BOEHRINGER INGELHEIM ROXANE INC	PO BOX 16532	COLUMBUS	OH		432166532	YES	NO	NO	NO	MARK SLAIMAN	6142764000	2834							325412						39.990459	-83.109273	058839929								BOEHRINGER INGELHEIM CORP	603175944	NO	MARK.SLAIMAN@BOEHRINGER-INGELHEIM.COM	
2013	VP OF OPERATIONS	KEVIN ASTI	43832DVRSTONEGE	BOLTARON INC	1 GENERAL ST	NEWCOMERSTOWN	TUSCARAWAS	OH	43832			BOLTARON INC	1 GENERAL ST	NEWCOMERSTOWN	OH		43832	YES	NO	NO	NO	KEVIN ASTI	7404985900	3081							326113						40.27961	-81.59125	147717347										NO	KASTI@BOLTARON.COM	
2013	MANAGER TECHNICAL SERVICES	MICHAEL BOENISCH	4521WBNSLM5155F	BONSAL AMERICAN INC	5155 FISCHER AVE	CINCINNATI	HAMILTON	OH	452171157			BONSAL AMERICAN INC	5155 FISCHER AVE	CINCINNATI	OH		45217-1157	YES	NO	NO	NO	MIKE BOENISCH	7045294272								327999						39.17205	-84.4837	003149457								OLDCASTLE INC	037176591	NO	MIKE.BOENISCH@OLDCASTLE.COM	
2013	SAFETY MANAGER	TONY GRANT	45215HMYRDJOHNE	BORDEN DAIRY CO OF CINCINNATI LLC	415 JOHN ST	CINCINNATI	HAMILTON	OH	45215			BORDEN DAIRY CO OF CINCINNATI LLC	415 JOHN ST	CINCINNATI	OH		45215	YES	NO	NO	NO	TONY GRANT	5139482600	2026							311511						39.21902	-84.45085	969549898								BORDEN DAIRY CO OF CINCINNATI LLC	969549898	NO	TONY.GRANT@BORDENDAIRY.COM	
2013	VICE PRESIDENT	EDWARD MILLIKEN	43055THBWR1329S	BOWERSTON SHALE CO	1329 SEVEN HILLS RD NE	NEWARK	LICKING	OH	43055			BOWERSTON SHALE CO	1329 SEVEN HILLS RD NE	NEWARK	OH		43055	YES	NO	NO	NO	EDWARD C. MILLIKEN	7402692921	3251							327121						40.07732	-82.24956									CLAY CITY PIPE CO		NO	EMILLIKEN@BOWERSTONSHALE.COM	
2013	VICE PRESIDENT	EDWARD MILLIKEN	44695BWRST515MA	BOWERSTON SHALE CO	515 MAIN ST	BOWERSTON	HARRISON	OH	44695			BOWERSTON SHALE CO	PO BOX 199	BOWERSTON	OH		44695	YES	NO	NO	NO	EDWARD MILLIKEN	7402692921	3251							327121						40.42268	-81.18141									CLAY CITY PIPE CO		NO	EMILLIKEN@BOWERSTONSHALE.COM	
2013	TERMINAL MANAGER	PETER WHITSON	45404BPXPL621BR	BP - DAYTON TERMINAL	621 BRANDT ST	DAYTON	MONTGOMERY	OH	45404			BP - DAYTON TERMINAL	621 BRANDT ST	DAYTON	OH		45404	YES	NO	NO	NO	KRISTEN HANCOCK	7087495019	5171							424710						39.78559	-84.16028	095194684		OHD095194684		OH0109207				BP PRODUCTS N.A. INC	039596507	NO	KRISTEN.HANCOCK@BP.COM	
2013	CINCINNATI TERMINAL MANAGER	ARICKA PETERS	45229BPXPL930TE	BP PRODUCTS NA INC CINCINNATI TERMINAL	930 TENNESSEE AVE	CINCINNATI	HAMILTON	OH	45229			BP PRODUCTS NA INC CINCINNATI TERMINAL	930 TENNESSEE AVE	CINCINNATI	OH		45229	YES	NO	NO	NO	KRISTEN HANCOCK	7087495019	5171							424710						39.1702	-84.4822	017685140								BP PRODUCTS N.A. INC	039596507	NO	KRISTEN.HANCOCK@BP.COM	
2013	HSSE MANAGER, COMPLIANCE & ETHICS LEADER	THOMAS BRUNGARD	43616SHLCM4001C	BP-HUSKY REFINING LLC	4001 CEDAR POINT RD	OREGON	LUCAS	OH	436161310			BP-HUSKY REFINING LLC	PO BOX 696	TOLEDO	OH		436970696	YES	NO	NO	NO	MARY CAPRELLA	4192261475	2911							324110						41.679167	-83.449722	005057542								BP-HUSKY REFINING LLC	055057542	NO	MARY.CAPRELLA@BP.COM	
2013	HUMAN RESOURCES MANAGER	KELLY BOYD	44103BRZNG1101E	BRAZING & METAL TREATING DIV	1101 E 55TH ST	CLEVELAND	CUYAHOGA	OH	44103			BRAZING & METAL TREATING DIV	1101 E 55TH ST	CLEVELAND	OH		44103	YES	NO	NO	NO	COLE COE	2168818100	3398							332811						41.528354	-81.65198									HI TECMETAL GROUP INC		NO	CCOLE@HTG.CC	
2013	VICE PRESIDENT	TAKAO ISHIBASHI	43351BRDGS245CO	BRIDGESTONE APM - UPPER SANDUSKY FPD	245 COMMERCE WAY	UPPER SANDUSKY	WYANDOT	OH	43351			BRIDGESTONE APM - UPPER SANDUSKY FPD	PO BOX 450	UPPER SANDUSKY	OH		43351	YES	NO	NO	NO	JOSEPH W. CLARK	4197226159	3086							326150						40.852778	-83.268056	186928255								BRIDGESTONE JAPAN		NO	JWCLARK@BAPM.COM	
2013	PRESIDENT & CEO	DUKE KAWAI	43351BRDGS235CO	BRIDGESTONE APM UPPER SANDUSKY AVD	235 COMMERCE WAY	UPPER SANDUSKY	WYANDOT	OH	43351			BRIDGESTONE APM UPPER SANDUSKY AVD	PO BOX 450	UPPER SANDUSKY	OH		43351	YES	NO	NO	NO	JOE CLARK	4192946989	3061							326291						40.852778	-83.268056									BRIDGESTONE AMERICAS HOLDING INC		NO	JWCLARK@BAPM.COM	
2013	VP - METAL DIVISIONS	BRENT TAYLOR	4490WBRSHC1595W	BROSHCO FABRICATED PRODUCTS	1595 W LONGVIEW AVE	MANSFIELD	RICHLAND	OH	449061806			BROSHCO FABRICATED PRODUCTS	1595 W LONGVIEW AVE	MANSFIELD	OH		44906-1806	YES	NO	NO	NO	JOE OLIVIERI	4195243778								336360						40.77613	-82.56856	004157145								JAY INDUSTRIES INC	004157145	NO	JOLIVIERI@JAYINDINC.COM	
2013	PLANT MANAGER	MICHAEL DEPUE	45750BRGHT2107T	BROUGHTON FOODS CO	1701 GREENE ST	MARIETTA	WASHINGTON	OH	45750			BROUGHTON FOODS CO	1701 GREENE ST	MARIETTA	OH		45750	YES	NO	NO	NO	MIKE DEPUE	7403761843	2026							311511						39.417475	-81.446343	004321238								DEAN FOODS CO	929182210	NO	MIKE_DEPUE@DEANFOODS.COM	
2013	MANAGER	MELISSA HENDERSON	45802BCKYR637NJ	BRP MANUFACTURING CO	637 N JACKSON	LIMA	ALLEN	OH	45801			BRP MANUFACTURING CO	637 N JACKSON	LIMA	OH		45801	YES	NO	NO	NO	MELISSA HENDERSON	4192284441	3069							326299						40.74776	-84.09998	030526701								BRP MANUFACTURING CO	030526701	NO	MELISSAH@BRPMFG.COM	
2013	PRESIDENT	KEVIN LEE	43812BCKYF1260E	BUCKEYE FABRIC FINISHING CO	1260 E MAIN ST	COSHOCTON	COSHOCTON	OH	43812			BUCKEYE FABRIC FINISHING CO	1260 E MAIN ST	COSHOCTON	OH		43812	YES	NO	NO	NO	KEVIN E. LEE	7406223251	2295							313320						40.274249	-81.850693	004302907										NO	INFO@BUCKEYEFABRIC.COM	
2013	LEAD ENVIRONMENTAL ENGINEER	TRAVIS QUARLES	44820BCYRS260EB	BUCYRUS BLADES INC	260 E BEAL AVE	BUCYRUS	CRAWFORD	OH	44820			BUCYRUS BLADES INC	260 E BEAL AVE	BUCYRUS	OH		44820	YES	NO	NO	NO	NATE KRZYSIAK	4195632636	3531							333120						40.79019	-82.97625	009028259								ESCO CORP	009028259	NO	NATHANIEL.KRZYSIAK@ESCOCORP.COM	
2013	SITE MANAGER / U.S. QUALITY DIRECTOR	JOHN SLUPECKI	43551MRCNC12600	BULK MOLDING COMPOUNDS INC	12600 ECKEL RD	PERRYSBURG	WOOD	OH	43551			BULK MOLDING COMPOUNDS INC	12600 ECKEL RD	PERRYSBURG	OH		43551	YES	NO	NO	NO	US COMPLIANCE CORP	9522523000	3087							325991						41.54608	-83.64246	005044128								BULK MOLDING COMPOUNDS INC	085228377	NO	EPCRA@USCOMPLIANCE.COM	
2013	ENVIRONMENTAL DIRECTOR	LOREN POLAK	44811CNTRL605GO	BUNGE NA (EAST)	605 GOODRICH RD	BELLEVUE	HURON	OH	448110369			BUNGE NA (EAST)	PO BOX 369	BELLEVUE	OH		448110369	YES	NO	NO	NO	MEL HOLDER	4194835340	2075							311222						41.28473	-82.82024	006981435								BUNGE N.A. INC	006981435	NO	MEL.HOLDER@BUNGE.COM	
2013	FACILITY MANAGER	TONY MATNEY	45833CNTRL234SJ	BUNGE NA (EAST) LLC	234 S JEFFERSON ST	DELPHOS	VAN WERT	OH	458330485			BUNGE NA (EAST) LLC	234 S JEFFERSON ST	DELPHOS	OH		45833-0485	YES	NO	NO	NO	TONY MATNEY	4166926010	2075							311222	311224					40.84121	-84.3423	006981435								BUNGE LTD	006981435	NO	TONY.MATNEY@BUNGE.COM	
2013	CORPORATE DIRECTOR, HUMAN RESOURCES	PHILLIP HENZLER	43515BNTNG200VA	BUNTING BEARINGS LLC	200 VAN BUREN ST	DELTA	FULTON	OH	43515			BUNTING BEARINGS LLC	PO BOX 37	DELTA	OH		43515	YES	NO	NO	NO	PHILLIP W. HENZLER	4198667000	3369							331528						41.57603	-83.99745	606881514								BUNTING BEARINGS LLC		NO	PHENZLER@BUNTINGBEARINGS.COM	
2013	CORPORATE DIRECTOR, HUMAN RESOURCES	PHILLIP HENZLER	44902GLPCH153EA	BUNTING BEARINGS LLC	153 E FIFTH ST	MANSFIELD	RICHLAND	OH	44902			BUNTING BEARINGS LLC	PO BOX 1053	MANSFIELD	OH		449011053	YES	NO	NO	NO	PHILLIP HENZLER	4198667000	3366							331529	331525					40.76275	-82.51039	045615382								BUNTING BEARINGS LLC		NO	PHENZLER@BUNTINGBEARINGS.COM	
2013	DIRECTOR OF AEROSOL OPERATIONS	PETER HINZY	45244HKNCN8200B	BWAY CORP BWAY PACKAGING DIV	8200 BROADWELL RD	CINCINNATI	HAMILTON	OH	45244			BWAY CORP BWAY PACKAGING DIV	8200 BROADWELL RD	CINCINNATI	OH		45244	YES	NO	NO	NO	TERI RALEIGH	5133882220	3411	3479						332431						39.13886	-84.32126	809993520								BWAY HOLDING CO	809993520	NO	TERI.RALEIGH@BWAYCORP.COM	
2013	ENGINEERING MANAGER	SCOTT YAIST	43551CMMRC3RDDS	CALPHALON	3RD & D ST	PERRYSBURG	WOOD	OH	43551			CALPHALON	PO BOX 583	TOLEDO	OH		43697	YES	NO	NO	NO	STEVE SAMPSON	4196622277	3469	3471						332215	332214					41.58448	-83.54402	005048400								NEWELL RUBBERMAID	161403852	NO	STEVE.SAMPSON@NEWELLCO.COM	
2013	TECHNICAL DIRECTOR	THOMAS RIELAGE	45014CLVRY9233S	CALVARY INDUSTRIES INC	9233 SEWARD RD	FAIRFIELD	BUTLER	OH	45014			CALVARY INDUSTRIES INC	9233 SEWARD RD	FAIRFIELD	OH		45014	YES	NO	NO	NO	THOMAS RIELAGE	5138741113	2841							325611						39.32951	-84.49234	139637599										NO	INFO@CALVARYINDUSTRIES.COM	
2013	VICE PRESIDENT	ROBERT ENGEL	44648CMPBL611ER	CAMPBELL OIL CO - MASSILLON	611 ERIE ST	MASSILLON	STARK	OH	44646			CAMPBELL OIL CO - MASSILLON	PO BOX 907	MASSILLON	OH		44648	YES	NO	NO	NO	ROBERT ENGEL	8005898555	5171							424710						40.79067	-81.52033											NO	SALES@CAMPBELLOIL.COM	
2013	VICE PRESIDENT OF MANUFACTURING, NAPOLEON OPS	MARK CACCIATORE	43545CMPBLEASTM	CAMPBELL SOUP SUPPLY CO LLC	12-773 STATE RT 110	NAPOLEON	HENRY	OH	43545			CAMPBELL SOUP SUPPLY CO LLC	PO BOX 311	NAPOLEON	OH		43545	YES	NO	NO	NO	SUSAN BARANOWSKY	8563426111	2032							311422						41.35606	-84.114479	192685100								CAMPBELL SOUP CO	192685100	NO	SUSAN_BARANOWSKY@CAMPBELLSOUP.COM	
2013	V.P. RESEARCH AND DEVELOPMENT	JOHN WIEGAND	43615CNBRR3610H	CANBERRA CORP	3610 N HOLLAND-SYLVANIA RD	TOLEDO	LUCAS	OH	43615			CANBERRA CORP	3610 N HOLLAND-SYLVANIA RD	TOLEDO	OH		43615	YES	NO	NO	NO	DAN JOHNSON	4198416616	2842							325612						41.68391	-83.68333											NO	DAN.JOHNSON@CANBERRACORP.COM	
2013	OPERATIONS MANAGER	JOHN RICH	44406CNFLD460WE	CANFIELD COATING LLC	460 W MAIN ST	CANFIELD	MAHONING	OH	44406			CANFIELD COATING LLC	460 W MAIN ST	CANFIELD	OH		44406	YES	NO	NO	NO	JOHN RICH	3307023889	3479							332813						41.02476	-80.77593	004189775	079098983									NO	JOHN.RICH@CANFIELDCOATING.COM	
2013	PLANT MANAGER	GEORGE GROH	4410WCNSTC932WD	CANSTO COATINGS	9320 WOODLAND AVE	CLEVELAND	CUYAHOGA	OH	44104			CANSTO COATINGS	9320 WOODLAND AVE	CLEVELAND	OH		44104	YES	NO	NO	NO	GEORGE GROH	2162316115								325510						41.487978	-81.62057											NO	GCG@CANSTO.COM	
2013	PRESIDENT	BRAD AHBE	44706CNTND4575S	CANTON DROP FORGE	4575 SOUTHWAY ST.S.W.	CANTON	STARK	OH	44706			CANTON DROP FORGE	4575 SOUTHWAY ST.S.W.	CANTON	OH		44706	YES	NO	NO	NO	BRAD A. AHBE	3304774511	3462							332111						40.7815	-81.43072	004465142								ENGINEERING MATERIALS INC	151335346	NO	BAHBE@CANTONDROPFORGE.COM	
2013	PRESIDENT &COO	MICHAEL KELTY	43207CPTLR324DE	CAPITAL RESIN CORP	324 DERING AVE	COLUMBUS	FRANKLIN	OH	43207			CAPITAL RESIN CORP	324 DERING AVE	COLUMBUS	OH		43207	YES	NO	NO	NO	ANNE TYLER	6144457177	2821	2869						325211						39.912778	-82.987222	081292070										NO	ATYLER@CAPITALRESIN.COM	
2013	VICE PRESIDENT	MARK HORN	43420CRBFR15STA	CARBO FORGE INC	150 STATE RT 523	FREMONT	SANDUSKY	OH	43420			CARBO FORGE INC	150 STATE RT 523	FREMONT	OH		43420	YES	NO	NO	NO	MARK HORN	4193349788	3462							332111						41.44316	-83.1321	005043781										NO	M.HORN@CARBOFORGE.COM	
2013	EHS MANAGER	STEVEN ROBINSON	43315CRDNG575WM	CARDINGTON YUTAKA TECHNOLOGIES  INC	575 W MAIN ST	CARDINGTON	MORROW	OH	43315			CARDINGTON YUTAKA TECHNOLOGIES  INC	575 W MAIN ST	CARDINGTON	OH		43315	YES	NO	NO	NO	RAYMOND WELCH	4198648777	3714							336390	336350					40.499275	-82.907395	938948379								CARDINGTON YUTAKA TECHNOLOGIES INC		NO	RWELCH@YUTAKATECH.COM	
2013	VP AND GM	TOM WEBER	44128CRDPK19220	CARDPAK INC	29601 SOLON RD	SOLON	CUYAHOGA	OH	44139			CARDPAK INC	29601 SOLON RD	SOLON	OH		44139	YES	NO	NO	NO	TOM WEBER	4405423100	2752							323110						41.388135	-81.470431	004529798										NO	TWEBER@CARDPAK.COM	
2013	AVP - FACILITY MANAGER	GREGORY HOLLER	45414CRGLL3201N	CARGILL INC	3201 NEEDMORE RD	DAYTON	MONTGOMERY	OH	45414			CARGILL INC	3201 NEEDMORE RD	DAYTON	OH		45414	YES	NO	NO	NO	GREGORY W. HOLLER	9372371210	2046							311221						39.82317	-84.171791	061698676								CARGILL INC	006249189	NO	GREG_HOLLER@CARGILL.COM	
2013	OPERATIONS SUPERINTENDENT	LUKE SCHWIETERMAN	45365CRGLL2400I	CARGILL INC	2400 INDUSTRIAL DR	SIDNEY	SHELBY	OH	45365			CARGILL INC	2400 INDUSTRIAL DR	SIDNEY	OH		45365	YES	NO	NO	NO	LUKE SCHWIETERMAN	9374974289	2075							311222						40.27555	-84.19473	083833434								CARGILL INC	006249189	NO	LUKE_SCHWIETERMAN@CARGILL.COM	
2013	PLANT MANAGER	DANIEL PULIS	44314KZSLT2065M	CARGILL INC SALT DIV	2065 MANCHESTER RD	AKRON	SUMMIT	OH	44314			CARGILL INC SALT DIV	2065 MANCHESTER RD	AKRON	OH		44314	YES	NO	NO	NO	DAN PULIS	3308486912	2899							311942	325998					41.04268	-81.54533	006557367								CARGILL INC	006249189	NO	DAN_PULIS@CARGILL.COM	
2013	DIRECTOR OF OPERATIONS	CHAD ONEY	44256FRCTN920LA	CARLISLE BRAKE & FRICTION	920 LAKE RD	MEDINA	MEDINA	OH	44256			CARLISLE BRAKE & FRICTION	920 LAKE RD	MEDINA	OH		44256	YES	NO	NO	NO	PEGGY MULLINS	3307211268	3499							332117						41.12209	-81.89469	361515703								CARLISLE COS INC	361515703	NO	PMULLINS@CARLISLECBF.COM	
2013	AREA OPERATIONS MANAGER	ROBERT PRYSTALOSKI	44045LTVST15WIL	CARMEUSE LIME INC GRAND RIVER OPERATIONS	15 WILLIAMS ST	GRAND RIVER	LAKE	OH	44045			CARMEUSE LIME INC GRAND RIVER OPERATIONS	15 WILLIAMS ST	GRAND RIVER	OH		44045	YES	NO	NO	NO	DAVID SWISHER	4129952023	3274							327410						41.748962	-81.283599	122472710								CARMEUSE LIME INC.	021073510	NO	DAVID.SWISHER@CARMEUSENA.COM	
2013	AREA OPERATIONS MANAGER	ROBERT PRYSTALOSKI	44815HLMNC1967W	CARMEUSE LIME INC MAPLE GROVE OPERATIONS	1967 W COUNTY RD 42	BETTSVILLE	SENECA	OH	44815			CARMEUSE LIME INC MAPLE GROVE OPERATIONS	PO BOX 708	BETTSVILLE	OH		448150708	YES	NO	NO	NO	DAVID SWISHER	4129952023	3274							327410						41.2246	-83.2084	074986035								CARMEUSE LIME INC.	021073510	NO	DAVID.SWISHER@CARMEUSENA.COM	
2013	AREA OPERATIONS MANAGER	ROBERT PRYSTALOSKI	43435MLLRS3964C	CARMEUSE LIME INC MILLERSVILLE OPERATION	3964 COUNTY RD 41	MILLERSVILLE	SANDUSKY	OH	43435			CARMEUSE LIME INC MILLERSVILLE OPERATION	PO BOX 7081967 W COUNTY RD 42	BETTSVILLE	OH		44815	YES	NO	NO	NO	DAVID SWISHER	4129952023	3274							327410						41.31337	-83.27519	149462611								CARMEUSE LIME INC.	021073510	NO	DAVID.SWISHER@CARMEUSENA.COM	
2013	PLANT MANAGER	RODNEY HICKMAN	45505CSCDC2501S	CASCADE CORP	2501 SHERIDAN AVE	SPRINGFIELD	CLARK	OH	45505			CASCADE CORP	2501 SHERIDAN AVE	SPRINGFIELD	OH		45505	YES	NO	NO	NO	PAUL PHILLIPS	9373270355	3599							333924						39.9101	-83.77117									CASCADE CORP		NO	PAUL.PHILLIPS@CASCORP.COM	
2013	PLANT MANAGER	LARRY READ	45840CSCDK2000P	CASCADE CORP	2000 PRODUCTION DR	FINDLAY	HANCOCK	OH	45840			CASCADE CORP	2000 PRODUCTION DR	FINDLAY	OH		45840	YES	NO	NO	NO	BRIAN WAUFORD	4194253675	3499							332111						41.07146	-83.61076	009031378		OHD986983872						TOYOTA INDUSTRIES CORP	009031378	NO	BRIAN.WAUFORD@CASCORP.COM	
2013	VICE PRESIDENT, HUMAN RESOURCES	FARLEY HOUSTON	45209CSTFB3040F	CAST-FAB TECHNOLOGIES INC	3040 FORRER ST	CINCINNATI	HAMILTON	OH	45209			CAST-FAB TECHNOLOGIES INC	3040 FORRER ST	CINCINNATI	OH		45209	YES	NO	NO	NO	FARLEY HOUSTON	5137581000	3321	3441	3444					331511	332322	332313				39.159788	-84.433737	186116216										NO	FHOUSTON@CAST-FAB.COM	
2013	PRESIDENT/PLANT MANAGER	JEREMIAH CLEGG	43702BRNHM2345L	CASTING SOLUTIONS LLC	2345 LICKING RD	ZANESVILLE	MUSKINGUM	OH	43701			CASTING SOLUTIONS LLC	PO BOX 3148	ZANESVILLE	OH		437023148	YES	NO	NO	NO	DAVID JONES	7404529371	3321							331511						39.95625	-82.03746	141807086								BURNHAM HOLDINGS INC	001525054	NO	DJONES@CASTINGSOLUTIONS.COM	
2013	ENGINEERING DRAFTSMAN	ROBERT SCHATZ	44663CSTNG261BR	CASTINGS USA INC	2061 BRIGHTWOOD RD SE	NEW PHILADELPHIA	TUSCARAWAS	OH	44663			CASTINGS USA INC	PO BOX 202	MIDVALE	OH		44653	YES	NO	NO	NO	BOB SCHATZ	3303393611	3321							331511						40.44565	-81.39067	068898501										NO	BOBSCHATZ@REYMONDPRODUCTS.COM	
2013	DIRECTOR OF HSEQ	ERIC NELSON	44870MRCNC1321F	CCP COMPOSITES US LLC	1321 FIRST ST	SANDUSKY	ERIE	OH	44870			CCP COMPOSITES US LLC	PO BOX 419389	KANSAS CITY	MO		641416389	YES	NO	NO	NO	ERIC NELSON	8163916324	2851							325510						41.45214	-82.68961	610416802								CCP COMPOSITES US	610416802	NO	ERIC.NELSON@CCPCOMPOSITESUS.COM	
2013	VICE PRESIDENT - ENGINEERING / OPERATIONS	MICHAEL GASAWAY	45107CCP00838CH	CCPI INC	838 CHERRY ST	BLANCHESTER	CLINTON	OH	45107			CCPI INC	838 CHERRY ST	BLANCHESTER	OH		45107	YES	NO	NO	NO	MICHAEL GASAWAY	9377832476	3999							339999						39.29616	-83.97676											NO	MGASAWAY@CCPI-INC.COM	
2013	SENIOR VICE PRESIDENT	KEITH BROWN	45822CLNLM7059S	CELINA ALUMINUM PRECISION TECH	7059 STAEGER RD	CELINA	MERCER	OH	45822			CELINA ALUMINUM PRECISION TECH	7059 STAEGER RD	CELINA	OH		45822	YES	NO	NO	NO	DENNIS LEE	4195862278	3365	3592						331524	336311					40.55465	-84.52257	926406695										NO	DLEE@CAPT-CELINA.COM	
2013	PLANT MANAGER	JOHN MILLER	45324CMNTCSWCOR	CEMEX INC FAIRBORN CEMENT PLANT	3250 LINEBAUGH RD	XENIA	GREENE	OH	45385			CEMEX INC FAIRBORN CEMENT PLANT	3250 LINEBAUGH RD	XENIA	OH		45385	YES	NO	NO	NO	LILLIAN DEPRIMO	8655415506	3241							327310						39.7779	-83.9661	189840945								CEMEX INC		NO	LILLIANF.DEPRIMO@CEMEX.COM	
2013	PLANT LEADER	CHARLES HAMILTON	43725GSMTH530NO	CENTRIA	530 N SECOND ST	CAMBRIDGE	GUERNSEY	OH	437251214			CENTRIA	530 N SECOND ST	CAMBRIDGE	OH		43725-1214	YES	NO	NO	NO	JAMES D. JOHNSON	7404327351	3479	3448						332812						40.03232	-81.59997	004334843								CENTRIA	004334843	NO	JJOHNSON@CENTRIA.COM	
2013	PLANT MANAGER	LOUIS FRONZAGLIO	44846CRTNT11519	CERTAINTEED CORP	11519 US RT 250 N	MILAN	ERIE	OH	44846			CERTAINTEED CORP	11519 US RT 250 N	MILAN	OH		44846	YES	NO	NO	NO	MARKO ZECK	4194992581	2952							324122						41.321616	-82.614759	044945236								SAINT-GOBAIN CORP	879321644	NO	MARKO.G.ZECK@SAINT-GOBAIN.COM	
2013	PRESIDENT	MARIAN DEVOE	44024CHRDN373WA	CHARDON CUSTOM POLYMERS	373 WASHINGTON ST	CHARDON	GEAUGA	OH	44024			CHARDON CUSTOM POLYMERS	373 WASHINGTON ST	CHARDON	OH		44024	YES	NO	NO	NO	MARIAN K. DEVOE	4402852161	3061							326291						41.58634	-81.20893	962346446										NO	MDEVOE@CHARDONCP.COM	
2013	DIVISION ENVIRONMENTAL MANAGER	MATT SCHROEDER	44125MRCNS4300E	CHARTER STEEL CLEVELAND	4300 E 49TH ST	CUYAHOGA HEIGHTS	CUYAHOGA	OH	44125			CHARTER STEEL CLEVELAND	4300 E 49TH ST	CUYAHOGA HEIGHTS	OH		44125	YES	NO	NO	NO	MATT SCHROEDER	2622682565	3312							331111	331221	331222				41.442661	-81.66421	154189989								CHARTER MANUFACTURING CO INC	051618056	NO	SCHROEDERM@CHARTERSTEEL.COM	
2013	PLANT MANAGER	JOHN GERCZAK	43457CHRTR6255U	CHARTER STEEL RISINGSUN	6255 US RT 23 S	RISINGSUN	WOOD	OH	43457			CHARTER STEEL RISINGSUN	PO BOX 1278	FOSTORIA	OH		44830	YES	NO	NO	NO	MATT SCHROEDER	2624574002	3312	3398						331111						41.214753	-83.420468	001010565								CHARTER MANUFACTURING CO INC	051618056	NO	SCHROEDERM@CHARTERSTEEL.COM	
2013	DIRECTOR, ENVIRONMENTAL/SPECIAL PROJECTS	JOHN WITZERMAN	43543CHSBRSTATE	CHASE BRASS & COPPER CO LLC	14212 SELWYN DR	MONTPELIER	WILLIAMS	OH	43543			CHASE BRASS & COPPER CO LLC	14212 SELWYN DR	MONTPELIER	OH		43543	YES	NO	NO	NO	D GOEHLER	4194853193	3351	3369						331492						41.608852	-84.5511	618583173								GLOBAL BRASS & COPPER INC	808500032	NO		
2013	PLANT MANAGER	RICK SCHWEITZER	45246CHSND10021	CHASE INDUSTRIES INC	10021 COMMERCE PARK DR	CINCINNATI	BUTLER	OH	45246			CHASE INDUSTRIES INC	10021 COMMERCE PARK DR	CINCINNATI	OH		45246	YES	NO	NO	NO	RICK SCHWEITZER	5138605565	3442							332321						39.3057	-84.45402	004238499		OHD000107649								NO	RSHWEITZER@CHASEDOORS.COM	
2013	VICE PRESIDENT - PURCHASING	DONNA DECKER	44062CHMTC14875	CHEM TECHNOLOGIES LTD	14875 BONNER DR	MIDDLEFIELD	GEAUGA	OH	44062			CHEM TECHNOLOGIES LTD	14875 BONNER DR	MIDDLEFIELD	OH		44062	YES	NO	NO	NO	JIM SCHILL	4406329311	2899							325998	325212					41.46369	-81.0543	029964652										NO	SJSCHILL@CHEMTECHNOLOGIESLTD.COM	
2013	PRESIDENT	ANTHONY DEMOS	44127MNRLM7700B	CHEMALLOY MINERAL MET INC DIV	7700 BESSEMER AVE	CLEVELAND	CUYAHOGA	OH	44127			CHEMALLOY MINERAL MET INC DIV	7700 BESSEMER AVE	CLEVELAND	OH		44127	YES	NO	NO	NO	A.C. DEMOS	6105273700	3399							331112	331110					41.46721	-81.63394	043566777								CHEMALLOY CO INC	043566777	NO		
2013	ENGINEER	ANTHONY DATTILO	44109CHMCL1010D	CHEMICAL SOLVENTS INC--DENISON FACILITY	1010 OLD DENISON AVE	CLEVELAND	CUYAHOGA	OH	44109			CHEMICAL SOLVENTS INC--DENISON FACILITY	3751 JENNINGS RD	CLEVELAND	OH		44109	YES	NO	NO	NO	TIMOTHY P. MCNEILLY	2167419310	4953							562211						41.451021	-81.685296	052937885								CHEMICAL SOLVENTS INC		NO	TMCNEILLY@CHEMICALSOLVENTS.COM	
2013	ENGINEER	ANTHONY DATTILO	44109CHMCL3751J	CHEMICAL SOLVENTS JENNINGS ROAD FACILITY	3751 JENNINGS RD	CLEVELAND	CUYAHOGA	OH	44109			CHEMICAL SOLVENTS JENNINGS ROAD FACILITY	3751 JENNINGS RD	CLEVELAND	OH		44109	YES	NO	NO	NO	TIMOTHY P. MCNEILLY	2167419310	2869	5169						325998	424690					41.452938	-81.687277	052937885								CHEMICAL SOLVENTS INC		NO	TMCNEILLY@CHEMICALSOLVENTS.COM	
2013	VICE PRESIDENT CHEMINEER	PATRICIA BREIG	45414CHMNR5870P	CHEMINEER INC	5870 POE AVE	DAYTON	MONTGOMERY	OH	45414			CHEMINEER INC	5870 POE AVE	DAYTON	OH		45414	YES	NO	NO	NO	JACK DITTMAN	9374543211	3569							333999						39.83326	-84.18909	004262465								NATIONAL OILWELL VARCO LP	161681044	NO	JACK.DITTMAN@NOV.COM	
2013	DIRECTOR OF OPERATIONS	JAMES FERGUSON	44278CHMNC390MU	CHEMIONICS CORP	390 MUNROE FALLS RD	TALLMADGE	SUMMIT	OH	44278			CHEMIONICS CORP	390 MUNROE FALLS RD	TALLMADGE	OH		44278	YES	NO	NO	NO	JIM FERGUSON	3307338834	3069	3089						325510						41.06194	-81.41665	055573430								CHESSCO INC		NO	FERGUSON@CHEMIONICS.COM	
2013	EHS MANAGER	BRENDA CARR	44057CHMMS300ED	CHEMMASTERS	300 EDWARDS ST	MADISON	LAKE	OH	44057			CHEMMASTERS	300 EDWARDS ST	MADISON	OH		44057	YES	NO	NO	NO	DAN SCHODOWSKI	4404282105	2899							325510	325520	327320				41.77676	-81.05148	004203675								CHEMMASTERS INC		NO	DAN@JTMPRODUCTS.NET	
2013	REGULATORY TOXICOLOGIST	ANTHONY CAMPAGNA	43607CHMPC45BUR	CHEMPACE CORP	339 ARCO DR	TOLEDO	LUCAS	OH	43607			CHEMPACE CORP	339 ARCO DR	TOLEDO	OH		43607	YES	NO	NO	NO	ANTHONY CAMPAGNA	4195350101	2841	2819	2842	2899				325611						41.633419	-83.622016	043636471										NO	ACAMPAGNA@CHEMPACE.COM	
2013	DIRECTOR OF RESEARCH & MANUFACTURING	BRUCE PHILLIPPI	45439CHMST3400E	CHEMSTATION INTERNATIONAL	3400 ENCRETE LN	DAYTON	MONTGOMERY	OH	45439			CHEMSTATION INTERNATIONAL	3400 ENCRETE LN	DAYTON	OH		45439	YES	NO	NO	NO	KATIE OVERTON	9372948265	2841							325611						39.70393	-84.21071	177350279								CHEMSTATION INTERNATIONAL		NO	KOVERTON@CHEMSTATION.COM	
2013	PLANT MANAGER	FRED BOEHEIM	45820CRCHMROUTE	CHEMTRADE LOGISTICS INC CAIRO SULFUR PRODS	7680 OTTAWA RD	ELIDA	ALLEN	OH	458079562			CHEMTRADE LOGISTICS INC CAIRO SULFUR PRODS	PO BOX 310	CAIRO	OH		45820	YES	NO	NO	NO	FRED BOEHEIM	4196414151	2819							325188						40.84843	-84.080325	006193424								CHEMTRADE LOGISTICS INC	251951794	NO	FBOEHEIM@CHEMTRADELOGISTICS.COM	
2013	PLANT MANAGER	TIMOTHY HANIFORD	43616CLTNC1400O	CHEMTRADE REFINERY SOLUTIONS LP	1400 OTTER CREEK RD	OREGON	LUCAS	OH	436161232			CHEMTRADE REFINERY SOLUTIONS LP	1400 OTTER CREEK RD	OREGON	OH		43616-1232	YES	NO	NO	NO	TIM HANIFORD	4196988181	2819							325188						41.681417	-83.457722	201126559								CHEMTRADE LOGISTICS		NO	THANIFORD@CHEMTRADELOGISTICS.COM	
2013	OPERATIONS MANAGER	ROBERT GUENTHER	44011CHMTR35850	CHEMTRON CORP	35850 SCHNEIDER CT	AVON	LORAIN	OH	44011			CHEMTRON CORP	35850 SCHNEIDER CT	AVON	OH		44011	YES	NO	NO	NO	ROBERT J. GUENTHER	4409376348	7389							562211						41.47154	-82.01677	066060609										NO		
2013	AUTHORIZED CONSULTANT	VALERIAN SIMIANU	4411WCHSTR122EA	CHESTERFIELD STEEL	1220 E 222ND ST	CLEVELAND	CUYAHOGA	OH	44117			CHESTERFIELD STEEL	1220 E 222ND ST	CLEVELAND	OH		44117	YES	NO	NO	NO	ALLAN MAGGIED	2164816600								423510						41.58083	-81.52672									STEEL WAREHOUSE CO LLC	005441381	NO	AMAGGIED@CHESTERFIELDSTEEL.COM	
2013	PLANT MANAGER	JOHN PLOENES	44256CHCKM945LA	CHICK MASTER INCUBATOR CO	945 LAFAYETTE RD	MEDINA	MEDINA	OH	44256			CHICK MASTER INCUBATOR CO	945 LAFAYETTE RD	MEDINA	OH		44256	YES	NO	NO	NO	JOHN PLOENES	3307225591	3523							333111						41.12479	-81.8918	066054131										NO	JPLOENES@CHICKMASTER.COM	
2013	PLANT MANAGER	TOMAS TINDERA	45215NDXNC620SH	CHROMAFLO TECHNOLOGIES CORP	620 SHEPHERD DR	LOCKLAND	HAMILTON	OH	45215			CHROMAFLO TECHNOLOGIES CORP	620 SHEPHERD DR	LOCKLAND	OH		45215	YES	NO	NO	NO	TOM TINDERA	5137335111	2851							325510						39.23731	-84.46402	054127519								CHROMAFLO TECHNOLOGIES CORP	054127519	NO	TTINDERA@CHROMAFLO.COM	
2013	MANUFACTURING PLANT MANAGER	WAYNE PEDLAR	44004PLSTC2600M	CHROMAFLO TECHNOLOGIES CORP	2600 MICHIGAN AVE	ASHTABULA	ASHTABULA	OH	44004			CHROMAFLO TECHNOLOGIES CORP	PO BOX 816	ASHTABULA	OH		440050816	YES	NO	NO	NO	TODD PEW	4409975137	2851							325510						41.87714	-80.80602	054127519										NO	TPEW@CHROMAFLO.COM	
2013	PLANT MANAGER	JOSEPH BRINKMAN	45050CHRMD341LA	CHROME DEPOSIT CORP	341 LAWTON AVE	MONROE	BUTLER	OH	45050			CHROME DEPOSIT CORP	341 LAWTON AVE	MONROE	OH		45050	YES	NO	NO	NO	JOSEPH H. BRINKMAN	5135398486	3471							332813						39.44792	-84.34602	154189716										NO		
2013	PRESIDENT	FRANK JALILI	44105CHRMM8701U	CHROMIUM CORP	8701 UNION AVE	CLEVELAND	CUYAHOGA	OH	44105			CHROMIUM CORP	8701 UNION AVE	CLEVELAND	OH		44105	YES	NO	NO	NO	FRANK JALILI	2162714910	3471							332813						41.46347	-81.6269	061023768								ELK TECHNOLOGY GROUP INC	615499803	NO	FRANK.JALILI@CHROMCORP.COM	
2013	CHIEF CHEMIST	NORMAN RATH	43326NVRSL728ST	CHS INC KENTON LUBE PLANT	728 STEINER AVE	KENTON	HARDIN	OH	43326			CHS INC KENTON LUBE PLANT	728 STEINER AVE	KENTON	OH		43326	YES	NO	NO	NO	NORMAN RATH	4196744028	2992							324191						40.63754	-83.60847	006147177								CHS INC	006147177	NO	NORM.RATH@CHSINC.COM	
2013	VICE PRESIDENT AND SECRETARY	GREGORY MEURER	45103CNCHM458WE	CINCHEMPRO INC	458 W MAIN ST	BATAVIA	CLERMONT	OH	45103			CINCHEMPRO INC	458 W MAIN ST	BATAVIA	OH		45103	YES	NO	NO	NO	JOHN GLASS	5137322464	2899							325998						39.0813	-84.18454	148693906								DIVERSIFIED GLASS INC.	809490550	NO	JTGLASS@CINCHEMPRO.COM	
2013	GENERAL MANAGER	MIKE REICHLING	45227CNCNN5701M	CINCINNATI STEEL TREATING CO	5701 MARIEMONT AVE	CINCINNATI	HAMILTON	OH	45227			CINCINNATI STEEL TREATING CO	5701 MARIEMONT AVE	CINCINNATI	OH		45227	YES	NO	NO	NO	MIKE REICHLING	5132713173	3398							332811						39.13888	-84.39366	004250213										NO	MIKER@STEELTREATING.COM	
2013	ENVIRONMENTAL COORDINATOR	DEB BUNISKI	45242CNCNN5901C	CINCINNATI THERMAL SPRAY	5901 CREEK RD	CINCINNATI	HAMILTON	OH	45242			CINCINNATI THERMAL SPRAY	5901 CREEK RD	CINCINNATI	OH		45242	YES	NO	NO	NO	SHELDON SPARKS	5137930670	3479							332117						39.2605	-84.36704											NO	SSPARKS@CTS-INC.NET	
2013	QUALITY MANAGER	STEVE BRINKMAN	45215CNDSC515ST	CINDUS CORP	515 STATION AVE	CINCINNATI	HAMILTON	OH	45215			CINDUS CORP	515 STATION AVE	CINCINNATI	OH		45215	YES	NO	NO	NO	STEVE BRINKMAN	5139488800	2679							322299						39.21667	-84.45732	068934850										NO	SBRINKMAN@CINDUS.COM	
2013	DIRECTOR OF UTILITIES	JEFFREY BREDIGER	44667CTYFR1100P	CITY OF ORRVILLE DEPT OF PUB LIC UTILITIES ELECTRIC DEPT	1100 PERRY ST PO BOX 107	ORRVILLE	WAYNE	OH	44667			CITY OF ORRVILLE DEPT OF PUB LIC UTILITIES ELECTRIC DEPT	207 N MAIN ST PO BOX 107	ORRVILLE	OH		44667	YES	NO	NO	NO	JEFF BREDIGER	3306845101	4911							221122						40.850407	-81.766314	945184489								CITY OF ORRVILLE DEPARTMENT OF PUBLIC UTILITIES	945184489	NO	JBREDIGER@ORRUTILITIES.COM	
2013	SUPERINTENDENT	JEFFREY MCHUGH	44077CTYFP325RI	CITY OF PAINESVILLE POWER PLANT	325 RICHMOND ST	PAINESVILLE	LAKE	OH	44077			CITY OF PAINESVILLE POWER PLANT	7 RICHMOND ST   PO BOX 601	PAINESVILLE	OH		44077	YES	NO	NO	NO	KENNETH L. NEWTON	4403925954	4911							221112						41.726396	-81.254031	082340027								CITY OF PAINESVILLE	082340027	NO	KNEWTON@PAINESVILLE.COM	
2013	VICE PRESIDENT MANUFACTURING	MARK BECK	43201CLRKG375EF	CLARK GRAVE VAULT/CTL STEEL	375 E FIFTH AVE	COLUMBUS	FRANKLIN	OH	43201			CLARK GRAVE VAULT/CTL STEEL	375 E FIFTH AVE	COLUMBUS	OH		43201	YES	NO	NO	NO	MARK A. BECK	6142943761	3995							339995						39.98673	-82.99525	004289286										NO	MARK@CLARKVAULT.COM	
2013	V.P. ENVIRONMENTAL COMPLIANCE	JAMES CHILDRESS	43025SFTYK581MI	CLEAN HARBORS RECYCLING SERVICES OF OHIO LLC	581 MILLIKEN DR SE	HEBRON	LICKING	OH	43025			CLEAN HARBORS RECYCLING SERVICES OF OHIO LLC	581 MILLIKEN DR SE	HEBRON	OH		43025	YES	NO	NO	NO	JOHN SCOTT KUHN	8036913426	7389							562920						39.98359	-82.4748									CLEAN HARBORS INC	157793639	NO	KUHNJ@CLEANHARBORS.COM	
2013	ENVIRONMENTAL	MARIA CRUSET	45427PRMFX300SW	CLEAN WATER LTD	300 CHEROKEE DR	DAYTON	MONTGOMERY	OH	45417			CLEAN WATER LTD	300 CHEROKEE DR	DAYTON	OH		45417	YES	NO	NO	NO	MARIA CRUSET	9372686501	4953							562211						39.74158	-84.29332	088075382								OGM LTD		NO	MCRUSET@CLEANWATERLTD.COM	
2013	VICE PRESIDENT	KENNETH MILLER	45103STHRN2565B	CLERMONT STEEL FABRICATORS INC	2565 OLD STATE RT 32	BATAVIA	CLERMONT	OH	45103			CLERMONT STEEL FABRICATORS INC	2565 OLD STATE RT 32	BATAVIA	OH		45103	YES	NO	NO	NO	KEN MILLER	5137326033	3441							332312						39.06626	-84.12717	004234910										NO	KMILLER@CLERMONTSTEEL.COM	
2013	PRESIDENT	ROBERT MCELWEE	44115CLVLN836BR	CLEVELAND BLACK OXIDE	836 BROADWAY AVE	CLEVELAND	CUYAHOGA	OH	44115			CLEVELAND BLACK OXIDE	836 BROADWAY AVE	CLEVELAND	OH		44115	YES	NO	NO	NO	ROBERT D. MCELWEE	2168614431	3471							332813						41.49301	-81.68248									CBO ACQUISITION INC.		NO	BMCELWEE@CLEVELANDBLACKOXIDE.COM	
2013	DIRECTOR OF OPERATIONS	JOHN SADOWSKI	44110CLVLN1333E	CLEVELAND RANGE LLC	1333 E 179TH ST	CLEVELAND	CUYAHOGA	OH	44110			CLEVELAND RANGE LLC	1333 E 179TH ST	CLEVELAND	OH		44110	YES	NO	NO	NO	JOHN SADOWSKI	2162669401	3589							333319						41.57044	-81.55447	605525138								THE MANITOWOC CO INC	006073183	NO	JOHN.SADOWSKI@MANITOWOC.COM	
2013	GENERAL MANAGER	DEREK SHEPPARD	44446CLVLN115ER	CLEVELAND STEEL CONTAINER - NI LES	412 MASON ST	NILES	TRUMBULL	OH	44446			CLEVELAND STEEL CONTAINER - NI LES	412 MASON ST	NILES	OH		44446	YES	NO	NO	NO	DEREK SHEPPARD	3305442270	3412							332439						41.18094	-80.75608	112341987								CLEVELAND STEEL CONTAINER CORP	004525499	NO	DSHEPPARD@CSCPAILS.COM	
2013	GENERAL MANAGER	PETER RAO	44241CLVLN10048	CLEVELAND STEEL CONTAINER CORP - STREETSBORO PLANT	10048 AURORA-HUDSON RD	STREETSBORO	PORTAGE	OH	44241			CLEVELAND STEEL CONTAINER CORP - STREETSBORO PLANT	10048 AURORA-HUDSON RD	STREETSBORO	OH		44241	YES	NO	NO	NO	PETER RAO	3306565600	3412							332439						41.26486	-81.37853	009536041								CLEVELAND STEEL CONTAINER CORP	009536041	NO	PRAO@CSCPAILS.COM	
2013	SAFETY MANAGER	STEVE PETTRY	44104CLVLN7000C	CLEVELAND TRACK MATERIAL INC	7000 CENTRAL AVE	CLEVELAND	CUYAHOGA	OH	44104			CLEVELAND TRACK MATERIAL INC	7000 CENTRAL AVE	CLEVELAND	OH		44104	YES	NO	NO	NO	STEVE PETTRY	2166414000	3443							332323						41.49615	-81.64014	080321516										NO	STEVE.PETTRY@CTM.VOSSLOH.COM	
2013	VP/GM	TOM CRAWFORD	43812CLWWT2266S	CLOW WATER SYSTEMS CO	2266 S 6TH ST	COSHOCTON	COSHOCTON	OH	43812			CLOW WATER SYSTEMS CO	2266 S 6TH ST	COSHOCTON	OH		43812	YES	NO	NO	NO	MICKIE COGGIN	2055783854	3321							331511						40.24534	-81.86284									MCWANE INC	004001715	NO	MCOGGIN@MCWANE.COM	
2013	GENERAL MANAGER	ALEX STENNIS	44471LLGHN15UNI	CMC IMPACT METALS	15 UNION ST BLDG 3	STRUTHERS	MAHONING	OH	44471			CMC IMPACT METALS	15 UNION ST BLDG 3	STRUTHERS	OH		44471	YES	NO	NO	NO	ALAN GILLESPIE	2055997939	3398							332811						41.05761	-80.586695	965526593								COMMERCIAL METALS CO	007925845	NO	ALAN.GILLESPIE@CMC.COM	
2013	VICE PRESIDENT STRUCTURAL FABRICATION	JOHN WALL	44105CMCKL85UNI	CMC KILROY STEEL	8500 UNION AVE	CLEVELAND	CUYAHOGA	OH	44105			CMC KILROY STEEL	8500 UNION AVE	CLEVELAND	OH		44105	YES	NO	NO	NO	ALAN GILLESPIE	2055997939	3441							332312						41.46346	-81.62816	879075638								COMMERCIAL METALS CO	007925845	NO	ALAN.GILLESPIE@CMC.COM	
2013	GENERAL MANAGER	COREY BOWKER	44408CLPMP131EA	COL PUMP CO	131 E RAILROAD ST	COLUMBIANA	COLUMBIANA	OH	44408			COL PUMP CO	131 E RAILROAD ST	COLUMBIANA	OH		44408	YES	NO	NO	NO	COREY BOWKER	3304823381	3321							331511						40.88373	-80.69104	177367067										NO	COREY@COL-PUMP.NET	
2013	ENVIRONMENTAL, HEALTH AND SAFETY LEADER	MICHAEL BENDER	44644CLFRN3255A	COLFOR MANUFACTURING INC-MALVERN	3255 ALLIANCE RD NW	MALVERN	CARROLL	OH	44644			COLFOR MANUFACTURING INC-MALVERN	3255 ALLIANCE RD NW	MALVERN	OH		44644	YES	NO	NO	NO	MICHAEL BENDER	3308681710	3462							332111						40.689268	-81.164792	958028581								AMERICAN AXLE & MANUFACTURING INC	808844567	NO	MICHAEL.BENDER@AAM.COM	
2013	ENVIRONMENTAL, HEALTH AND SAFETY LEADER	MICHAEL BENDER	44657CLFRM461DA	COLFOR MANUFACTURING INC-MINERVA	461 KNOX CT	MINERVA	CARROLL	OH	44657			COLFOR MANUFACTURING INC-MINERVA	461 KNOX CT	MINERVA	OH		44657	YES	NO	NO	NO	MICHAEL BENDER	3308681710	3462							332710						40.724622	-81.113787	958028581								AMERICAN AXLE & MANUFACTURING INC	808844567	NO	MICHAEL.BENDER@AAM.COM	
2013	DIRECTOR OF MANUFACTURING	GONZALO CANTEROS-PAZ	43725CLGTP8800G	COLGATE-PALMOLIVE CO	8800 GUERNSEY INDUSTRIAL BLVD	CAMBRIDGE	GUERNSEY	OH	43725			COLGATE-PALMOLIVE CO	8800 GUERNSEY INDUSTRIAL BLVD	CAMBRIDGE	OH		43725	YES	NO	NO	NO	CLIFFORD WILKINS	2123103749	2841							325611						39.973056	-81.575833	183113091								COLGATE-PALMOLIVE CO	001344381	NO		
2013	DIRECTOR OF OPERATIONS	SCOTT YOUNGS	44017CLRMT68NRC	COLOR MATRIX CORP	680 N ROCKY RIVER DR	BEREA	CUYAHOGA	OH	44017			COLOR MATRIX CORP	680 N ROCKY RIVER DR	BEREA	OH		44017	YES	NO	NO	NO	SCOTT YOUNGS	2166220100	2899							325998						41.38406	-81.85624	025586207										NO	SCOTT.YOUNGS@COLORMATRIX.COM	
2013	PLANT MANAGER	SHAWN PHILBRICK	44212CLMBC3097I	COLUMBIA CHEMICA CORP	1000 WESTERN DR	BRUNSWICK	MEDINA	OH	44212			COLUMBIA CHEMICA CORP	1000 WESTERN DR	BRUNSWICK	OH		44212	YES	NO	NO	NO	KEVIN REILLEY	3302253200	2899							325998						41.24712	-81.79703	076915115										NO	KEVIN.REILLEY@COLUMBIACHEMICAL.COM	
2013	VP	VIC NERY	44408CLMBN501LI	COLUMBIANA FOUNDRY CO	501 LISBON RD	COLUMBIANA	COLUMBIANA	OH	44408			COLUMBIANA FOUNDRY CO	PO BOX 98	COLUMBIANA	OH		44408	YES	NO	NO	NO	VIC NERY	3304823336	3325							331513						40.884955	-80.702326											NO	SALES@COLUMBIANAFOUNDRY.COM	
