Year,TRI Facility ID,Facility Name,Street Address,City,County,ST,ZIP,Latitude,Longitude,Primary SIC,SIC 2,SIC 3,SIC 4,SIC 5,SIC 6,Primary NAICS,NAICS 2,NAICS 3,NAICS 4,NAICS 5,NAICS 6,Doc_Ctrl_Num,Chemical,CAS #/Compound ID,Clean Air Act Chemical,Classification,Metal,Metal Category,Carcinogen,Form Type,Unit of Measure,5.1 Fugitive Air,5.2 Stack Air,5.3 Water,5.4.1 Underground Class I,5.4.2 Underground Class II-V,5.5.1A RCRA C Landfills,5.5.1B Other Landfills,5.5.2 Land Treatment,5.5.3 Surface Impoundment,5.5.3A RCRA C Surface Impoundment,5.5.3B Other Surface Impoundment,5.5.4 Other Disposal,On-site Release Total,6.1 POTW - Metals and Metal Compounds,6.1 POTW - Non-Metals,6.1 POTW - Total Transfers,6.2 M10,6.2 M41,6.2 M62,6.2 M71,6.2 M81,6.2 M82,6.2 M72,6.2 M63,6.2 M66,6.2 M67,6.2 M64,6.2 M65,6.2 M73,6.2 M79,6.2 M90,6.2 M94,6.2 M99,Off-Site Release Total,6.2 M20,6.2 M24,6.2 M26,6.2 M28,6.2 M93,Off-Site Recycled Total,6.2 M56,6.2 M92,Off-Site Recovery Total,6.2 M40,6.2 M50,6.2 M54,6.2 M61,6.2 M69,6.2 M95,Off-Site Treated Total,Total Releases,8.1 Releases,8.1a On-site Contained Releases,8.1b On-site Other Releases,8.1c Off-site Contained Releases,8.1d Off-site Other Releases,8.2 Energy Recovery On-site,8.3 Energy Recovery Off-site,8.4 Recycling On-Site,8.5 Recycling Off-Site,8.6 Treatment On-site,8.7 Treatement Off-site,Production Waste (8.1 thru 8.7),8.8 One-time Release,8.9 Production Ratio,Parent Company Name,Parent Company DB Number,3/3/2012 v10
2001,31634BRCKWHIGHW,BWAY CORP,1601 VALDOSTA HWY,HOMERVILLE,CLINCH,GA,31634,31.113606,-82.918391,3411,3499,3479,3412,,,332431,,,,,,1301150088425,TOLUENE,000108883,YES,NON-PBT,NO,0,NO,R,Pounds,250,3079,0,0,0,0,0,0,0,0,0,0,3329,0,0,0,0,0,0,0,0,0,0,0,0,0,0,0,0,0,0,0,0,0,0,0,0,0,0,0,500,0,500,0,0,0,0,0,0,0,3329,3214,0,0,0,0,0,112,0,0,0,0,3326,0,95,BWAY CORP,809993520
2001,30243CRWND875PR,IVC SOUTH,875 PROGRESS CENTER AVE,LAWRENCEVILLE,GWINNETT,GA,30043,33.989302,-83.965001,2851,,,,,,325510,,,,,,1301150036186,TOLUENE,000108883,YES,NON-PBT,NO,0,NO,R,Pounds,1321,0,0,0,0,0,0,0,0,0,0,0,1321,0,0,0,0,0,0,0,0,0,0,0,0,0,0,0,0,0,0,0,0,0,0,0,0,0,0,0,18436,0,18436,0,0,0,0,0,0,0,1321,1321,0,0,0,0,0,18436,0,0,0,0,19757,0,.78,IVC INDUSTRIAL COATINGS INC,NA
2001,30084HLTLL4647H,LPS LABORATORIES,4647 HUGH HOWELL RD,TUCKER,DEKALB,GA,30084,33.847778,-84.198611,2842,2992,,,,,324000,,,,,,1301150088831,XYLENE (MIXED ISOMERS),001330207,YES,NON-PBT,NO,0,NO,R,Pounds,250,3,0,0,0,0,0,0,0,0,0,0,253,0,0,0,0,0,0,0,0,0,0,0,0,0,0,0,0,0,0,0,0,0,0,0,0,0,0,0,830,0,830,0,0,0,0,0,0,0,253,21,0,0,0,0,0,830,0,0,0,0,851,0,.98,ILLINOIS TOOL WORKS INC,076399075
2001,30523SCVLLRT441,SCOVILL FASTENERS INC,1802 SCOVILL DR,CLARKESVILLE,HABERSHAM,GA,30523,34.598889,-83.52583,3965,,,,,,339993,,,,,,1301150071734,XYLENE (MIXED ISOMERS),001330207,YES,NON-PBT,NO,0,NO,R,Pounds,37,333,1,0,0,0,0,0,0,0,0,0,371,0,0,0,0,0,0,0,0,0,0,0,0,0,0,0,0,0,0,0,0,0,0,0,0,0,0,0,0,17,17,1673,0,0,0,0,0,1673,371,370,0,0,0,0,0,1692,0,0,0,1691,3753,0,1.01,NA,NA
2001,30107HLLSN211HO,HILL & SONS,211 HOGAN POND LN,BALL GROUND,CHEROKEE,GA,30107,34.297563,-84.31474,3556,3449,,,,,333294,,,,,,1301150016172,CHROMIUM,007440473,YES,NON-PBT,YES,1,YES,R,Pounds,5,0,0,0,0,0,0,0,0,0,0,0,5,0,0,0,0,0,0,0,0,0,0,0,0,0,0,0,0,0,0,0,0,0,0,6555,0,0,0,6555,0,0,0,0,0,0,0,0,0,0,5,6555,0,0,0,0,0,0,0,6555,0,0,13110,0,13,NA,NA
2001,30058WDBRD2399S,WOODBRIDGE CORP,2399 S STONE MTN-LITHONIA RD,LITHONIA,DEKALB,GA,30058,33.737222,-84.119722,3086,,,,,,326150,,,,,,1301150049157,"TOLUENE-2,6-DIISOCYANATE",000091087,NO,NON-PBT,NO,0,YES,R,Pounds,250,5,0,0,0,0,0,0,0,0,0,0,255,0,0,0,0,0,0,0,0,0,0,0,0,0,0,0,0,0,0,0,0,0,0,0,0,0,0,0,0,0,0,0,0,0,0,0,0,0,255,81,0,0,0,0,0,0,0,0,0,0,81,81,.91,WOODBRIDGE HOLDINGS INC,161659883
2001,30316DRNNC1415C,DURON ATLANTA,1415 CONSTITUTION RD SE,ATLANTA,DEKALB,GA,303164605,33.688333,-84.336139,2851,,,,,,325510,,,,,,1301150046148,ZINC COMPOUNDS,N982,NO,NON-PBT,YES,1,NO,R,Pounds,0,10,0,0,0,0,0,0,0,0,0,0,10,0,0,0,0,0,3,0,0,0,1774,0,0,0,0,0,0,0,0,0,0,1777,0,0,0,0,0,0,0,0,0,0,0,0,0,0,0,0,1787,1786,0,0,0,0,0,0,0,0,0,0,1786,0,1.13,THE SHERWIN WILLIAMS CO,004206397
2001,31520HRCLS2801C,PINOVA INC,2801 COOK ST,BRUNSWICK,GLYNN,GA,31520,31.163558,-81.479218,2861,2869,,,,,325191,,,,,,1301150046706,METHANOL,000067561,YES,NON-PBT,NO,0,NO,R,Pounds,2560,90,0,0,0,0,0,0,0,0,0,0,2650,0,127831,127831,0,0,0,0,0,0,0,0,0,0,0,0,0,0,0,0,0,0,0,0,0,0,0,0,0,0,0,0,0,0,0,0,0,0,2650,2650,0,0,0,0,0,0,0,0,0,126831,129481,0,.89,PINOVA HOLDINGS,962063561
2001,30050MRCNN48ROY,REXAM BEVERAGE CAN CO RE FOREST PARK FACILITY,48 ROYAL DR,FOREST PARK,CLAYTON,GA,30297,33.629787,-84.389103,3411,,,,,,332431,,,,,,1301150076267,MANGANESE,007439965,YES,NON-PBT,YES,1,NO,R,Pounds,0,0,0,0,0,0,0,0,0,0,0,0,0,28,0,28,0,0,0,0,0,0,0,0,0,0,0,0,0,38,0,0,0,38,0,0,0,0,0,0,0,0,0,0,0,0,0,0,0,0,66,66,0,0,0,0,0,0,0,0,0,0,66,0,1.07,REXAM BEVERAGE CAN CO,005105366
2001,30415LXCRNLEEFI,LOXCREEN CO INC,3715 LEEFIELD RD,BROOKLET,BULLOCH,GA,30415,32.33918,-81.55521,3089,,,,,,326199,,,,,,1301150011310,LEAD COMPOUNDS,N420,YES,PBT,YES,1,NO,R,Pounds,0,0,0,0,0,0,0,0,0,0,0,0,0,0,0,0,0,0,0,0,0,0,.8,0,0,0,0,0,0,0,0,0,0,.8,0,0,0,0,0,0,0,0,0,0,0,0,0,0,0,0,.8,.8,0,0,0,0,0,0,58,0,0,0,58.8,0,1,NA,NA
2001,31024HRTNH101IN,HORTON HOMES INC,101 INDUSTRIAL BLVD,EATONTON,PUTNAM,GA,31024,33.30264,-83.38437,2451,,,,,,321991,,,,,,1301150050730,TOLUENE,000108883,YES,NON-PBT,NO,0,NO,R,Pounds,54591,0,0,0,0,0,0,0,0,0,0,0,54591,0,0,0,0,0,0,0,0,0,1619,0,0,0,0,0,0,0,0,0,0,1619,0,0,0,0,0,0,0,0,0,0,0,0,0,0,0,0,56210,56210,0,0,0,0,0,0,0,0,0,0,56210,0,.8,HORTON INDUSTRIES INC,NA
2001,30913LNGST2402L,OLIN CORP,2402 DOUG BARNARD PKWY,AUGUSTA,RICHMOND,GA,30906,33.342031,-81.958307,2812,2819,,,,,325181,,,,,,1301150041263,CHLORINE,007782505,YES,NON-PBT,NO,0,NO,R,Pounds,0,119,0,0,0,0,0,0,0,0,0,0,119,0,0,0,0,0,0,0,0,0,0,0,0,0,0,0,0,0,0,0,0,0,0,0,0,0,0,0,0,0,0,0,0,0,0,0,0,0,119,119,0,0,0,0,0,0,0,0,0,0,119,0,.93,OLIN CORP,001338086
2001,30201TCHNC3085T,TECHNICAL COATINGS CORP,3085 TROTTER PKWY,ALPHARETTA,FORSYTH,GA,30004,34.1125,-84.224444,2851,,,,,,325998,,,,,,1301150041046,MIXTURE,MIXTURE,NO,NON-PBT,NO,0,NO,R,Pounds,0,0,0,0,0,0,0,0,0,0,0,0,0,0,0,0,0,0,0,0,0,0,0,0,0,0,0,0,0,0,0,0,0,0,0,0,0,0,0,0,0,0,0,0,0,0,0,0,0,0,0,0,0,0,0,0,0,0,0,0,0,0,0,0,0,NA,NA
2001,31323NCFMF674CH,FLOCRYL INC - ACRYLATES,674 CHEMICAL PLANT RD,RICEBORO,LIBERTY,GA,31323,31.741388,-81.433609,2821,,,,,,325998,,,,,,1301150054171,METHANOL,000067561,YES,NON-PBT,NO,0,NO,R,Pounds,2700,35000,0,0,0,0,0,0,0,0,0,0,37700,0,0,0,0,0,0,0,0,0,0,0,0,0,0,0,0,0,0,0,0,0,0,0,0,0,0,0,0,17000,17000,0,0,0,0,0,0,0,37700,38000,0,0,0,0,0,17000,0,0,0,0,55000,0,.96,SNF HOLDING CO,878930965
2001,30125KMTTC601CA,KIMOTO TECH INC,601 CANAL ST,CEDARTOWN,POLK,GA,30125,34.005313,-85.264412,3089,,,,,,326113,,,,,,1301150070656,TOLUENE,000108883,YES,NON-PBT,NO,0,NO,R,Pounds,33000,30000,0,0,0,0,0,0,0,0,0,0,63000,0,0,0,0,0,0,0,0,0,0,0,0,0,0,0,0,0,0,0,0,0,0,0,0,0,0,0,74000,0,74000,0,0,0,0,0,0,0,63000,53000,0,0,0,0,0,74000,24000,0,370000,0,521000,0,.01,NA,NA
2001,30906RTGRS3750C,WEYLCHEM CORP,3750 CLANTON RD,AUGUSTA,RICHMOND,GA,30906,33.368333,-82.014444,2879,,,,,,325320,,,,,,1301150007110,TOLUENE,000108883,YES,NON-PBT,NO,0,NO,R,Pounds,65,384,0,0,0,0,0,0,0,0,0,0,449,0,1597,1597,0,0,0,0,0,0,0,0,0,0,0,0,0,0,0,0,0,0,43787,0,0,0,0,43787,8414,0,8414,0,6613,0,333,0,0,6946,449,448,0,0,0,0,0,32908,0,38969,0,13360,85685,0,3.32,NA,NA
2001,30906RTGRS3750C,WEYLCHEM CORP,3750 CLANTON RD,AUGUSTA,RICHMOND,GA,30906,33.368333,-82.014444,2879,,,,,,325320,,,,,,1301150007161,CHLOROFORM,000067663,YES,NON-PBT,NO,0,YES,R,Pounds,0,231,0,0,0,0,0,0,0,0,0,0,231,0,0,0,0,0,0,0,0,0,0,0,0,0,0,0,0,0,0,0,0,0,0,0,0,0,0,0,0,0,0,0,0,7016,0,0,0,7016,231,0,0,0,0,0,0,0,0,0,0,7016,7016,0,0,NA,NA
2001,31320MNSHP548IN,MAINSHIP CORP,548 INDUSTRIAL BLVD,MIDWAY,LIBERTY,GA,31320,31.790227,-81.409956,3732,,,,,,336612,,,,,,1301150026995,TOLUENE,000108883,YES,NON-PBT,NO,0,NO,R,Pounds,24106,0,0,0,0,0,0,0,0,0,0,0,24106,0,0,0,0,0,0,0,0,0,0,0,0,0,0,0,0,0,0,0,0,0,0,0,0,0,0,0,0,0,0,0,0,0,0,0,0,0,24106,24106,0,0,0,0,0,0,0,0,0,0,24106,0,1.47,NA,NA
2001,31068BCKYCOLDST,WEYERHAEUSER NR CO,2449 STAGECOACH RD PO BOX 238,OGLETHORPE,MACON,GA,31068,32.253889,-84.068417,2611,,,,,,322110,,,,,,1301150077701,BARIUM COMPOUNDS,N040,NO,NON-PBT,YES,3,NO,R,Pounds,0,37,0,0,0,0,40252,0,0,0,0,0,40289,0,0,0,0,0,0,0,0,0,0,0,0,0,0,0,0,0,0,0,0,0,0,0,0,0,0,0,0,0,0,0,0,0,0,0,0,0,40289,40289,0,0,0,0,0,0,0,0,0,0,40289,0,0,WEYERHAEUSER CO,828789524
2001,30722CHMTC1904S,CHEM-TECH FINISHERS INC,1904 S HAMILTON ST,DALTON,WHITFIELD,GA,30722,34.742281,-84.963283,2273,,,,,,314110,,,,,,1301150074692,POLYCYCLIC AROMATIC COMPOUNDS,N590,YES,PBT,NO,0,YES,R,Pounds,0,0,0,0,0,0,0,0,0,0,0,0,0,0,0,0,0,0,0,0,0,0,0,0,0,0,0,0,0,0,0,0,0,0,0,0,0,0,0,0,0,0,0,0,0,0,0,0,0,0,0,0,0,0,0,0,0,0,0,0,0,0,0,0,1.21,NA,NA
2001,31068BCKYCOLDST,WEYERHAEUSER NR CO,2449 STAGECOACH RD PO BOX 238,OGLETHORPE,MACON,GA,31068,32.253889,-84.068417,2611,,,,,,322110,,,,,,1301150077802,LEAD COMPOUNDS,N420,YES,PBT,YES,1,NO,R,Pounds,0,54.14,39.43,0,0,0,8517.69,0,0,0,0,0,8611.26,0,0,0,0,0,0,0,0,0,0,0,0,0,0,0,0,0,0,0,0,0,0,0,0,0,0,0,0,0,0,0,0,0,0,0,0,0,8611.26,8611.26,0,0,0,0,0,0,0,0,0,0,8611.26,0,1.1,WEYERHAEUSER CO,828789524
2001,31068BCKYCOLDST,WEYERHAEUSER NR CO,2449 STAGECOACH RD PO BOX 238,OGLETHORPE,MACON,GA,31068,32.253889,-84.068417,2611,,,,,,322100,,,,,,1301150077889,"SULFURIC ACID (1994 AND AFTER ""ACID AEROSOLS"" ONLY)",007664939,NO,NON-PBT,NO,0,NO,R,Pounds,0,34626,0,0,0,0,0,0,0,0,0,0,34626,0,0,0,0,0,0,0,0,0,0,0,0,0,0,0,0,0,0,0,0,0,0,0,0,0,0,0,0,0,0,0,0,0,0,0,0,0,34626,34626,0,0,0,0,0,0,0,0,17074,0,51700,0,1,WEYERHAEUSER CO,828789524
2001,30279MRCND1022E,AMERICAN DEHYDRATED FOODS INC,1022 E HIGHTOWER TRAIL,SOCIAL CIRCLE,WALTON,GA,30025,33.651646,-83.698001,2048,0252,,,,,311111,,,,,,1301150004834,NITRIC ACID,007697372,NO,NON-PBT,NO,0,NO,R,Pounds,0,0,0,0,0,0,0,0,0,0,0,0,0,0,0,0,0,0,0,0,0,0,0,0,0,0,0,0,0,0,0,0,0,0,0,0,0,0,0,0,0,0,0,0,0,0,0,0,0,0,0,0,0,0,0,0,0,0,0,0,7116,0,7116,0,5.5,AMERICAN DEHYDRATED FOODS INC,096745880
2001,30721MNFCT1200B,MFG CHEMICAL INC BROOKS ROAD,1200 BROOKS RD,DALTON,WHITFIELD,GA,30721,34.755764,-84.948498,2869,,,,,,325199,,,,,,1301150096129,MALEIC ANHYDRIDE,000108316,YES,NON-PBT,NO,0,NO,R,Pounds,5,5,0,0,0,0,0,0,0,0,0,0,10,0,5,5,0,0,0,0,0,0,0,0,0,0,0,0,0,0,0,0,0,0,0,0,0,0,0,0,0,0,0,0,0,0,0,0,0,0,10,12,0,0,0,0,0,0,0,0,0,10,22,0,1.07,NA,NA
2001,31206RMSTR4520B,ARMSTRONG WORLD INDUSTRIES INC,4520 BROADWAY,MACON,BIBB,GA,31213,32.77462,-83.6517,3296,,,,,,339999,,,,,,1301150005320,FORMALDEHYDE,000050000,YES,NON-PBT,NO,0,YES,R,Pounds,2571,146400,0,0,0,0,0,0,0,0,0,0,148971,0,0,0,0,0,0,0,0,0,0,0,0,0,0,0,0,0,0,0,0,0,0,0,0,0,0,0,0,0,0,0,0,0,0,0,0,0,148971,148971,0,0,0,0,0,0,0,0,0,0,148971,0,1.07,ARMSTRONG WORLD INDUSTRIES INC,001307792
2001,30728BLBRDSHATT,BLUE BIRD NORTH GEORGIA,1198 SHATTUCK INDUSTRIAL BLVD,LAFAYETTE,WALKER,GA,30728,34.678135,-85.290155,3713,,,,,,336211,,,,,,1301150061339,TOLUENE,000108883,YES,NON-PBT,NO,0,NO,R,Pounds,14563,333,0,0,0,0,0,0,0,0,0,0,14896,0,0,0,0,0,0,0,0,0,0,0,0,0,0,0,0,0,0,0,0,0,0,0,0,0,0,0,297,0,297,0,0,0,0,0,0,0,14896,14896,0,0,0,0,0,297,0,0,0,0,15193,0,.76,SCHOOL BUS HOLDINGS INC,830476508
2001,30701KBLCC501RI,KOBELCO CONSTRUCTION MACHINERY AMERICA LLC,501 RICHARDSON RD,CALHOUN,GORDON,GA,30701,34.4661,-84.925564,3531,,,,,,333120,,,,,,1301150002879,METHYL ETHYL KETONE,000078933,NO,NON-PBT,NO,0,NO,R,Pounds,0,21615,0,0,0,0,0,0,0,0,0,0,21615,0,0,0,0,0,0,0,0,0,0,0,0,0,0,0,0,0,0,0,0,0,0,0,0,0,0,0,8913,0,8913,0,0,0,0,0,0,0,21615,21615,0,0,0,0,0,8913,0,0,0,0,30528,0,.9,NA,NA
2001,31404NCLCR110FO,CONOCOPHILLIPS CO SAVANNAH LUBRICANTS PLANT,110 FORBES RD,SAVANNAH,CHATHAM,GA,31404,32.072748,-81.050366,2992,,,,,,324191,,,,,,1301150038685,NAPHTHALENE,000091203,YES,NON-PBT,NO,0,NO,R,Pounds,0,0,0,0,0,0,0,0,0,0,0,0,0,0,0,0,0,0,0,0,0,0,0,0,0,0,0,0,0,0,0,0,0,0,0,0,436,0,0,436,0,0,0,0,0,0,0,0,0,0,0,0,0,0,0,0,0,0,0,436,0,0,436,0,.82,CONOCOPHILLIPS,001368265
2001,30913ZGTXT1451M,E-Z-GO A TEXTRON CO,1451 MARVIN GRIFFIN RD,AUGUSTA,RICHMOND,GA,30906,33.39567,-81.98726,3799,,,,,,336999,,,,,,1301150021917,COBALT,007440484,YES,NON-PBT,YES,1,YES,R,Pounds,0,250,0,0,0,0,0,0,0,0,0,0,250,5,0,5,0,0,0,0,0,0,0,0,0,0,0,0,0,0,0,0,0,0,0,36972,0,0,0,36972,0,0,0,0,0,0,0,0,0,0,255,57,0,0,0,0,0,0,0,36972,0,0,37029,0,1,TEXTRON INC,001338979
2001,30130TYSNF340WM,TYSON FOODS INC,340 W MAPLE ST,CUMMING,FORSYTH,GA,30041,34.205276,-84.142502,2015,,,,,,311615,,,,,,1301150025207,AMMONIA,007664417,NO,NON-PBT,NO,0,NO,R,Pounds,9141,0,0,0,0,0,0,0,0,0,0,0,9141,0,0,0,0,0,0,0,0,0,0,0,0,0,0,0,0,0,0,0,0,0,0,0,0,0,0,0,0,0,0,0,0,0,0,0,0,0,9141,9141,0,0,0,0,0,0,0,0,0,0,9141,0,0,TYSON FOODS INC,069203702
2001,30828WHLND1117T,TRW AUTOMOTIVE - WARRENTON CASTING CENTER,975 THOMSON HWY,WARRENTON,WARREN,GA,30828,33.424567,-82.580307,3321,,,,,,331511,,,,,,1301150058485,MANGANESE COMPOUNDS,N450,YES,NON-PBT,YES,1,NO,R,Pounds,10,86,21,0,0,0,19000,0,0,0,0,0,19117,0,0,0,0,0,0,0,0,0,0,0,0,0,0,0,0,0,0,0,0,0,0,0,0,0,0,0,0,0,0,0,0,0,0,0,0,0,19117,19000,0,0,0,0,0,0,0,0,0,0,19000,0,.54,KELSEY-HAYES CO,112044248
2001,30057RBRTB1560W,ROBERT BOSCH CORP.,1560 WESTFORK DR.,LITHIA SPRINGS,DOUGLAS,GA,30122,33.788757,-84.626258,3694,,,,,,336322,,,,,,1301150062331,COPPER,007440508,NO,NON-PBT,YES,1,NO,R,Pounds,0,250,0,0,0,0,0,0,0,0,0,0,250,0,0,0,0,0,0,0,0,0,0,0,0,0,0,0,0,0,0,0,0,0,0,1442,0,0,0,1442,0,0,0,0,0,0,0,0,0,0,250,0,0,0,0,0,0,0,0,1442,0,0,1442,0,99.5,NA,NA
2001,30753MNTVROLDUS,MOUNT VERNON MILLS INC APPAREL FABRICS DIV,OLD US HWY 27,TRION,CHATTOOGA,GA,307530007,34.581771,-85.288108,2211,2261,2221,,,,313210,,,,,,1301150058612,ZINC COMPOUNDS,N982,NO,NON-PBT,YES,1,NO,R,Pounds,0,3263,5,0,0,0,0,0,62002,0,0,0,65270,439,0,439,0,0,0,0,0,0,0,0,0,0,0,0,0,0,0,0,0,0,0,0,0,0,0,0,0,0,0,0,0,0,0,0,0,0,65709,3263,0,0,0,0,0,0,0,0,0,0,3263,0,.85,R B PAMPLIN CORP,047081674
2001,31040STHSTSHADD,SP NEWSPRINT CO LLC,709 PAPERMILL RD,DUBLIN,LAURENS,GA,31027,32.498778,-82.848194,2621,,,,,,322122,,,,,,1301150199735,MANGANESE COMPOUNDS,N450,YES,NON-PBT,YES,1,NO,R,Pounds,0,100,13946,0,0,0,2284,0,20557,0,0,0,36887,0,0,0,0,0,0,0,0,0,0,0,0,0,0,0,0,0,0,0,0,0,0,0,0,0,0,0,0,0,0,0,0,0,0,0,0,0,36887,36887,0,0,0,0,0,0,0,0,0,0,36887,0,.9,SP NEWSPRINT CO LLC,NA
2001,30677LLDTBBARNE,SOUTHWIRE CO,111 BARNETT SHOALS RD,WATKINSVILLE,OCONEE,GA,30677,33.859853,-83.399015,3357,,,,,,335929,,,,,,1301150179861,ZINC COMPOUNDS,N982,NO,NON-PBT,YES,1,NO,R,Pounds,0,0,16,0,0,0,0,0,0,0,0,0,16,0,0,0,0,10,0,0,0,0,0,0,0,0,0,0,0,0,0,0,0,10,0,0,0,0,0,0,0,0,0,0,0,0,0,0,0,0,26,27,0,0,0,0,0,0,0,0,0,0,27,0,.91,SOUTHWIRE CO,003264421
2001,31768MLLRBTHOMA,BALL METAL BEVERAGE CONTAINER CORP.,278 HWY. 319 S.,MOULTRIE,COLQUITT,GA,31768,31.21279,-83.782547,3411,,,,,,332431,,,,,,1301150193910,"SULFURIC ACID (1994 AND AFTER ""ACID AEROSOLS"" ONLY)",007664939,NO,NON-PBT,NO,0,NO,R,Pounds,2,62,0,0,0,0,0,0,0,0,0,0,64,0,0,0,0,0,0,0,0,0,0,0,0,0,0,0,0,0,0,0,0,0,0,0,0,0,0,0,0,0,0,0,0,0,0,0,0,0,64,64,0,0,0,0,0,0,0,0,120000,0,120064,0,.73,BALL CORP,006419147
2001,31709DVDSNRT6BO,COLLINS & AIKMAN PRODUCTS CO.,100 BRADY RD,AMERICUS,SUMTER,GA,31709,32.0552,-84.20208,3714,,,,,,336000,,,,,,1301150183248,XYLENE (MIXED ISOMERS),001330207,YES,NON-PBT,NO,0,NO,R,Pounds,194,193941,0,0,0,0,0,0,0,0,0,0,194135,0,0,0,0,0,0,0,0,0,0,0,0,0,0,0,0,0,0,0,0,0,0,0,0,0,0,0,82987,0,82987,0,0,0,0,0,0,0,194135,194135,0,0,0,0,0,82987,4428,0,0,0,281550,0,.68,COLLINS & AIKMAN PRODUCTS CO,620407064
2001,30703QLTYF355OL,QUALITY FINISHINGS,355 OLD DALTON RD,CALHOUN,GORDON,GA,30703,34.537483,-84.933973,2273,2269,,,,,314110,,,,,,1301150197580,POLYCYCLIC AROMATIC COMPOUNDS,N590,YES,PBT,NO,0,YES,R,Pounds,0,0,0,0,0,0,0,0,0,0,0,0,0,0,0,0,0,0,0,0,0,0,0,0,0,0,0,0,0,0,0,0,0,0,0,0,0,0,0,0,0,0,0,0,0,0,0,0,0,0,0,0,0,0,0,0,0,0,0,0,0,0,0,0,0,NA,NA
2001,30172GLYLRBURLI,GALEY & LORD INDUSTRIES INC BRIGHTON PLANT,401 BURLINGTON RD NE,SHANNON,FLOYD,GA,30172,34.341667,-85.083333,2221,2211,,,,,313210,,,,,,1301150126213,POLYCYCLIC AROMATIC COMPOUNDS,N590,YES,PBT,NO,0,YES,R,Pounds,0,.002,0,0,0,0,0,0,0,0,0,0,.002,0,0,0,0,0,0,0,0,0,0,0,0,0,0,0,0,0,0,0,0,0,0,0,0,0,0,0,0,0,0,0,0,0,0,0,0,0,.002,.002,0,0,0,0,2714,0,0,0,0,0,2714.002,0,1.23,GALEY & LORD INC,183233642
2001,31601GRFFNROCKY,DUPONT VALDOSTA MANUFACTURING,2509 ROCKY FORD RD,VALDOSTA,LOWNDES,GA,31601,30.803234,-83.345082,2879,2821,,,,,325320,,,,,,1301150098960,MANEB,012427382,NO,NON-PBT,YES,2,NO,R,Pounds,250,0,0,0,0,0,0,0,0,0,0,0,250,0,0,0,0,0,0,0,0,0,0,0,0,0,0,0,0,0,0,0,0,0,0,0,0,0,0,0,0,0,0,0,0,0,7880,0,0,7880,250,300,0,0,0,0,0,0,11650,0,0,7780,19730,0,.95,E I DU PONT DE NEMOURS & CO INC,NA
2001,30269PHTCR810DI,PHOTOCIRCUITS CORP,810 DIVIDEND DR,PEACHTREE CITY,FAYETTE,GA,30269,33.358722,-84.563238,3672,,,,,,334412,,,,,,1301150134738,COPPER COMPOUNDS,N100,NO,NON-PBT,YES,1,NO,R,Pounds,0,0,0,0,0,0,0,0,0,0,0,0,0,71,0,71,0,0,0,0,0,0,0,0,0,0,0,0,0,0,0,0,0,0,0,181237,0,0,0,181237,0,0,0,0,0,0,0,0,0,0,71,71,0,0,0,0,0,0,0,181237,0,0,181308,0,.65,PHOTOCIRCUITS CORP,152087847
2001,31717TXPRN268IN,TEXPAR BAINBRIDGE TERMINAL,268 INDUSTRIAL BLVD,BAINBRIDGE,DECATUR,GA,31717,30.977328,-84.627958,5171,,,,,,424710,,,,,,1301150138206,CYCLOHEXANE,000110827,NO,NON-PBT,NO,0,NO,R,Pounds,60,500,0,0,0,0,0,0,0,0,0,0,560,0,0,0,0,0,0,0,0,0,0,0,0,0,0,0,0,0,0,0,0,0,0,0,0,0,0,0,0,0,0,0,4800,0,0,0,0,4800,560,560,0,0,0,0,4000,0,415095,0,0,4870,424525,0,1.8,PETRO ENERGY LLC,141235148
2001,30063SDDSF86SOU,U.S. AIR FORCE PLANT 6,86 S COBB DR,MARIETTA,COBB,GA,30063,33.936262,-84.5339,3721,,,,,,336411,,,,,,1301150152306,TOLUENE,000108883,YES,NON-PBT,NO,0,NO,R,Pounds,3930,5900,220,0,0,0,0,0,0,0,0,0,10050,0,0,0,0,0,0,0,0,0,0,0,0,0,0,0,0,0,40,0,0,40,0,0,0,0,0,0,50,0,50,0,0,5,0,0,0,5,10090,10100,0,0,0,0,0,50,0,0,0,45,10195,0,1,US DEPARTMENT OF DEFENSE,NA
2001,30125HNKLC701WI,GEO SPECIALTY CHEMICALS INC,701 WISSAHICKON AVE,CEDARTOWN,POLK,GA,30125,34.019361,-85.270389,2843,2869,2899,,,,325199,,,,,,1301150142899,XYLENE (MIXED ISOMERS),001330207,YES,NON-PBT,NO,0,NO,R,Pounds,220,901,0,0,0,0,0,0,0,0,0,0,1121,0,0,0,0,0,0,0,0,0,0,0,0,0,0,0,0,0,0,0,0,0,0,0,0,0,0,0,0,0,0,0,401365,0,0,0,0,401365,1121,901,0,0,0,0,0,0,927067,0,17343,412450,1357761,0,1.01,GEO SPECIALTY CHEMICALS INC,NA
2001,30144RSLSP3150M,AEROSOL PACKAGING LLC,3150 MOON STATION RD,KENNESAW,COBB,GA,301442765,34.03777,-84.61627,2899,,,,,,325998,,,,,,1301150143131,XYLENE (MIXED ISOMERS),001330207,YES,NON-PBT,NO,0,NO,R,Pounds,0,0,0,0,0,0,0,0,0,0,0,0,0,0,0,0,0,0,0,0,0,0,0,0,0,0,0,0,0,0,0,0,0,0,0,0,0,0,0,0,0,0,0,0,0,0,0,0,0,0,0,0,0,0,0,0,0,0,0,0,0,0,0,0,0,NA,NA
2001,30062MTLCT1150M,METAL COATERS,1150 MARIETTA INDUSTRIAL DR  NE,MARIETTA,COBB,GA,300622446,33.978031,-84.538179,3479,,,,,,332812,,,,,,1301150146239,ETHYLBENZENE,000100414,YES,NON-PBT,NO,0,NO,R,Pounds,0,0,0,0,0,0,0,0,0,0,0,0,0,0,0,0,0,0,0,0,0,0,0,0,0,0,0,0,0,0,0,0,0,0,0,0,0,0,0,0,65499,0,65499,0,0,0,0,0,0,0,0,0,0,0,0,0,0,65499,0,0,0,0,65499,0,.96,NCI GROUP INC,130234529
2001,31569RHNPLEASTE,BAYER CROPSCIENCE WOODBINE PLANT,5954 UNION CARBIDE RD,WOODBINE,CAMDEN,GA,31569,30.871237,-81.609452,2879,,,,,,325320,,,,,,1301150174670,ETHOPROP,013194484,NO,NON-PBT,NO,0,NO,R,Pounds,1,1,0,0,0,0,0,0,0,0,0,0,2,0,0,0,0,0,0,0,0,0,0,0,0,0,0,0,0,0,0,0,0,0,0,0,0,0,0,0,0,0,0,0,1428,0,0,0,0,1428,2,2,0,0,0,0,0,0,0,0,0,1428,1430,0,0,BAYER GROUP,001350263
2001,30529JMHBRPOBOX,HUBER ENGINEERED WOODS LLC,1442 HWY 334,COMMERCE,JACKSON,GA,30529,34.165833,-83.429167,2493,,,,,,321219,,,,,,1301150178693,LEAD COMPOUNDS,N420,YES,PBT,YES,1,NO,R,Pounds,610,0,0,0,0,0,0,0,0,0,0,0,610,0,0,0,0,0,0,0,0,0,0,0,0,0,0,0,0,0,0,0,0,0,0,0,0,0,0,0,0,0,0,0,0,0,0,0,0,0,610,609,0,0,0,0,0,0,0,0,0,0,609,610,0,JM HUBER CORP,002554459
2001,31533FFNCC1415W,OPTIMA CHEMICAL GROUP LLC,200 WILLACOOCHEE HWY,DOUGLAS,COFFEE,GA,31535,31.486957,-82.860586,2869,,,,,,325199,,,,,,1301150100156,METHANOL,000067561,YES,NON-PBT,NO,0,NO,R,Pounds,250,250,0,0,0,0,0,0,0,0,0,0,500,0,0,0,0,0,0,0,0,0,0,0,0,0,0,0,0,0,0,0,0,0,0,0,0,0,0,0,0,21800,21800,0,0,0,0,0,0,0,500,21857,0,0,0,0,0,21800,0,0,0,0,43657,0,.6,NA,NA
2001,31601NNCMP1401E,ARIZONA CHEMICAL LLC,1401 E HILL AVE,VALDOSTA,LOWNDES,GA,31601,30.83821,-83.25925,2821,,,,,,325211,,,,,,1301150165138,FORMALDEHYDE,000050000,YES,NON-PBT,NO,0,YES,R,Pounds,14,70,0,0,0,0,0,0,0,0,0,0,84,0,979,979,0,0,0,0,0,0,0,0,0,0,0,0,0,0,0,0,0,0,0,0,0,0,0,0,0,0,0,0,0,0,0,0,0,0,84,1063,0,0,0,0,0,0,0,0,1030,0,2093,0,.86,ARIZONA CHEMICAL CO LLC,NA
2001,30014TRDTC12170,TREAD TECHNOLOGIES CO,12170 LOCHRIDGE BLVD,COVINGTON,NEWTON,GA,30014,33.605458,-83.822628,3011,,,,,,326211,,,,,,1301150106401,POLYCYCLIC AROMATIC COMPOUNDS,N590,YES,PBT,NO,0,YES,R,Pounds,0,0,0,0,0,0,0,0,0,0,0,0,0,0,0,0,0,0,0,0,0,0,2200,0,0,0,0,0,0,0,0,0,0,2200,0,0,2560,0,0,2560,0,0,0,0,0,0,0,0,0,0,2200,2200,0,0,0,0,0,0,0,0,0,0,2200,0,1.91,MICHELIN CORP,044691848
2001,30213GNRLX7385G,ALCOA EXTRUSIONS INC. FAIRBURN GA OPERATIONS,7385 GRAHAM RD.,FAIRBURN,FULTON,GA,30213,33.557445,-84.544616,3354,,,,,,331316,,,,,,1301150179354,MANGANESE,007439965,YES,NON-PBT,YES,1,NO,R,Pounds,5,0,0,0,0,0,0,0,0,0,0,0,5,5,0,5,0,0,0,0,0,0,5,0,0,0,0,0,0,0,0,0,0,5,0,13878,0,0,0,13878,0,0,0,0,0,0,0,0,0,0,15,30,0,0,0,0,0,0,0,13878,0,0,13908,0,.54,ALCOA INC,001339472
2001,30903DSMRS31COL,DSM POWDER COATING RESINS INC,31 COLUMBIA NITROGEN RD,AUGUSTA,RICHMOND,GA,30903,33.453879,-81.928462,2821,,,,,,325211,,,,,,1301150132785,N-BUTYL ALCOHOL,000071363,NO,NON-PBT,NO,0,NO,R,Pounds,0,0,0,0,0,0,0,0,0,0,0,0,0,0,0,0,0,0,0,0,0,0,0,0,0,0,0,0,0,0,0,0,0,0,0,0,0,0,0,0,1564,0,1564,0,0,0,0,0,0,0,0,0,0,0,0,0,0,1564,0,0,0,0,1564,0,0,DSM RESINS BUSINESS GROUP,622750990
2001,31407GRGPCCROSS,GEORGIA -PACIFIC CHEMICALS LLC,130 CROSSGATE RD,PORT WENTWORTH,CHATHAM,GA,31407,32.150423,-81.155885,2821,,,,,,325211,,,,,,1301150186082,PHENOL,000108952,YES,NON-PBT,NO,0,NO,R,Pounds,0,884,0,0,0,0,0,0,0,0,0,0,884,0,0,0,0,0,0,0,0,0,1,0,0,0,0,0,0,0,0,0,0,1,0,0,0,0,0,0,0,0,0,0,0,0,1,0,0,1,885,884,0,0,0,0,0,0,0,0,0,2,886,0,.96,GEORGIA -PACIFIC LLC,009020777
2001,30577PTTRSHWY12,PATTERSON PUMP CO,2129 AYERSVILLE RD,TOCCOA,STEPHENS,GA,30577,34.55017,-83.402278,3561,3511,3441,3599,,,333911,,,,,,1301150130058,LEAD,007439921,YES,PBT,YES,1,YES,R,Pounds,0,0,5,0,0,0,0,0,0,0,0,0,5,0,0,0,0,0,0,0,0,0,0,0,0,0,0,0,0,0,0,0,0,0,0,2135,0,0,0,2135,0,0,0,0,0,0,0,0,0,0,5,0,0,0,0,0,0,0,0,2135,0,0,2135,0,0,GORMAN-RUPP CO,004154308
2001,31750LPPRT160OR,LIPPERT COMPONENTS INC PLANT 16,160 ORIOLE RD,FITZGERALD,BEN HILL,GA,31750,31.688357,-83.182936,3792,,,,,,333999,,,,,,1301150201770,NICKEL,007440020,YES,NON-PBT,YES,1,YES,R,Pounds,3168,0,0,0,0,0,0,0,0,0,0,0,3168,0,0,0,0,0,0,0,0,0,0,0,0,0,0,0,0,0,0,0,0,0,0,3168,0,0,0,3168,0,0,0,0,0,0,0,0,0,0,3168,3168,0,0,0,0,0,0,0,3168,0,0,6336,0,0,LIPPERT COMPONENTS MANUFACTURING INC,043222470
2001,30442MMTLS3015I,MI METALS INC. - MILLEN,3015 INDUSTRIAL PARK RD,MILLEN,JENKINS,GA,30442,32.80345,-81.918675,3354,3479,,,,,331316,,,,,,1301150130375,CERTAIN GLYCOL ETHERS,N230,YES,NON-PBT,NO,0,NO,R,Pounds,2178,7664,0,0,0,0,0,0,0,0,0,0,9842,0,0,0,0,0,0,0,0,0,0,0,0,0,0,0,0,0,0,0,0,0,0,0,0,0,0,0,1337,0,1337,0,0,0,0,0,0,0,9842,11179,0,0,0,0,0,1337,0,0,0,0,12516,0,1.1,J T WALKER INDUSTRIES INC,008600256
2001,30344WLLMC2335L,WILLIAM C MEREDITH CO INC,2335 LAWRENCE ST,EAST POINT,FULTON,GA,30344,33.690724,-84.440188,2491,,,,,,321114,,,,,,1301150111348,CREOSOTE,008001589,NO,NON-PBT,NO,0,YES,R,Pounds,422,3584,0,0,0,0,0,0,0,0,0,0,4006,0,201,201,0,0,0,0,0,0,370,0,0,0,0,0,0,0,0,0,0,370,0,0,0,0,0,0,0,0,0,0,0,0,0,0,0,0,4376,4376,0,0,0,0,0,0,0,0,664,201,5241,0,0,NA,NA
2001,30318ZPMNF1310S,ZEP INC,1310 SEABOARD INDUSTRIAL BLVD,ATLANTA,FULTON,GA,30318,33.808056,-84.428333,2841,2844,2843,2842,,,325611,,,,,,1301150134005,DICHLOROMETHANE,000075092,YES,NON-PBT,NO,0,YES,R,Pounds,2425,5657,0,0,0,0,0,0,0,0,0,0,8082,0,0,0,0,0,0,0,0,0,0,0,0,0,0,0,0,0,0,0,0,0,0,0,0,0,0,0,29540,0,29540,0,0,0,0,0,0,0,8082,8082,0,0,0,0,0,0,0,0,0,0,8082,0,.8,ZEP INC,NA
2001,30318ZPMNF1310S,ZEP INC,1310 SEABOARD INDUSTRIAL BLVD,ATLANTA,FULTON,GA,30318,33.808056,-84.428333,2841,2844,2843,2842,,,325611,,,,,,1301150134056,LEAD COMPOUNDS,N420,YES,PBT,YES,1,NO,R,Pounds,20,45,0,0,0,0,0,0,0,0,0,0,65,0,0,0,0,0,0,0,0,0,0,0,0,0,0,0,0,0,0,0,0,0,0,0,0,0,0,0,0,0,0,0,0,0,0,0,0,0,65,65,0,0,0,0,0,0,0,0,0,0,65,0,1,ZEP INC,NA
2001,31061GRMMNHIGHW,VOUGHT AIRCRAFT INDUSTRIES INC.,90 HWY 22 W,MILLEDGEVILLE,BALDWIN,GA,310619699,33.096202,-83.262446,3728,,,,,,336411,,,,,,1301150127429,TRICHLOROETHYLENE,000079016,YES,NON-PBT,NO,0,YES,R,Pounds,46974,0,0,0,0,0,0,0,0,0,0,0,46974,0,0,0,0,0,0,0,0,0,0,0,0,0,0,0,0,0,0,0,0,0,0,0,0,0,0,0,0,0,0,0,0,1423,0,0,0,1423,46974,46974,0,0,0,0,0,0,21351,0,0,1423,69748,0,.77,VOUGHT AIRCRAFT INDUSTRIES INC,003616091
2001,30096RCKWL2150B,ROCKWELL AUTOMATION INC.,2150 BOGGS RD.,DULUTH,GWINNETT,GA,30096,33.97466,-84.10087,3578,,,,,,335314,,,,,,1301150149779,LEAD,007439921,YES,PBT,YES,1,YES,R,Pounds,0,0,0,0,0,0,0,0,0,0,0,0,0,0,0,0,0,0,0,0,0,0,0,0,0,0,0,0,0,0,0,0,0,0,0,68.1,0,0,0,68.1,0,0,0,0,0,0,0,0,0,0,0,0,0,0,0,0,0,0,0,68.1,0,0,68.1,0,.75,NA,NA
2001,30720DWCHM1468P,DOW CHEMICAL CO DALTON PLANT,1467 PROSSER DR SE,DALTON,WHITFIELD,GA,30721,34.633056,-84.929167,2822,3086,,,,,325212,,,,,,1301150160303,CHLOROETHANE,000075003,YES,NON-PBT,NO,0,NO,R,Pounds,81000,50000,0,0,0,0,0,0,0,0,0,0,131000,0,0,0,0,0,0,0,0,0,0,0,0,0,0,0,0,0,0,0,0,0,0,0,0,0,0,0,0,0,0,0,0,0,0,0,0,0,131000,131000,0,0,0,0,0,0,0,0,0,0,131000,0,.78,THE DOW CHEMICAL CO,001381581
2001,30720DWCHM1468P,DOW CHEMICAL CO DALTON PLANT,1467 PROSSER DR SE,DALTON,WHITFIELD,GA,30721,34.633056,-84.929167,2822,3086,,,,,325212,,,,,,1301150160378,VINYLIDENE CHLORIDE,000075354,YES,NON-PBT,NO,0,NO,R,Pounds,25,50,0,0,0,0,0,0,0,0,0,0,75,0,0,0,0,0,0,0,0,0,0,0,0,0,0,0,0,0,0,0,0,0,0,0,0,0,0,0,0,0,0,0,15700,0,0,0,0,15700,75,75,0,0,0,0,0,0,0,0,108000,15700,123775,0,.97,THE DOW CHEMICAL CO,001381581
2001,30903DSMCHNO1CO,DSM CHEMICALS NORTH AMERICA INC,1 COLUMBIA NITROGEN RD,AUGUSTA,RICHMOND,GA,30901,33.436944,-81.93388,2869,2873,,,,,325199,,,,,,1301150156560,"BENZO(G,H,I)PERYLENE",000191242,YES,PBT,NO,0,YES,R,Pounds,0,.01,0,0,0,0,0,0,0,0,0,0,.01,0,0,0,0,0,0,0,0,0,0,0,0,0,0,0,0,0,0,0,0,0,0,0,0,0,0,0,0,0,0,0,0,0,0,0,0,0,.01,.01,0,0,0,0,0,0,0,0,0,0,.01,0,.97,DSM HOLDING CO INC,622750990
2001,30318BLCRC2520P,LAFARGE BUILDING MATERIALS,2520 PAUL AVE NW,ATLANTA,FULTON,GA,30318,33.82179,-84.4721,3241,,,,,,324000,,,,,,1301150226470,DIOXIN AND DIOXIN-LIKE COMPOUNDS,N150,YES,DIOXIN,NO,0,NO,R,Grams,0,.13,0,0,0,0,0,0,0,0,0,0,.13,0,0,0,0,0,0,0,0,0,0,0,0,0,0,0,0,0,0,0,0,0,0,0,0,0,0,0,0,0,0,0,0,0,0,0,0,0,.13,.13,0,0,0,0,0,0,0,0,0,0,.13,0,1,LAFARGE NA,067568246
2001,30362CHMCN1ALCH,UNIVAR USA INC DORAVILLE FACILITY,1 ALCHEMY PL,DORAVILLE,GWINNETT,GA,30362,33.9225,-84.259166,5169,,,,,,424690,,,,,,1301150258958,N-HEXANE,000110543,YES,NON-PBT,NO,0,NO,R,Pounds,5,750,0,0,0,0,0,0,0,0,0,0,755,0,0,0,0,0,0,0,0,0,0,0,0,0,0,0,0,0,0,0,0,0,0,0,0,0,0,0,250,0,250,0,0,0,0,0,0,0,755,860,0,0,0,0,0,180,0,0,0,0,1040,0,2.23,UNIVAR USA INC,NA
2001,30176SCNCM100ST,BALL AEROSOL & SPECIALTY CONTAINER INC,100 STOFFEL DR,TALLAPOOSA,HARALSON,GA,30176,33.736569,-85.276879,3411,,,,,,332431,,,,,,1301150315481,METHYL ISOBUTYL KETONE,000108101,YES,NON-PBT,NO,0,NO,R,Pounds,0,2817,0,0,0,0,0,0,0,0,0,0,2817,0,0,0,0,0,0,0,0,0,0,0,0,0,0,0,0,0,0,0,0,0,0,0,0,0,0,0,4419,0,4419,0,0,0,0,0,0,0,2817,2817,0,0,0,0,0,4419,8721,0,0,0,15957,0,.87,BALL CORP,006419147
2001,30120BRTNP100EN,BURTIN POLYMER LABS,100 ENTERPRISE DR,CARTERSVILLE,BARTOW,GA,30120,34.1461,-84.837035,3087,,,,,,325991,,,,,,1301150318867,"1,1-DICHLORO-1-FLUOROETHANE",001717006,NO,NON-PBT,NO,0,NO,R,Pounds,0,0,0,0,0,0,0,0,0,0,0,0,0,0,0,0,0,0,0,0,0,0,0,0,0,0,0,0,0,0,0,0,0,0,0,0,0,0,0,0,0,0,0,0,0,0,0,0,0,0,0,0,0,0,0,0,0,0,0,0,0,0,0,0,0,NA,NA
2001,30162NLNDR238MA,TEMPLE-INLAND ROME LINERBOARD MILL,238 MAYS BRIDGE RD,ROME,FLOYD,GA,30165,34.250417,-85.346306,2631,,,,,,322130,,,,,,1301150226773,DIOXIN AND DIOXIN-LIKE COMPOUNDS,N150,YES,DIOXIN,NO,0,NO,R,Grams,0,1.8,0,0,0,0,0,0,.5,0,0,0,2.3,0,0,0,0,0,0,0,0,0,0,0,0,0,0,0,0,0,0,0,0,0,0,0,0,0,0,0,0,0,0,0,0,0,0,0,0,0,2.3,2.3,0,0,0,0,0,0,0,0,0,0,2.3,0,.91,TEMPLE-INLAND INC,006054100
2001,31708MLLRB405CO,MILLERCOORS LLC,405 CORDELE RD,ALBANY,DOUGHERTY,GA,31705,31.5936,-84.088331,2082,,,,,,312120,,,,,,1301150309173,"SULFURIC ACID (1994 AND AFTER ""ACID AEROSOLS"" ONLY)",007664939,NO,NON-PBT,NO,0,NO,R,Pounds,0,34000,0,0,0,0,0,0,0,0,0,0,34000,0,0,0,0,0,0,0,0,0,0,0,0,0,0,0,0,0,0,0,0,0,0,0,0,0,0,0,0,0,0,0,0,0,0,0,0,0,34000,34000,0,0,0,0,0,0,0,0,0,0,34000,0,.94,MILLERCOORS LLC,827129540
2001,30176SCNCM100ST,BALL AEROSOL & SPECIALTY CONTAINER INC,100 STOFFEL DR,TALLAPOOSA,HARALSON,GA,30176,33.736569,-85.276879,3411,,,,,,332431,,,,,,1301150315758,TOLUENE,000108883,YES,NON-PBT,NO,0,NO,R,Pounds,0,34375,0,0,0,0,0,0,0,0,0,0,34375,0,0,0,0,0,0,0,0,0,0,0,0,0,0,0,0,0,0,0,0,0,0,0,0,0,0,0,5330,0,5330,0,0,0,0,0,0,0,34375,34375,0,0,0,0,0,5330,24895,0,0,0,64600,0,.87,BALL CORP,006419147
2001,31995CLMBS1600N,DMI-COLUMBUS LLC,1600 NORTHSIDE INDUSTRIAL BLVD,COLUMBUS,MUSCOGEE,GA,319040201,32.53042,-84.97008,3321,,,,,,331511,,,,,,1301150253286,DIISOCYANATES,N120,YES,NON-PBT,NO,0,NO,R,Pounds,149,0,0,0,0,0,0,0,0,0,0,0,149,0,0,0,0,0,0,0,0,0,0,0,0,0,0,0,0,0,0,0,0,0,0,0,0,0,0,0,0,0,0,0,0,0,0,0,0,0,149,149,0,0,0,0,0,0,0,0,0,0,149,0,.75,DIVERSIFIED MACHINE INC,611828695
2001,31708MRCKC3517R,MERCK & CO INC,3517 RADIUM SPRINGS RD,ALBANY,DOUGHERTY,GA,317059596,31.500833,-84.12833,2833,,,,,,325412,,,,,,1301150224436,"HYDROCHLORIC ACID (1995 AND AFTER ""ACID AEROSOLS"" ONLY)",007647010,YES,NON-PBT,NO,0,NO,R,Pounds,690,9200,0,0,0,0,0,0,0,0,0,0,9890,0,0,0,0,0,0,0,0,0,0,0,0,0,0,0,0,0,0,0,0,0,0,0,0,0,0,0,0,0,0,0,0,0,0,0,0,0,9890,9890,0,0,0,0,0,0,0,0,380000,0,389890,0,.96,MERCK & CO INC,001317064
2001,30240MLLKN1300F,MILLIKEN & CO VALWAY PLANT,1300 FOURTH AVE,LAGRANGE,TROUP,GA,30240,33.02021,-85.05045,2262,2281,3069,,,,313311,,,,,,1301150253728,AMMONIA,007664417,NO,NON-PBT,NO,0,NO,R,Pounds,500,10773,0,0,0,0,0,0,0,0,0,0,11273,0,0,0,0,0,0,0,0,0,0,0,0,0,0,0,0,0,0,0,0,0,0,0,0,0,0,0,0,0,0,1159,0,0,0,0,0,1159,11273,11272,0,0,0,0,0,0,0,0,0,1159,12431,0,.63,MILLIKEN & CO,002017440
2001,31046SCHRR10986,SCHERER STEAM ELECTRIC GENERATING PLANT,10986 HWY 87,JULIETTE,MONROE,GA,31046,33.059639,-83.806917,4911,,,,,,221112,,,,,,1301150213698,CHLORINE,007782505,YES,NON-PBT,NO,0,NO,R,Pounds,0,0,0,0,0,0,0,0,0,0,0,0,0,0,0,0,0,0,0,0,0,0,0,0,0,0,0,0,0,0,0,0,0,0,0,0,0,0,0,0,0,0,0,0,0,0,0,0,0,0,0,0,0,0,0,0,0,0,0,0,0,0,0,0,.89,OPC-30%;SO-29%;FP-19%;MEAG-15%;JE-6%;CD-1%,NA
2001,30120BWNST317CO,BOWEN STEAM ELECTRIC GENERATING PLANT,317 COVERED BRIDGE RD,CARTERSVILLE,BARTOW,GA,30120,34.134389,-84.92275,4911,,,,,,221112,,,,,,1301150213751,"SULFURIC ACID (1994 AND AFTER ""ACID AEROSOLS"" ONLY)",007664939,NO,NON-PBT,NO,0,NO,R,Pounds,0,1579001,0,0,0,0,0,0,0,0,0,0,1579001,0,0,0,0,0,0,0,0,0,0,0,0,0,0,0,0,0,0,0,0,0,0,0,0,0,0,0,0,0,0,0,0,0,0,0,0,0,1579001,1579001,0,0,0,0,0,0,0,0,0,0,1579001,0,.92,SOUTHERN CO,006925341
2001,30340SHLND4550N,ASHLAND DISTRIBUTION CO,4550 NE EXPRESSWAY,DORAVILLE,DEKALB,GA,30340,33.902941,-84.241997,5169,,,,,,424690,,,,,,1301150280384,CERTAIN GLYCOL ETHERS,N230,YES,NON-PBT,NO,0,NO,R,Pounds,610,103,0,0,0,0,0,0,0,0,0,0,713,0,0,0,0,0,0,0,0,0,0,0,0,0,0,0,0,0,0,0,0,0,0,0,0,0,0,0,2548,283,2831,0,0,0,0,0,0,0,713,713,0,0,0,0,0,2831,0,0,0,0,3544,0,.46,ASHLAND INC,005003264
2001,31520BRNSWWEST9,GEORGIA-PACIFIC CORP.BRUNSWICK OPERATIONS,W. 9TH ST.,BRUNSWICK,GLYNN,GA,31521,31.176111,-81.5175,2611,2631,,,,,322000,,,,,,1301150207518,BARIUM COMPOUNDS,N040,NO,NON-PBT,YES,3,NO,R,Pounds,0,456,0,0,0,0,925,0,0,0,0,0,1381,0,0,0,0,0,0,0,0,0,0,0,0,0,0,0,0,0,0,0,0,0,0,0,0,0,0,0,0,0,0,0,0,0,0,0,0,0,1381,1381,0,0,0,0,0,0,0,0,0,0,1381,0,.06,GEORGIA-PACIFIC CORP,187711692
2001,30120BWNST317CO,BOWEN STEAM ELECTRIC GENERATING PLANT,317 COVERED BRIDGE RD,CARTERSVILLE,BARTOW,GA,30120,34.134389,-84.92275,4911,,,,,,221112,,,,,,1301150213837,NICKEL COMPOUNDS,N495,YES,NON-PBT,YES,1,NO,R,Pounds,0,2022,1431,0,0,0,0,0,79264,0,0,0,82717,0,0,0,0,0,0,0,0,0,0,0,0,0,0,0,0,0,0,0,0,0,0,0,0,0,0,0,0,0,0,0,0,0,0,0,0,0,82717,82717,0,0,0,0,0,0,0,0,0,0,82717,0,.92,SOUTHERN CO,006925341
2001,31061BRNCHUSHWY,BRANCH STEAM ELECTRIC GENERATING PLANT,1100 MILLEDGEVILLE RD,MILLEDGEVILLE,PUTNAM,GA,31061,33.195833,-83.297917,4911,,,,,,221112,,,,,,1301150213938,HYDROGEN FLUORIDE,007664393,YES,NON-PBT,NO,0,NO,R,Pounds,0,293910,0,0,0,0,0,0,0,0,0,0,293910,0,0,0,0,0,0,0,0,0,0,0,0,0,0,0,0,0,0,0,0,0,0,0,0,0,0,0,0,0,0,0,0,0,0,0,0,0,293910,293910,0,0,0,0,0,0,0,0,0,0,293910,0,.91,SOUTHERN CO,006925341
2001,31520BRNSWWEST9,GEORGIA-PACIFIC CORP.BRUNSWICK OPERATIONS,W. 9TH ST.,BRUNSWICK,GLYNN,GA,31521,31.176111,-81.5175,2611,2631,,,,,322000,,,,,,1301150207571,FORMIC ACID,000064186,NO,NON-PBT,NO,0,NO,R,Pounds,0,0,14227,0,0,0,0,0,0,0,0,0,14227,0,0,0,0,0,0,0,0,0,0,0,0,0,0,0,0,0,0,0,0,0,0,0,0,0,0,0,0,0,0,0,0,0,0,0,0,0,14227,14277,0,0,0,0,0,0,0,0,8405000,0,8419277,0,.99,GEORGIA-PACIFIC CORP,187711692
2001,31520BRNSWWEST9,GEORGIA-PACIFIC CORP.BRUNSWICK OPERATIONS,W. 9TH ST.,BRUNSWICK,GLYNN,GA,31521,31.176111,-81.5175,2611,2631,,,,,322000,,,,,,1301150207660,"BENZO(G,H,I)PERYLENE",000191242,YES,PBT,NO,0,YES,R,Pounds,0,1,0,0,0,0,0,0,0,0,0,0,1,0,0,0,0,0,0,0,0,0,0,0,0,0,0,0,0,0,0,0,0,0,0,0,0,0,0,0,0,0,0,0,0,0,0,0,0,0,1,1,0,0,0,0,0,0,0,0,0,0,1,0,0,GEORGIA-PACIFIC CORP,187711692
2001,30170WNSLYGEORG,WANSLEY STEAM ELECTRIC GENERATING PLANT,1371 LIBERTY CHURCH RD,CARROLLTON,HEARD,GA,30116,33.75313,-85.0431,4911,,,,,,221112,,,,,,1301150214082,"SULFURIC ACID (1994 AND AFTER ""ACID AEROSOLS"" ONLY)",007664939,NO,NON-PBT,NO,0,NO,R,Pounds,0,668860,0,0,0,0,0,0,0,0,0,0,668860,0,0,0,0,0,0,0,0,0,0,0,0,0,0,0,0,0,0,0,0,0,0,0,0,0,0,0,0,0,0,0,0,0,0,0,0,0,668860,668860,0,0,0,0,0,0,0,0,0,0,668860,0,1.1,SO-7166%; OPC-1828%; MEAG-92%; CD-85%,NA
2001,30263YTSST708DY,YATES STEAM ELECTRIC GENERATING PLANT,708 DYER RD,NEWNAN,COWETA,GA,30263,33.462389,-84.89861,4911,,,,,,221112,,,,,,1301150214450,HYDROGEN FLUORIDE,007664393,YES,NON-PBT,NO,0,NO,R,Pounds,0,298389,0,0,0,0,0,0,0,0,0,0,298389,0,0,0,0,0,0,0,0,0,0,0,0,0,0,0,0,0,0,0,0,0,0,0,0,0,0,0,0,0,0,0,0,0,0,0,0,0,298389,298389,0,0,0,0,0,0,0,0,0,0,298389,0,.92,SOUTHERN CO,006925341
2001,30263YTSST708DY,YATES STEAM ELECTRIC GENERATING PLANT,708 DYER RD,NEWNAN,COWETA,GA,30263,33.462389,-84.89861,4911,,,,,,221112,,,,,,1301150214512,COPPER COMPOUNDS,N100,NO,NON-PBT,YES,1,NO,R,Pounds,0,311,3311,0,0,0,92545,0,0,0,0,0,96167,0,0,0,0,0,0,0,0,0,0,0,0,0,0,0,0,0,0,0,0,0,0,0,0,0,0,0,0,0,0,0,0,0,0,0,0,0,96167,96167,0,0,0,0,0,0,0,0,0,0,96167,0,.92,SOUTHERN CO,006925341
2001,30120BWNST317CO,BOWEN STEAM ELECTRIC GENERATING PLANT,317 COVERED BRIDGE RD,CARTERSVILLE,BARTOW,GA,30120,34.134389,-84.92275,4911,,,,,,221112,,,,,,1301150214625,DIOXIN AND DIOXIN-LIKE COMPOUNDS,N150,YES,DIOXIN,NO,0,NO,R,Grams,0,1.388,0,0,0,0,0,0,0,0,0,0,1.388,0,0,0,0,0,0,0,0,0,0,0,0,0,0,0,0,0,0,0,0,0,0,0,0,0,0,0,0,0,0,0,0,0,0,0,0,0,1.388,1.388,0,0,0,0,0,0,0,0,0,0,1.388,0,.92,SOUTHERN CO,006925341
2001,30129HMMND5963A,HAMMOND STEAM ELECTRIC GENERATING PLANT,5963 ALABAMA HWY SW,ROME,FLOYD,GA,30165,34.250361,-85.345417,4911,,,,,,221112,,,,,,1301150214688,MERCURY COMPOUNDS,N458,YES,PBT,YES,1,NO,R,Pounds,0,89.3,0,0,0,0,0,0,45.9,0,0,0,135.2,0,0,0,0,0,0,0,0,0,.4,0,0,0,0,0,0,0,0,0,0,.4,0,0,0,0,0,0,0,0,0,0,0,0,0,0,0,0,135.6,135.6,0,0,0,0,0,0,0,0,0,0,135.6,0,.83,SOUTHERN CO,006925341
2001,31046SCHRR10986,SCHERER STEAM ELECTRIC GENERATING PLANT,10986 HWY 87,JULIETTE,MONROE,GA,31046,33.059639,-83.806917,4911,,,,,,221112,,,,,,1301150214753,DIOXIN AND DIOXIN-LIKE COMPOUNDS,N150,YES,DIOXIN,NO,0,NO,R,Grams,0,1.413,0,0,0,0,0,0,0,0,0,0,1.413,0,0,0,0,0,0,0,0,0,0,0,0,0,0,0,0,0,0,0,0,0,0,0,0,0,0,0,0,0,0,0,0,0,0,0,0,0,1.413,1.413,0,0,0,0,0,0,0,0,0,0,1.413,0,.89,OPC-30%;SO-29%;FP-19%;MEAG-15%;JE-6%;CD-1%,NA
2001,30170WNSLYGEORG,WANSLEY STEAM ELECTRIC GENERATING PLANT,1371 LIBERTY CHURCH RD,CARROLLTON,HEARD,GA,30116,33.75313,-85.0431,4911,,,,,,221112,,,,,,1301150214157,LEAD COMPOUNDS,N420,YES,PBT,YES,1,NO,R,Pounds,0,679.4,1.8,0,0,0,0,0,50785.4,0,0,0,51466.6,0,0,0,0,0,0,0,0,0,0,0,0,0,0,0,0,0,0,0,0,0,0,0,0,0,.7,.7,0,0,0,0,0,0,0,0,0,0,51466.6,51467.3,0,0,0,0,0,0,0,0,0,0,51467.3,0,1.1,SO-7166%; OPC-1828%; MEAG-92%; CD-85%,NA
2001,31705MTCHL5200R,MITCHELL STEAM ELECTRIC GENERATING PLANT,5200 RADIUM SPRINGS RD,ALBANY,DOUGHERTY,GA,31705,31.444556,-84.136722,4911,,,,,,221112,,,,,,1301150214207,"SULFURIC ACID (1994 AND AFTER ""ACID AEROSOLS"" ONLY)",007664939,NO,NON-PBT,NO,0,NO,R,Pounds,0,25590,0,0,0,0,0,0,0,0,0,0,25590,0,0,0,0,0,0,0,0,0,0,0,0,0,0,0,0,0,0,0,0,0,0,0,0,0,0,0,0,0,0,0,0,0,0,0,0,0,25590,25590,0,0,0,0,0,0,0,0,0,0,25590,0,.71,SOUTHERN CO,006925341
2001,30129HMMND5963A,HAMMOND STEAM ELECTRIC GENERATING PLANT,5963 ALABAMA HWY SW,ROME,FLOYD,GA,30165,34.250361,-85.345417,4911,,,,,,221112,,,,,,1301150214284,MANGANESE COMPOUNDS,N450,YES,NON-PBT,YES,1,NO,R,Pounds,0,725,32,0,0,0,0,0,103932,0,0,0,104689,0,0,0,0,0,0,0,0,0,1628,0,0,0,0,0,0,0,0,0,0,1628,0,0,0,0,0,0,0,0,0,0,0,0,0,0,0,0,106317,106317,0,0,0,0,0,0,0,0,0,0,106317,0,.83,SOUTHERN CO,006925341
2001,31046SCHRR10986,SCHERER STEAM ELECTRIC GENERATING PLANT,10986 HWY 87,JULIETTE,MONROE,GA,31046,33.059639,-83.806917,4911,,,,,,221112,,,,,,1301150214435,THALLIUM COMPOUNDS,N760,NO,NON-PBT,YES,1,NO,R,Pounds,0,42,0,0,0,0,0,0,22171,0,0,0,22213,0,0,0,0,0,0,0,0,0,0,0,0,0,0,0,0,0,0,0,0,0,0,0,0,0,0,0,0,0,0,0,0,0,0,0,0,0,22213,22213,0,0,0,0,0,0,0,0,0,0,22213,0,.89,OPC-30%;SO-29%;FP-19%;MEAG-15%;JE-6%;CD-1%,NA
2001,30362DRVLL6293N,MARATHON PETROLEUM CO LLC - DORAVILLE GA TERMINAL,6293 NEW PEACHTREE RD,DORAVILLE,DEKALB,GA,30340,33.909505,-84.271145,5171,,,,,,424710,,,,,,1301150270458,BENZENE,000071432,YES,NON-PBT,NO,0,YES,R,Pounds,202,338,0,0,0,0,0,0,0,0,0,0,540,0,0,0,0,0,0,0,0,0,0,0,0,0,0,0,0,0,0,0,0,0,0,0,250,0,0,250,0,0,0,0,0,0,0,0,0,0,540,540,0,0,0,0,0,17,33581,0,0,0,34138,0,1.07,MARATHON OIL CORP,002028801
2001,30362DRVLL6293N,MARATHON PETROLEUM CO LLC - DORAVILLE GA TERMINAL,6293 NEW PEACHTREE RD,DORAVILLE,DEKALB,GA,30340,33.909505,-84.271145,5171,,,,,,424710,,,,,,1301150270508,LEAD,007439921,YES,PBT,YES,1,YES,R,Pounds,0,0,0,0,0,0,16,0,0,0,0,0,16,0,0,0,0,0,0,0,0,0,0,0,0,0,0,0,0,0,0,0,51,51,0,0,0,0,0,0,0,0,0,0,0,0,0,0,0,0,67,16,0,0,0,0,0,35,0,0,0,0,51,0,1.07,MARATHON OIL CORP,002028801
2001,31407SVNNHCROSS,KRAFT STEAM ELECTRIC GENERATING PLANT,155 CROSSGATE RD,PORT WENTWORTH,CHATHAM,GA,31407,32.150453,-81.155729,4911,,,,,,221112,,,,,,1301150215756,"HYDROCHLORIC ACID (1995 AND AFTER ""ACID AEROSOLS"" ONLY)",007647010,YES,NON-PBT,NO,0,NO,R,Pounds,0,313143,0,0,0,0,0,0,0,0,0,0,313143,0,0,0,0,0,0,0,0,0,0,0,0,0,0,0,0,0,0,0,0,0,0,0,0,0,0,0,0,0,0,0,0,0,0,0,0,0,313143,313143,0,0,0,0,0,0,0,0,0,0,313143,0,.86,SOUTHERN CO,006925341
2001,31314SRMYF1550C,US ARMY FORT STEWART,1550 FRANK COCHRAN DR,FORT STEWART,LIBERTY,GA,313145000,31.846946,-81.619785,9711,,,,,,928110,,,,,,1301150271690,NITROGLYCERIN,000055630,NO,NON-PBT,NO,0,NO,R,Pounds,0,0,0,0,0,0,0,0,0,0,0,0,0,0,0,0,0,0,0,0,0,0,0,0,0,0,0,0,0,0,0,0,0,0,0,0,0,0,0,0,0,0,0,0,0,0,0,0,0,0,0,0,0,0,0,0,0,0,0,0,0,0,0,0,1,US DEPARTMENT OF DEFENSE,NA
2001,31326SVNNHHWY27,MCINTOSH ELECTRIC GENERATING PLANT,981 OLD AUGUSTA RD CENTRAL PO BOX 2507,RINCON,EFFINGHAM,GA,31326,32.355833,-81.168333,4911,,,,,,221112,,,,,,1301150215806,"SULFURIC ACID (1994 AND AFTER ""ACID AEROSOLS"" ONLY)",007664939,NO,NON-PBT,NO,0,NO,R,Pounds,0,45089,0,0,0,0,0,0,0,0,0,0,45089,0,0,0,0,0,0,0,0,0,0,0,0,0,0,0,0,0,0,0,0,0,0,0,0,0,0,0,0,0,0,0,0,0,0,0,0,0,45089,45089,0,0,0,0,0,0,0,0,0,0,45089,0,0,SOUTHERN CO,006925341
2001,31326SVNNHHWY27,MCINTOSH ELECTRIC GENERATING PLANT,981 OLD AUGUSTA RD CENTRAL PO BOX 2507,RINCON,EFFINGHAM,GA,31326,32.355833,-81.168333,4911,,,,,,221112,,,,,,1301150215871,MERCURY COMPOUNDS,N458,YES,PBT,YES,1,NO,R,Pounds,0,47.1,0,0,0,0,0,0,3.5,0,0,0,50.6,0,0,0,0,0,0,0,0,0,0,0,0,0,0,0,0,0,0,0,0,0,0,0,0,0,0,0,0,0,0,0,0,0,0,0,0,0,50.6,50.6,0,0,0,0,0,0,0,0,0,0,50.6,0,1.06,SOUTHERN CO,006925341
2001,30830STHRN8803R,SOUTHERN NUCLEAR - PLANT WILSON/VOGTLE,8803 RIVER RD,WAYNESBORO,BURKE,GA,30830,33.149639,-81.754556,4911,,,,,,221113,,,,,,1301150215960,ZINC COMPOUNDS,N982,NO,NON-PBT,YES,1,NO,R,Pounds,0,92,15494,0,0,0,21199,0,0,0,0,0,36785,0,0,0,0,0,0,0,0,0,0,0,0,0,0,0,0,0,0,3,0,3,0,0,0,0,0,0,0,0,0,0,0,0,0,0,0,0,36788,36788,0,0,0,0,0,0,0,0,0,0,36788,0,1,SOUTHERN CO,006925341
2001,30340MCLDR6430N,BP PRODUCTS NA INC DORAVILLE 1 TERMINAL,6430 NEW PEACHTREE RD,DORAVILLE,DEKALB,GA,30340,33.911039,-84.267527,5171,,,,,,424710,,,,,,1301150326041,POLYCYCLIC AROMATIC COMPOUNDS,N590,YES,PBT,NO,0,YES,R,Pounds,0,0,0,0,0,0,0,0,0,0,0,0,0,0,0,0,0,0,0,0,0,0,0,0,0,0,0,0,0,0,0,0,0,0,0,0,.2,0,0,.2,0,0,0,0,0,0,0,0,0,0,0,0,0,0,0,0,0,0,0,.2,0,0,.2,0,0,BP PRODUCTS NA INC,151317174
2001,30613CRTNT425AT,CERTAINTEED CORP,425 ATHENA DR,ATHENS,CLARKE,GA,30601,33.979078,-83.342618,3296,,,,,,327993,,,,,,1301150332587,PHENOL,000108952,YES,NON-PBT,NO,0,NO,R,Pounds,3061,43734,0,0,0,0,0,0,0,0,0,0,46795,0,250,250,0,0,0,0,0,0,1631,0,0,0,0,0,0,0,0,0,0,1631,0,0,0,0,0,0,0,0,0,0,0,0,0,0,0,0,48426,46795,0,0,0,0,0,0,0,0,12335,213,59343,0,.88,SAINT-GOBAIN CORP,380024737
2001,30360DRVLL4127W,MOTIVA DORAVILLE TERMINAL,4127 WINTERS CHAPEL RD,DORAVILLE,DEKALB,GA,30360,33.914017,-84.269966,5171,,,,,,424710,,,,,,1301150351688,ETHYLBENZENE,000100414,YES,NON-PBT,NO,0,NO,R,Pounds,46,81,1,0,0,0,0,0,0,0,0,0,128,0,0,0,0,0,0,0,0,0,0,0,0,0,0,0,0,0,0,0,0,0,0,0,0,0,0,0,0,0,0,0,0,0,0,0,0,0,128,128,0,0,0,0,0,0,0,0,85,0,213,0,1.12,MOTIVA ENTERPRISES LLC,023838670
2001,30360DRVLL4127W,MOTIVA DORAVILLE TERMINAL,4127 WINTERS CHAPEL RD,DORAVILLE,DEKALB,GA,30360,33.914017,-84.269966,5171,,,,,,424710,,,,,,1301150351738,"BENZO(G,H,I)PERYLENE",000191242,YES,PBT,NO,0,YES,R,Pounds,0,0,0,0,0,0,0,0,0,0,0,0,0,0,0,0,0,0,0,0,0,0,0,0,0,0,0,0,0,0,0,0,0,0,0,0,0,0,0,0,0,0,0,0,0,0,0,0,0,0,0,0,0,0,0,0,0,0,0,0,0,0,0,0,1.12,MOTIVA ENTERPRISES LLC,023838670
2001,30701HNKLS923MA,HENKEL CORP,923 MAULDIN RD,CALHOUN,GORDON,GA,30701,34.52168,-84.95194,2899,,,,,,325998,,,,,,1301150381996,ZINC COMPOUNDS,N982,NO,NON-PBT,YES,1,NO,R,Pounds,0,9,0,0,0,0,0,0,0,0,0,0,9,2,0,2,0,0,0,0,0,0,1742,0,0,0,0,0,0,0,0,0,0,1742,0,0,0,0,0,0,0,0,0,0,0,0,0,0,0,0,1753,1971,0,0,0,0,0,0,0,0,198,0,2169,0,.93,HENKEL CORP,051441731
2001,30354CNPCN3045C,AUTO-CHLOR SYSTEM LLC,3045 COMMERCE WAY,HAPEVILLE,FULTON,GA,30354,33.6713,-84.399349,2842,,,,,,325612,,,,,,1301150322372,NITRIC ACID,007697372,NO,NON-PBT,NO,0,NO,R,Pounds,0,750,0,0,0,0,0,0,0,0,0,0,750,0,0,0,0,0,0,0,0,0,0,0,0,0,0,0,0,0,0,0,0,0,0,0,0,0,0,0,0,0,0,0,0,0,0,0,0,0,750,1050,0,0,0,0,0,0,0,0,0,0,1050,0,1.1,NA,NA
2001,30125THHNC907WE,HON CO,907 W AVE,CEDARTOWN,POLK,GA,30125,34.011313,-85.279601,2522,2521,,,,,337211,,,,,,1301150385526,M-XYLENE,000108383,YES,NON-PBT,NO,0,NO,R,Pounds,3700,21000,0,0,0,0,0,0,0,0,0,0,24700,0,0,0,0,0,0,0,0,0,0,0,0,0,0,0,0,0,0,0,0,0,0,0,0,0,0,0,580,0,580,0,0,0,0,0,0,0,24700,24700,0,0,0,0,0,580,2970,0,0,0,28250,0,.89,HNI CORP,005028667
2001,31717STHSTSPRIN,SOUTHEASTERN MINERALS INC,801 SPRING CREEK RD,BAINBRIDGE,DECATUR,GA,39817,30.90904,-84.59582,2048,,,,,,311119,,,,,,1301150421725,COPPER COMPOUNDS,N100,NO,NON-PBT,YES,1,NO,R,Pounds,0,250,0,0,0,0,0,0,0,0,0,0,250,0,0,0,0,0,0,0,0,0,0,0,0,0,0,0,0,0,0,0,0,0,0,0,0,0,0,0,0,0,0,0,0,0,0,0,0,0,250,0,0,0,0,0,0,0,2500,0,0,0,2500,0,1,NA,NA
2001,31639MCFBRUS129,PROPEX FABRICS INC  NASHVILLE MILLS,#1 NASHVILLE MILLS RD.,NASHVILLE,BERRIEN,GA,31639,31.19066,-83.24844,2221,,,,,,313210,,,,,,1301150421790,LEAD,007439921,YES,PBT,YES,1,YES,R,Pounds,0,0,0,0,0,0,0,0,0,0,0,0,0,0,0,0,0,0,0,0,0,0,0,0,0,0,0,0,0,0,0,0,0,0,0,0,0,0,0,0,0,0,0,0,0,0,0,0,0,0,0,0,0,0,0,0,0,0,0,0,0,0,0,0,0,PROPEX FABRICS INC,056656259
2001,30071TTNTW2000N,OFS FITEL LLC,2000 NE EXPRESSWAY,NORCROSS,GWINNETT,GA,30071,33.9312,-84.16937,3357,3669,3661,3229,,,327212,,,,,,1301150355788,HYDROGEN FLUORIDE,007664393,YES,NON-PBT,NO,0,NO,R,Pounds,250,250,0,0,0,0,0,0,0,0,0,0,500,0,0,0,0,0,0,0,0,0,0,0,0,0,0,0,0,0,0,0,0,0,0,0,0,0,0,0,0,0,0,0,0,0,0,0,250,250,500,290,0,0,0,0,0,0,0,0,117000,90,117380,0,1.41,OFS FITEL LLC,NA
2001,30824NTDTC1884W,HP PELZER (AUTOMOTIVE SYSTEMS) INC,1884 WARRENTON HWY,THOMSON,MCDUFFIE,GA,30824,33.4483,-82.537475,2399,2295,2298,,,,336360,,,,,,1301150348821,ZINC COMPOUNDS,N982,NO,NON-PBT,YES,1,NO,R,Pounds,250,4233,0,0,0,0,0,0,0,0,0,0,4483,0,0,0,0,0,0,0,0,0,4183,0,0,0,0,0,0,0,0,0,0,4183,0,0,0,0,0,0,0,0,0,0,0,0,0,0,0,0,8666,8796,0,0,0,0,0,0,3148,0,0,0,11944,0,.97,HP PELZER AUTOMOTIVE SYSTEMS INC,929800118
2001,30120CHMCLTENNE,CHEMICAL PRODUCTS CORP,102 OLD MILL RD,CARTERSVILLE,BARTOW,GA,301201692,34.146333,-84.782722,2819,,,,,,325188,,,,,,1301150362541,BARIUM COMPOUNDS,N040,NO,NON-PBT,YES,3,NO,R,Pounds,22,5680,9507,0,0,0,0,0,0,0,0,0,15209,0,0,0,0,0,0,0,0,0,0,0,0,0,0,0,0,0,0,0,0,0,0,0,0,0,0,0,0,0,0,0,0,0,0,0,0,0,15209,15210,0,0,0,0,0,0,0,0,4298155,0,4313365,0,.87,NA,NA
2001,30279STNDR145ST,STANDRIDGE COLOR CORP,145 STANDRIDGE DR,SOCIAL CIRCLE,WALTON,GA,30025,33.654166,-83.691944,3087,,,,,,325991,,,,,,1301150362592,LEAD COMPOUNDS,N420,YES,PBT,YES,1,NO,R,Pounds,327,0,1,0,0,0,0,0,0,0,0,0,328,1,0,1,0,0,0,0,0,0,297,0,0,0,0,0,0,0,0,0,0,297,0,0,0,0,0,0,0,0,0,0,0,0,0,0,0,0,626,635,0,0,0,0,0,0,0,0,0,0,635,0,1.01,STANDRIDGE COLOR CORP,088602917
2001,30120NHSRB100BU,ANHEUSER-BUSCH INC CARTERSVI LLE BREWERY,100 BUSCH DR,CARTERSVILLE,BARTOW,GA,30121,34.25368,-84.78685,2082,1541,,,,,311213,,,,,,1301150316154,"BENZO(G,H,I)PERYLENE",000191242,YES,PBT,NO,0,YES,R,Pounds,0,.0008,0,0,0,0,0,0,0,0,0,.2559,.2567,0,0,0,0,0,0,0,0,0,0,0,0,0,0,0,0,0,0,0,0,0,0,0,0,0,0,0,0,0,0,0,0,0,0,0,0,0,.2567,.26,0,0,0,0,0,0,0,0,0,0,.26,0,1.05,ANHEUSER-BUSCH INBEV,098630254
2001,30176NCBLD125PE,NCI BUILDING SYSTEMS LP,125 PEQUANOC DR,TALLAPOOSA,HARALSON,GA,30176,33.731203,-85.278602,3448,,,,,,332312,,,,,,1301150309831,COPPER,007440508,NO,NON-PBT,YES,1,NO,R,Pounds,0,15,0,0,0,0,0,0,0,0,0,0,15,0,0,0,0,0,0,0,0,0,0,0,0,0,0,0,0,0,0,0,0,0,0,0,0,0,0,0,0,0,0,0,0,0,0,0,0,0,15,15,0,0,0,0,0,0,0,0,0,0,15,0,1.1,NCI GROUP INC,130234529
2001,30720SHWND1020R,SHAW INDUSTRIES GROUP INC. PLANT 20,1020 RIVERBEND RD,DALTON,WHITFIELD,GA,30720,34.758348,-84.953119,2273,,,,,,314110,,,,,,1301150369445,"BENZO(G,H,I)PERYLENE",000191242,YES,PBT,NO,0,YES,R,Pounds,0,0,0,0,0,0,0,0,0,0,0,0,0,0,0,0,0,0,0,0,0,0,0,0,0,0,0,0,0,0,0,0,0,0,0,0,0,0,0,0,0,0,0,0,0,0,0,0,0,0,0,0,0,0,0,0,0,0,0,0,0,0,0,0,1.05,SHAW INDUSTRIES GROUP INC,045840055
2001,30120SHWND5225H,SHAW INDUSTRIES GROUP INC PLANT 15X,5225 HWY 411 SW,CARTERSVILLE,BARTOW,GA,30120,34.06316,-84.826089,2273,,,,,,314110,,,,,,1301150369508,ANTIMONY COMPOUNDS,N010,YES,NON-PBT,YES,1,NO,R,Pounds,0,0,0,0,0,0,0,0,0,0,0,0,0,0,0,0,860,0,0,0,0,0,5100,0,0,0,0,0,0,0,0,0,0,5960,0,0,0,0,0,0,0,0,0,0,0,0,0,0,0,0,5960,6000,0,0,0,0,0,0,0,0,0,0,6000,0,.8,BERKSHIRE HATHAWAY,045840055
2001,31905SRMYFUSAIC,US ARMY FORT BENNING INFANTRY CENTER,"US ARMY DEPARTMENT OF PUBLIC WORKS, MELOY HALL, BLDG 6",FORT BENNING,CHATTAHOOCHEE,GA,31905,32.352222,-84.96888,9711,,,,,,928110,,,,,,1301150339339,ETHYLENE GLYCOL,000107211,YES,NON-PBT,NO,0,NO,R,Pounds,5,0,250,0,0,0,0,0,0,0,0,250,505,0,0,0,0,0,0,0,0,0,0,0,0,0,0,0,0,0,0,0,0,0,0,0,13690,0,0,13690,0,0,0,0,0,0,0,0,0,0,505,505,0,0,0,0,0,0,3398,13690,0,0,17593,0,.9,US DEPARTMENT OF DEFENSE,NA
2001,30458BRGGS7251Z,BRIGGS & STRATTON CORP,7251 ZELL MILLER PKWY,STATESBORO,BULLOCH,GA,304583487,32.382271,-81.836447,3519,,,,,,333618,,,,,,1301150369801,TOLUENE,000108883,YES,NON-PBT,NO,0,NO,R,Pounds,0,22,0,0,0,0,0,0,0,0,0,0,22,0,0,0,0,0,0,0,0,0,0,0,0,0,0,0,0,0,0,0,0,0,0,0,0,0,0,0,0,0,0,0,0,0,0,0,0,0,22,22,0,0,0,0,0,0,0,0,0,0,22,0,.8,BRIGGS & STRATTON CORP,006082531
2001,30084NNCRB2043S,UNION CARBIDE CORP TUCKER LATEX PLANT,2043 STEEL DR,TUCKER,DEKALB,GA,30084,33.843662,-84.234162,2821,,,,,,325211,,,,,,1301150336752,ACRYLIC ACID,000079107,YES,NON-PBT,NO,0,NO,R,Pounds,2,0,0,0,0,0,0,0,0,0,0,0,2,0,2,2,0,0,0,0,0,0,2,0,0,0,0,0,0,0,0,0,0,2,0,0,0,0,0,0,0,0,0,0,0,0,0,0,0,0,4,5,0,0,0,0,0,0,0,0,12,4,21,0,1.01,DOW CHEMICAL CO,001381581
2001,30084NNCRB2043S,UNION CARBIDE CORP TUCKER LATEX PLANT,2043 STEEL DR,TUCKER,DEKALB,GA,30084,33.843662,-84.234162,2821,,,,,,325211,,,,,,1301150336814,PROPYLENEIMINE,000075558,YES,NON-PBT,NO,0,YES,R,Pounds,2,0,0,0,0,0,0,0,0,0,0,0,2,0,0,0,0,0,0,0,0,0,0,0,0,0,0,0,0,0,0,0,0,0,0,0,0,0,0,0,0,0,0,0,0,0,0,0,0,0,2,2,0,0,0,0,0,0,0,0,10,0,12,0,1.01,DOW CHEMICAL CO,001381581
2001,30354FRDMT340HE,FORD MOTOR CO - ATLANTA ASSEMBLY PLANT,340 HENRY FORD II AVE,HAPEVILLE,FULTON,GA,30354,33.654167,-84.403336,3711,,,,,,336111,,,,,,1301150346928,BENZENE,000071432,YES,NON-PBT,NO,0,YES,R,Pounds,20,39,0,0,0,0,0,0,0,0,0,0,59,0,0,0,0,0,0,0,0,0,0,0,0,0,0,0,0,0,0,0,0,0,0,0,0,0,0,0,155,0,155,0,0,0,0,0,0,0,59,59,0,0,0,0,0,160,0,0,3,0,222,0,.76,FORD MOTOR CO,001344746
2001,30354FRDMT340HE,FORD MOTOR CO - ATLANTA ASSEMBLY PLANT,340 HENRY FORD II AVE,HAPEVILLE,FULTON,GA,30354,33.654167,-84.403336,3711,,,,,,336111,,,,,,1301150347033,METHYL TERT-BUTYL ETHER,001634044,YES,NON-PBT,NO,0,NO,R,Pounds,200,380,0,0,0,0,0,0,0,0,0,0,580,0,0,0,0,0,0,0,0,0,0,0,0,0,0,0,0,0,0,0,0,0,0,0,0,0,0,0,462,0,462,0,0,0,0,0,0,0,580,580,0,0,0,0,0,460,0,0,29,0,1069,0,.76,FORD MOTOR CO,001344746
2001,30360GNRLM3900M,GM MLCG- DORAVILLE ASSEMBLY FACILITY,3900 MOTORS INDUSTRIAL WAY,DORAVILLE,DEKALB,GA,30360,33.90592,-84.27987,3711,,,,,,336112,,,,,,1301150374496,ZINC COMPOUNDS,N982,NO,NON-PBT,YES,1,NO,R,Pounds,0,19,22,0,0,0,0,0,0,0,0,0,41,970,0,970,0,0,0,0,0,0,4300,0,0,0,0,0,0,0,0,0,0,4300,0,0,0,0,0,0,0,0,0,0,0,0,0,0,0,0,5311,5400,0,0,0,0,0,0,0,0,0,0,5400,0,.85,GENERAL MOTORS CORP,005356613
2001,30360GNRLM3900M,GM MLCG- DORAVILLE ASSEMBLY FACILITY,3900 MOTORS INDUSTRIAL WAY,DORAVILLE,DEKALB,GA,30360,33.90592,-84.27987,3711,,,,,,336112,,,,,,1301150374561,METHANOL,000067561,YES,NON-PBT,NO,0,NO,R,Pounds,4300,67000,0,0,0,0,0,0,0,0,0,0,71300,0,0,0,0,0,0,0,0,0,0,0,0,0,0,0,0,0,0,0,0,0,17000,0,0,0,0,17000,0,0,0,0,0,0,0,0,0,0,71300,71000,0,0,0,0,0,0,0,17000,14000,0,102000,0,.85,GENERAL MOTORS CORP,005356613
2001,30360GNRLM3900M,GM MLCG- DORAVILLE ASSEMBLY FACILITY,3900 MOTORS INDUSTRIAL WAY,DORAVILLE,DEKALB,GA,30360,33.90592,-84.27987,3711,,,,,,336112,,,,,,1301150374647,XYLENE (MIXED ISOMERS),001330207,YES,NON-PBT,NO,0,NO,R,Pounds,19000,480000,0,0,0,0,0,0,0,0,0,0,499000,0,0,0,0,0,0,0,0,0,0,0,0,0,0,0,0,0,0,0,0,0,260000,0,0,0,0,260000,0,0,0,0,0,0,0,0,0,0,499000,500000,0,0,0,0,0,0,0,260000,80000,0,840000,0,.85,GENERAL MOTORS CORP,005356613
2001,31298BRWNW2600W,R. J. REYNOLDS TOBACCO CO,2600 WEAVER RD,MACON,BIBB,GA,31217,32.81402,-83.56149,2111,,,,,,312221,,,,,,1301150327144,LEAD COMPOUNDS,N420,YES,PBT,YES,1,NO,R,Pounds,0,16,0,0,0,0,0,0,0,0,0,0,16,0,0,0,0,0,0,0,0,0,100,0,0,0,0,0,0,0,0,0,0,100,0,0,0,0,0,0,0,0,0,0,0,0,0,0,0,0,116,120,0,0,0,0,0,0,0,0,0,0,120,0,.9,REYNOLDS AMERICAN INC,157108643
2001,30119CPPRDCENTR,SOUTHWIRE CO,1 SOUTHWIRE DR,CARROLLTON,CARROLL,GA,30119,33.566896,-85.072598,3357,3351,3569,,,,331422,,,,,,1301150344570,LEAD COMPOUNDS,N420,YES,PBT,YES,1,NO,R,Pounds,0,0,.4,0,0,0,0,0,0,0,0,0,.4,.1,0,.1,0,0,5.4,0,0,0,8.2,0,0,0,0,0,0,0,0,0,0,13.6,0,0,0,0,0,0,0,0,0,0,0,0,0,0,0,0,14.1,14,0,0,0,0,0,0,0,0,0,0,14,0,.89,NA,NA
2001,30119CPPRDCENTR,SOUTHWIRE CO,1 SOUTHWIRE DR,CARROLLTON,CARROLL,GA,30119,33.566896,-85.072598,3357,3351,3569,,,,331422,,,,,,1301150344669,CHROMIUM,007440473,YES,NON-PBT,YES,1,YES,R,Pounds,2,0,0,0,0,0,0,0,0,0,0,0,2,0,0,0,0,0,0,0,0,0,20,0,0,0,0,0,0,0,0,0,0,20,0,0,0,0,0,0,0,0,0,0,0,0,0,0,0,0,22,22,0,0,0,0,0,0,0,0,0,0,22,0,.79,NA,NA
2001,30209THVLS9308I,ENGINEERED POLYMER SOLUTIONS INC. (DBA VALSPAR COATINGS),9308 INDUSTRIAL DR.,COVINGTON,NEWTON,GA,302092619,33.614888,-83.843874,2851,,,,,,325510,,,,,,1301150371540,CERTAIN GLYCOL ETHERS,N230,YES,NON-PBT,NO,0,NO,R,Pounds,0,5,0,0,0,0,0,0,0,0,0,0,5,0,0,0,0,0,0,0,0,0,0,0,0,0,0,0,0,0,0,0,0,0,0,0,0,0,0,0,0,0,0,0,0,0,0,4705,0,4705,5,6,0,0,0,0,0,0,0,0,0,4705,4711,0,1.11,VALSPAR CORP,115994790
2001,30050CRGLL71BAR,MOMENTIVE SPECIALTY CHEMICALS INC,71 BARNETT RD,FOREST PARK,CLAYTON,GA,30297,33.614444,-84.386389,2821,,,,,,325211,,,,,,1301150333920,DICYCLOPENTADIENE,000077736,NO,NON-PBT,NO,0,NO,R,Pounds,129,0,0,0,0,0,0,0,0,0,0,0,129,0,0,0,0,0,0,0,0,0,0,0,0,0,0,0,0,0,0,0,0,0,0,0,0,0,0,0,387,0,387,0,1126,0,0,0,0,1126,129,129,0,0,0,0,0,387,0,0,1,1126,1643,0,1.19,MOMENTIVE SPECIALTY CHEMICALS INC,NA
2001,30050CRGLL71BAR,MOMENTIVE SPECIALTY CHEMICALS INC,71 BARNETT RD,FOREST PARK,CLAYTON,GA,30297,33.614444,-84.386389,2821,,,,,,325211,,,,,,1301150334023,"1,2,4-TRIMETHYLBENZENE",000095636,NO,NON-PBT,NO,0,NO,R,Pounds,0,5,0,0,0,0,0,0,0,0,0,0,5,0,0,0,0,0,0,0,0,0,9,0,0,0,0,0,0,0,0,0,0,9,0,0,0,0,0,0,135,0,135,0,125,0,0,0,0,125,14,14,0,0,0,0,0,135,0,0,5,125,279,0,.76,MOMENTIVE SPECIALTY CHEMICALS INC,NA
2001,30913MRRYBARTHE,BORAL BRICKS INC- AUGUSTA PL ANTS 3 4 5,1630 ARTHERN RD,AUGUSTA,RICHMOND,GA,309013072,33.457301,-81.958849,3251,,,,,,327121,,,,,,1301150401317,MANGANESE COMPOUNDS,N450,YES,NON-PBT,YES,1,NO,R,Pounds,0,3956,0,0,0,0,0,0,0,0,0,0,3956,0,0,0,0,0,0,0,0,0,3919,0,0,0,0,0,0,0,0,0,0,3919,0,0,0,0,0,0,0,0,0,0,0,0,0,0,0,0,7875,3956,0,0,0,0,0,0,0,0,0,0,3956,0,.95,BORAL USA,026389254
2001,31907CLLWY6603C,KEMIRA CHEMICALS INC - COLUMBUS PLANT,6601 CANAL ST,COLUMBUS,MUSCOGEE,GA,31907,32.50844,-84.87807,2869,,,,,,325199,,,,,,1301150330936,DIMETHYLAMINE,000124403,NO,NON-PBT,NO,0,NO,R,Pounds,7,274,0,0,0,0,0,0,0,0,0,0,281,0,30,30,0,0,0,0,0,0,0,0,0,0,0,0,0,0,0,0,0,0,0,0,0,0,0,0,0,0,0,0,0,40,0,0,0,40,281,281,0,0,0,0,0,0,0,0,0,70,351,0,.77,KEMIRA INC,033870585
2001,31907CLLWY6603C,KEMIRA CHEMICALS INC - COLUMBUS PLANT,6601 CANAL ST,COLUMBUS,MUSCOGEE,GA,31907,32.50844,-84.87807,2869,,,,,,325199,,,,,,1301150331003,O-XYLENE,000095476,YES,NON-PBT,NO,0,NO,R,Pounds,5,9,0,0,0,0,0,0,0,0,0,0,14,0,2579,2579,0,0,0,0,0,0,0,0,0,0,0,0,0,0,0,0,0,0,0,0,0,0,0,0,48897,0,48897,0,0,0,0,0,0,0,14,14,0,0,0,0,0,48897,0,0,0,2579,51490,0,.15,KEMIRA INC,033870585
2001,31064GRGPCHIGHW,GEORGIA-PACIFIC MONTICELLO OPERATIONS,791 GEORGIA PACIFIC RD,MONTICELLO,JASPER,GA,31064,33.277996,-83.705189,2493,,,,,,321219,,,,,,1301150360218,FORMALDEHYDE,000050000,YES,NON-PBT,NO,0,YES,R,Pounds,0,14990,0,0,0,0,0,0,0,0,0,0,14990,0,0,0,0,0,0,0,0,0,0,0,0,0,0,0,0,0,0,0,0,0,0,0,0,0,0,0,0,0,0,0,0,0,0,0,0,0,14990,14990,0,0,0,0,0,0,0,0,0,0,14990,0,.93,KOCH INDUSTRIES INC,808133958
2001,30505NWHLL1750J,MILLIKEN & CO - NEW HOLLAND PL ANT,1750 JESSE JEWELL,GAINESVILLE,HALL,GA,30501,34.30944,-83.798754,2281,,,,,,313111,,,,,,1301150364471,POLYCYCLIC AROMATIC COMPOUNDS,N590,YES,PBT,NO,0,YES,R,Pounds,0,0,0,0,0,0,0,0,0,0,0,0,0,0,0,0,0,0,0,0,0,0,0,0,0,0,0,0,0,0,0,0,0,0,0,0,0,0,0,0,0,0,0,0,0,0,0,0,0,0,0,0,0,0,0,0,0,0,0,0,0,0,0,0,0,MILLIKEN & CO,002017440
2001,30720SHWNDHAMIL,"SHAW INDUSTRIES GROUP INC - 2,4,80",S HAMILTON ST,DALTON,WHITFIELD,GA,30720,34.728141,-84.968291,2273,,,,,,314110,,,,,,1301150369369,"HYDROCHLORIC ACID (1995 AND AFTER ""ACID AEROSOLS"" ONLY)",007647010,YES,NON-PBT,NO,0,NO,R,Pounds,0,35000,0,0,0,0,0,0,0,0,0,0,35000,0,0,0,0,0,0,0,0,0,0,0,0,0,0,0,0,0,0,0,0,0,0,0,0,0,0,0,0,0,0,0,0,0,0,0,0,0,35000,35000,0,0,0,0,0,0,0,0,0,0,35000,0,.89,BERKSHIRE HATHAWAY,045840055
2001,30208LCHMN2145E,LIOCHEM INC,2145 E PARK DR,CONYERS,ROCKDALE,GA,30013,33.66321,-83.97655,2893,2821,2891,2851,,,325910,,,,,,1301150393914,METHYL ETHYL KETONE,000078933,NO,NON-PBT,NO,0,NO,R,Pounds,250,250,0,0,0,0,0,0,0,0,0,0,500,0,0,0,0,0,0,0,0,0,0,0,0,0,0,0,0,0,0,0,0,0,0,0,0,0,0,0,0,4833,4833,0,0,0,0,0,0,0,500,372,0,0,0,0,0,4833,0,0,0,0,5205,0,1,NA,NA
2001,30027KPPRS1579K,ARCH WOOD PROTECTION INC,1579 KOPPERS RD,CONLEY,DEKALB,GA,30288,33.666667,-84.326389,2819,,,,,,325998,,,,,,1301150408627,LEAD,007439921,YES,PBT,YES,1,YES,R,Pounds,0,0,0,0,0,0,0,0,0,0,0,0,0,0,0,0,0,32,0,0,0,0,0,0,0,0,0,0,0,0,0,0,0,32,0,0,0,0,0,0,0,0,0,0,0,0,0,0,0,0,32,32,0,0,0,0,0,0,0,0,0,0,32,0,.89,ARCH CHEMICALS INC,603577578
2001,31015HLNCHFENNR,HELENA INDUSTRIES INC,434 FENN RD,CORDELE,CRISP,GA,31015,32.014426,-83.811165,2879,,,,,,325320,,,,,,1301150327981,DIMETHYLAMINE,000124403,NO,NON-PBT,NO,0,NO,R,Pounds,4,146,0,0,0,0,0,0,0,0,0,0,150,0,0,0,0,0,0,0,0,0,0,0,0,0,0,0,0,0,0,0,0,0,0,0,0,0,0,0,0,0,0,0,57,0,0,0,0,57,150,150,0,0,0,0,0,0,0,0,0,57,207,0,2.01,HELENA CHEMICAL CO,007036759
2001,31015HLNCHFENNR,HELENA INDUSTRIES INC,434 FENN RD,CORDELE,CRISP,GA,31015,32.014426,-83.811165,2879,,,,,,325320,,,,,,1301150328033,"1,2,4-TRIMETHYLBENZENE",000095636,NO,NON-PBT,NO,0,NO,R,Pounds,57,2,0,0,0,0,0,0,0,0,0,0,59,0,0,0,0,0,0,0,0,0,0,0,0,0,0,0,0,0,0,0,0,0,0,0,0,0,0,0,0,0,0,0,1,0,0,0,0,1,59,59,0,0,0,0,0,0,334,0,0,1,394,0,1.08,HELENA CHEMICAL CO,007036759
2001,30253CLB  261HW,ECOLAB INC,261 HWY 155 S,MC DONOUGH,HENRY,GA,30253,33.423789,-84.150254,2841,2842,,,,,325611,,,,,,1301150402461,NITRIC ACID,007697372,NO,NON-PBT,NO,0,NO,R,Pounds,750,0,0,0,0,0,0,0,0,0,0,0,750,0,0,0,0,0,0,0,0,0,0,0,0,0,0,0,0,0,0,0,0,0,0,0,0,0,0,0,0,0,0,0,0,750,21,0,0,771,750,533,0,0,0,0,0,0,0,0,2058,554,3145,0,1.1,ECOLAB INC,006154611
2001,30553CRRYN101JO,CARRY-ON TRAILER CORP,101 JOE HARVEY ST,LAVONIA,FRANKLIN,GA,30553,34.427876,-83.106598,3715,,,,,,336212,,,,,,1301150395477,MANGANESE,007439965,YES,NON-PBT,YES,1,NO,R,Pounds,0,0,0,0,0,0,0,0,0,0,0,0,0,0,0,0,0,0,0,0,0,0,0,0,0,0,0,0,0,0,0,0,0,0,0,0,0,0,268,268,0,0,0,0,0,0,0,0,0,0,0,0,0,0,0,0,0,0,0,268,0,0,268,0,1.2,CARRY-ON TRAILER CORP,NA
2001,31647MCRFLROUTE,BASF CORP,14284 HWY 41 N,SPARKS,COOK,GA,31647,31.16326,-83.44864,2879,,,,,,325320,,,,,,1301150429140,ACEPHATE,030560191,NO,NON-PBT,NO,0,NO,R,Pounds,213,0,0,0,0,0,0,0,0,0,0,0,213,0,0,0,0,0,0,0,0,0,0,0,0,0,0,0,0,0,0,0,0,0,0,0,0,0,0,0,0,0,0,0,7276,0,0,0,0,7276,213,213,0,0,0,0,0,0,0,0,0,7276,7489,0,1,BASF CORP,001307032
2001,31545MRCNWHWY34,AMERICAN WELDING & TANK LLC,111 TANK RD,JESUP,WAYNE,GA,31545,31.634722,-81.936111,3443,,,,,,332420,,,,,,1301150438618,MANGANESE,007439965,YES,NON-PBT,YES,1,NO,R,Pounds,750,5,0,0,0,0,0,0,0,0,0,0,755,0,0,0,0,0,0,0,0,0,10000,0,0,0,0,0,0,0,0,0,0,10000,0,0,0,0,0,0,0,0,0,0,0,0,0,0,0,0,10755,10536,0,0,0,0,0,0,0,0,0,0,10536,0,1.13,TAYLOR WHARTON INTERNATIONAL LLC,808654417
2001,30360DRVLL4026W,CHEVRON DORAVILLE TERMINAL,4026 WINTERS CHAPEL RD,DORAVILLE,DEKALB,GA,30360,33.90921,-84.272446,5171,,,,,,424710,,,,,,1301150448177,TOLUENE,000108883,YES,NON-PBT,NO,0,NO,R,Pounds,100,420,23,0,0,0,0,0,0,0,0,0,543,0,0,0,0,0,0,0,0,0,0,0,0,0,0,0,0,0,0,0,0,0,25,0,0,0,0,25,0,0,0,0,0,0,0,0,0,0,543,530,0,0,0,0,0,0,0,25,0,0,555,2,1,CHEVRON CORP,001382555
2001,31513KZCHMUSHWY,HEXION SPECIALTY CHEMICALS,1202 E PARKER ST,BAXLEY,APPLING,GA,31513,31.77354,-82.333816,2821,2861,,,,,325211,,,,,,1301150483687,ETHYLENE GLYCOL,000107211,YES,NON-PBT,NO,0,NO,R,Pounds,23,2,1207,0,0,0,0,0,0,0,0,0,1232,0,750,750,0,0,0,0,0,0,0,0,0,0,0,0,0,0,0,0,0,0,0,0,0,0,0,0,0,0,0,0,0,0,0,0,0,0,1232,1232,0,0,0,0,0,0,0,0,0,780,2012,0,.4,HEXION SPECIALTY CHEMICALS INC,001338797
2001,31206MCNKR4891M,GRAPHIC PACKAGING INTERNATIONAL INC,100 GRAPHIC PACKAGING INTL WAY,MACON,BIBB,GA,31206,32.771666,-83.629166,2631,2611,,,,,322130,,,,,,1301150491569,CHROMIUM COMPOUNDS(EXCEPT CHROMITE ORE MINED IN THE TRANSVAAL REGION),N090,YES,NON-PBT,YES,1,NO,R,Pounds,0,66,0,0,0,0,0,0,570,0,0,0,636,270,0,270,0,0,0,0,0,0,900,0,0,0,0,0,0,0,0,0,0,900,0,0,860,0,0,860,0,0,0,0,0,0,0,0,0,0,1806,2700,0,0,0,0,0,0,0,860,0,0,3560,0,1.08,GRAPHIC PACKAGING INTERNATIONAL INC,808839062
2001,31206MCNKR4891M,GRAPHIC PACKAGING INTERNATIONAL INC,100 GRAPHIC PACKAGING INTL WAY,MACON,BIBB,GA,31206,32.771666,-83.629166,2631,2611,,,,,322130,,,,,,1301150491660,"HYDROCHLORIC ACID (1995 AND AFTER ""ACID AEROSOLS"" ONLY)",007647010,YES,NON-PBT,NO,0,NO,R,Pounds,0,39000,0,0,0,0,0,0,0,0,0,0,39000,0,0,0,0,0,0,0,0,0,0,0,0,0,0,0,0,0,0,0,0,0,0,0,0,0,0,0,0,0,0,0,0,0,0,0,0,0,39000,39000,0,0,0,0,0,0,0,0,140000,0,179000,0,1.08,GRAPHIC PACKAGING INTERNATIONAL INC,808839062
2001,30120THRLLROUTE,TRINITY INDUSTRIES INC PLANT NO 493,190 OLD GRASSDALE RD,CARTERSVILLE,BARTOW,GA,30121,34.248423,-84.795209,3743,,,,,,336510,,,,,,1301150510257,MANGANESE COMPOUNDS,N450,YES,NON-PBT,YES,1,NO,R,Pounds,4460,0,0,0,0,0,0,0,0,0,0,0,4460,0,0,0,0,0,0,0,0,0,0,0,0,0,0,0,0,0,0,0,0,0,0,1720,0,0,0,1720,0,0,0,0,0,0,0,0,0,0,4460,4460,0,0,0,0,0,0,0,1720,0,0,6180,0,1,TRINITY INDUSTRIES INC,007324254
2001,30501MCKLN2095M,M-D BUILDING PRODUCTS- GEORGIA,2095 MEMORIAL PARK RD,GAINESVILLE,HALL,GA,30501,34.267524,-83.857052,3354,,,,,,332321,,,,,,1301150442111,NITRATE COMPOUNDS,N511,NO,NON-PBT,NO,0,NO,R,Pounds,0,0,0,0,0,0,0,0,0,0,0,0,0,0,47915,47915,0,0,0,0,0,0,0,0,0,0,0,0,0,0,0,0,0,0,0,0,0,0,0,0,0,0,0,0,0,0,0,0,0,0,0,47915,0,0,0,0,0,0,0,0,0,47915,95830,0,.8,MD BUILDING PRODUCTS,007188063
2001,30318FNLCH2970P,PERIMETER TERMINAL LLC,2970 PARROTT AVE,ATLANTA,FULTON,GA,30318,33.808505,-84.484632,5171,,,,,,424710,,,,,,1301150471466,ETHYLBENZENE,000100414,YES,NON-PBT,NO,0,NO,R,Pounds,87,101,0,0,0,0,0,0,0,0,0,0,188,0,0,0,0,0,0,0,0,0,0,0,0,0,0,0,0,0,0,0,0,0,0,0,0,0,0,0,0,0,0,0,0,0,0,41,0,41,188,230,0,0,0,0,0,0,0,0,0,41,271,5,.91,PERIMETER OIL CO,150983237
2001,31533TCMSH1545K,SOUTHWIRE CO DOUGLAS PLANT,1545 KELLOGG DR,DOUGLAS,COFFEE,GA,31535,31.487423,-82.873934,3519,3363,,,,,331000,,,,,,1301150474765,LEAD,007439921,YES,PBT,YES,1,YES,R,Pounds,0,0,0,0,0,0,0,0,0,0,0,0,0,4,0,4,0,0,0,0,0,0,6,0,0,0,0,0,0,0,0,6,0,12,0,0,0,0,0,0,0,0,0,0,0,0,0,0,0,0,16,10,0,0,0,0,0,0,0,0,13,9,32,0,1.76,SOUTHWIRE CO,003264421
2001,30117TRNTT141HA,TRENT TUBE,141 HAMMOND ST,CARROLLTON,CARROLL,GA,30117,33.588156,-85.095044,3317,,,,,,331210,,,,,,1301150514115,HYDROGEN FLUORIDE,007664393,YES,NON-PBT,NO,0,NO,R,Pounds,250,658,0,0,0,0,0,0,0,0,0,0,908,0,0,0,0,0,0,0,0,0,0,0,0,0,0,0,0,0,2944,0,0,2944,0,0,0,0,0,0,0,0,0,0,0,0,0,0,0,0,3852,864,0,0,0,0,0,0,0,0,61575,2944,65383,0,41.3,CRUCIBLE MATERIALS CORP,118508878
2001,31603RCHRDCLAYR,ADM,1841 CLAY RD,VALDOSTA,LOWNDES,GA,31601,30.8325,-83.248056,2074,2075,2079,,,,311225,,,,,,1301150420216,NICKEL,007440020,YES,NON-PBT,YES,1,YES,R,Pounds,0,0,0,0,0,0,0,0,0,0,0,0,0,0,0,0,0,0,0,0,0,0,0,0,0,0,0,0,0,0,0,0,0,0,0,78187,0,0,0,78187,0,0,0,0,0,0,0,0,0,0,0,0,0,0,0,0,0,0,0,78187,0,0,78187,0,1.13,ARCHER DANIELS MIDLAND CO,001307586
2001,30680LKRLCINDUS,RHODIA INC,577 BANKHEAD HWY,WINDER,BARROW,GA,30680,33.993333,-83.765,2843,,,,,,325613,,,,,,1301150452201,CHLOROACETIC ACID,000079118,YES,NON-PBT,NO,0,NO,R,Pounds,0,13,0,0,0,0,0,0,0,0,0,0,13,0,0,0,0,0,0,0,0,0,0,0,0,0,0,0,0,0,0,0,0,0,0,0,0,0,0,0,0,0,0,0,0,0,0,0,0,0,13,13,0,0,0,0,0,0,0,0,0,0,13,0,1.18,RHODIA INC,002959810
2001,30680LKRLCINDUS,RHODIA INC,577 BANKHEAD HWY,WINDER,BARROW,GA,30680,33.993333,-83.765,2843,,,,,,325613,,,,,,1301150452466,"1,4-DIOXANE",000123911,YES,NON-PBT,NO,0,YES,R,Pounds,0,2041,0,0,0,0,0,0,0,0,0,0,2041,0,2460,2460,0,0,0,0,0,0,0,0,0,0,0,0,0,0,0,0,0,0,0,0,0,0,0,0,7832,0,7832,0,0,0,0,0,0,0,2041,2041,0,0,0,0,0,0,0,0,13938,10292,26271,0,.7,RHODIA INC,002959810
2001,31323CHMTLCHEMI,CHEMTALL INC,CHEMICAL PLANT RD,RICEBORO,LIBERTY,GA,31323,31.743334,-81.433609,2821,,,,,,325998,,,,,,1301150481354,FORMALDEHYDE,000050000,YES,NON-PBT,NO,0,YES,R,Pounds,420,9,0,0,0,0,0,0,0,0,0,0,429,0,0,0,0,0,0,0,0,0,0,0,0,0,0,0,0,0,0,0,0,0,0,0,0,0,0,0,0,0,0,0,0,0,0,0,0,0,429,430,0,0,0,0,0,0,110,0,0,0,540,0,.66,SNF HOLDING CO,878930965
2001,31732GRTSTHIGHW,GEORGIA PACIFIC CEDAR SPRINGS LLC,HWY 273 W,CEDAR SPRINGS,EARLY,GA,39832,31.163889,-85.096111,2631,,,,,,322130,,,,,,1301150449460,ACETALDEHYDE,000075070,YES,NON-PBT,NO,0,YES,R,Pounds,10000,130000,1000,0,0,0,10,0,4,0,0,0,141014,0,0,0,0,0,0,0,0,0,0,0,0,0,0,0,0,0,0,0,0,0,0,0,0,0,0,0,0,0,0,0,0,0,0,0,0,0,141014,140000,0,0,0,0,470,0,0,0,5800,0,146270,0,1.01,KOCH INDUSTRIES INC,006944334
2001,31732GRTSTHIGHW,GEORGIA PACIFIC CEDAR SPRINGS LLC,HWY 273 W,CEDAR SPRINGS,EARLY,GA,39832,31.163889,-85.096111,2631,,,,,,322130,,,,,,1301150449561,"SULFURIC ACID (1994 AND AFTER ""ACID AEROSOLS"" ONLY)",007664939,NO,NON-PBT,NO,0,NO,R,Pounds,0,113000,0,0,0,0,0,0,0,0,0,0,113000,0,0,0,0,0,0,0,0,0,0,0,0,0,0,0,0,0,0,0,0,0,0,0,0,0,0,0,0,0,0,0,0,0,0,0,0,0,113000,113000,0,0,0,0,0,0,0,0,0,0,113000,0,1.01,KOCH INDUSTRIES INC,006944334
2001,31732GRTSTHIGHW,GEORGIA PACIFIC CEDAR SPRINGS LLC,HWY 273 W,CEDAR SPRINGS,EARLY,GA,39832,31.163889,-85.096111,2631,,,,,,322130,,,,,,1301150449609,"BENZO(G,H,I)PERYLENE",000191242,YES,PBT,NO,0,YES,R,Pounds,0,1.2,0,0,0,0,0,0,0,0,0,0,1.2,0,0,0,0,0,0,0,0,0,0,0,0,0,0,0,0,0,0,0,0,0,0,0,0,0,0,0,0,0,0,0,0,0,0,0,0,0,1.2,1.2,0,0,0,0,0,0,0,0,0,0,1.2,0,1.26,KOCH INDUSTRIES INC,006944334
2001,30903MNSNT1788L,MONSANTO AUGUSTA,1788 LOVERS LN,AUGUSTA,RICHMOND,GA,30903,33.420713,-81.944916,2836,,,,,,325414,,,,,,1301150453254,AMMONIA,007664417,NO,NON-PBT,NO,0,NO,R,Pounds,6,0,0,0,0,0,0,0,0,0,0,0,6,0,5280,5280,0,0,0,0,0,0,0,0,0,0,0,0,0,0,0,0,0,0,0,0,0,0,0,0,0,0,0,0,0,0,0,0,0,0,6,6,0,0,0,0,0,0,0,0,0,5280,5286,0,0,MONSANTO CO,168428287
2001,31704SDDMR814RA,US MARINE CORPS LOGISTICS BASE ALBANY,814 RADFORD BLVD.,ALBANY,DOUGHERTY,GA,31704,31.55721,-84.055,9711,,,,,,325000,,,,,,1301150472722,ETHYLENE GLYCOL,000107211,YES,NON-PBT,NO,0,NO,R,Pounds,34,0,0,0,0,0,0,0,0,0,0,0,34,0,48,48,0,0,0,0,0,0,0,0,0,0,0,0,0,0,0,0,0,0,0,0,20361,0,0,20361,0,0,0,0,0,0,0,0,0,0,34,34,0,0,0,0,0,0,0,20361,0,48,20443,0,1.1,US DEPARTMENT OF DEFENSE,NA
2001,30340MCLDR4064W,BP PRODUCTS NORTH AMERICA INC DORAVILLE 2 TERMINAL,4064 WINTERS CHAPEL RD,DORAVILLE,DEKALB,GA,30340,33.91049,-84.270582,5171,,,,,,424710,,,,,,1301150476733,TOLUENE,000108883,YES,NON-PBT,NO,0,NO,R,Pounds,110,120,0,0,0,0,0,0,0,0,0,0,230,0,0,0,0,0,0,0,0,0,0,0,0,0,0,0,0,0,0,0,0,0,0,0,390,0,0,390,0,0,0,0,0,0,0,0,0,0,230,220,0,0,0,0,0,0,0,390,0,0,610,0,2.54,BP PRODUCTS NORTH AMERICA INC,151317174
2001,30340MCLDR4064W,BP PRODUCTS NORTH AMERICA INC DORAVILLE 2 TERMINAL,4064 WINTERS CHAPEL RD,DORAVILLE,DEKALB,GA,30340,33.91049,-84.270582,5171,,,,,,424710,,,,,,1301150476796,LEAD COMPOUNDS,N420,YES,PBT,YES,1,NO,R,Pounds,0,0,0,0,0,0,0,0,0,0,0,0,0,0,0,0,0,0,0,0,0,0,0,0,0,0,0,0,0,0,0,0,0,0,0,0,0,0,0,0,0,0,0,0,0,0,0,0,0,0,0,0,0,0,0,0,0,0,0,0,0,0,0,0,0,BP PRODUCTS NORTH AMERICA INC,151317174
2001,31402NNCMPWESTL,INTERNATIONAL PAPER CO - SAVANNAH COMPLEX,1201 W LATHROP AVE,SAVANNAH,CHATHAM,GA,31415,32.097304,-81.121872,2611,2861,2821,2653,2631,2621,322100,,,,,,1301150508442,ARSENIC COMPOUNDS,N020,YES,NON-PBT,YES,1,NO,R,Pounds,0,160,0,0,0,0,0,0,0,0,0,0,160,0,0,0,0,0,0,0,0,0,1880,0,0,0,0,0,0,0,1040,0,0,2920,0,0,0,0,0,0,0,0,0,0,0,0,0,0,0,0,3080,3080,0,0,0,0,0,0,0,0,0,0,3080,0,.87,INTERNATIONAL PAPER CO,001316561
2001,31402NNCMPWESTL,INTERNATIONAL PAPER CO - SAVANNAH COMPLEX,1201 W LATHROP AVE,SAVANNAH,CHATHAM,GA,31415,32.097304,-81.121872,2611,2861,2821,2653,2631,2621,322100,,,,,,1301150508529,HYDROGEN FLUORIDE,007664393,YES,NON-PBT,NO,0,NO,R,Pounds,0,1200,0,0,0,0,0,0,0,0,0,0,1200,0,0,0,0,0,0,0,0,0,0,0,0,0,0,0,0,0,0,0,0,0,0,0,0,0,0,0,0,0,0,0,0,0,0,0,0,0,1200,1200,0,0,0,0,0,0,0,0,0,0,1200,0,.9,INTERNATIONAL PAPER CO,001316561
2001,30176SSCTDSTOFF,PREFERRED COMPOUNDING CORP,101 STOFFEL DR,TALLAPOOSA,HARALSON,GA,30176,33.745508,-85.346562,3069,,,,,,326299,,,,,,1301150505497,ZINC COMPOUNDS,N982,NO,NON-PBT,YES,1,NO,R,Pounds,0,0,0,0,0,0,3782,0,0,0,0,0,3782,0,0,0,0,0,0,0,0,0,3782,0,0,0,0,0,0,0,0,0,0,3782,0,0,0,0,0,0,0,0,0,0,0,0,0,0,0,0,7564,0,0,0,0,0,0,0,0,0,0,2600,2600,0,0,NA,NA
2001,31402NNCMPWESTL,INTERNATIONAL PAPER CO - SAVANNAH COMPLEX,1201 W LATHROP AVE,SAVANNAH,CHATHAM,GA,31415,32.097304,-81.121872,2611,2861,2821,2653,2631,2621,322121,,,,,,1301150508618,POLYCYCLIC AROMATIC COMPOUNDS,N590,YES,PBT,NO,0,YES,R,Pounds,0,181,14,0,0,0,0,0,0,0,0,0,195,0,0,0,0,0,0,0,0,0,6,0,0,0,0,0,0,0,0,0,0,6,0,0,0,0,0,0,0,0,0,0,0,0,0,0,0,0,201,201,0,0,0,0,0,0,0,0,0,0,201,0,.85,INTERNATIONAL PAPER CO,001316561
2001,31407STNCN1BONN,WEYERHAEUSER NR PORT WENTWORTH,1 BONNYBRIDGE RD,PORT WENTWORTH,CHATHAM,GA,31407,32.1576,-81.16258,2611,,,,,,322110,,,,,,1301150470502,DIOXIN AND DIOXIN-LIKE COMPOUNDS,N150,YES,DIOXIN,NO,0,NO,R,Grams,0,.6466,0,0,0,0,0,0,0,0,0,0,.6466,0,0,0,0,0,0,0,0,0,0,0,0,0,0,0,0,0,0,0,0,0,0,0,0,0,0,0,0,0,0,0,0,0,0,0,0,0,.6466,.6466,0,0,0,0,0,0,0,0,0,0,.6466,0,3.26,WEYERHAEUSER CO,001306992
2001,31407STNCN1BONN,WEYERHAEUSER NR PORT WENTWORTH,1 BONNYBRIDGE RD,PORT WENTWORTH,CHATHAM,GA,31407,32.1576,-81.16258,2611,,,,,,322110,,,,,,1301150470589,"HYDROCHLORIC ACID (1995 AND AFTER ""ACID AEROSOLS"" ONLY)",007647010,YES,NON-PBT,NO,0,NO,R,Pounds,0,30165,0,0,0,0,0,0,0,0,0,0,30165,0,0,0,0,0,0,0,0,0,0,0,0,0,0,0,0,0,0,0,0,0,0,0,0,0,0,0,0,0,0,0,0,0,0,0,0,0,30165,30165,0,0,0,0,0,0,0,0,0,0,30165,0,3.26,WEYERHAEUSER CO,001306992
2001,31093MRBLM1105N,MARBLE MASTERS OF MIDDLE GEORG IA,1105 N DAVIS DR,WARNER ROBINS,HOUSTON,GA,31093,32.6509,-83.612722,3088,,,,,,326199,,,,,,1301150499022,STYRENE,000100425,YES,NON-PBT,NO,0,YES,R,Pounds,8569,0,0,0,0,0,0,0,0,0,0,0,8569,0,0,0,0,0,0,0,0,0,0,0,0,0,0,0,0,0,0,0,0,0,0,0,0,0,0,0,0,0,0,0,0,0,0,0,0,0,8569,8569,0,0,0,0,0,0,0,0,0,0,8569,0,.82,NA,NA
2001,31702THPRCUSROU,THE PROCTER & GAMBLE PAPER PRODUCTS CO,512 LIBERTY EXPRESSWAY SE,ALBANY,DOUGHERTY,GA,31705,31.5526,-84.1149,2621,3842,,,,,322291,,,,,,1301150463103,DIOXIN AND DIOXIN-LIKE COMPOUNDS,N150,YES,DIOXIN,NO,0,NO,R,Grams,.0003636,.0168325,0,0,0,0,0,0,0,0,0,0,.0171961,0,.018177,.018177,0,0,0,0,0,0,.0251829,0,0,0,0,0,0,0,0,0,0,.0251829,0,0,0,0,0,0,0,0,0,0,0,0,0,0,0,0,.042379,.060556,0,0,0,0,0,0,0,0,0,0,.060556,0,.99,THE PROCTER & GAMBLE CO,002326827
2001,30752HDSNNUSHWY,IWG HIGH PERFORMANCE CONDUCTOR INC,13230 N MAIN ST,TRENTON,DADE,GA,30752,34.882933,-85.502944,3357,,,,,,332618,,,,,,1301150506234,COPPER,007440508,NO,NON-PBT,YES,1,NO,R,Pounds,14,0,0,0,0,0,0,0,0,0,0,0,14,0,0,0,0,0,5,0,0,0,0,0,0,0,0,0,0,0,0,0,0,5,0,0,0,0,0,0,0,0,0,0,0,0,0,0,0,0,19,19,0,0,0,0,0,0,0,0,0,0,19,0,1.2,INTERTNATIONAL WIRE GROUP,883498446
2001,30318WHTKR1557M,WHITAKER OIL CO,1557 MARIETTA RD,ATLANTA,FULTON,GA,30318,33.793914,-84.438016,5171,,,,,,424710,,,,,,1301150513099,ETHYLENE GLYCOL,000107211,YES,NON-PBT,NO,0,NO,R,Pounds,56,2,0,0,0,0,0,0,0,0,0,0,58,0,0,0,0,0,0,0,0,0,0,0,0,0,0,0,0,0,0,0,0,0,0,0,0,0,0,0,0,0,0,0,0,0,0,0,0,0,58,58,0,0,0,0,0,0,0,0,0,0,58,58,.6,WHITAKER OIL CO,003490422
2001,30318WHTKR1557M,WHITAKER OIL CO,1557 MARIETTA RD,ATLANTA,FULTON,GA,30318,33.793914,-84.438016,5171,,,,,,424710,,,,,,1301150513164,XYLENE (MIXED ISOMERS),001330207,YES,NON-PBT,NO,0,NO,R,Pounds,385,360,0,0,0,0,0,0,0,0,0,0,745,0,0,0,0,0,0,0,0,0,0,0,0,0,0,0,0,0,0,0,0,0,0,0,0,0,0,0,0,0,0,0,0,0,0,0,0,0,745,745,0,0,0,0,0,0,0,0,0,0,745,745,1.19,WHITAKER OIL CO,003490422
2001,30162BKRTCHWY41,BEKAERT STEEL,301 DARLINGTON DR,ROME,FLOYD,GA,30161,34.21936,-85.173638,3315,2296,,,,,331222,,,,,,1301150518506,COPPER COMPOUNDS,N100,NO,NON-PBT,YES,1,NO,R,Pounds,12,13,14,0,0,0,0,0,0,0,0,0,39,197,0,197,0,0,0,0,0,0,1386,0,0,0,0,0,0,0,76,0,0,1462,0,0,0,0,360,360,0,0,0,0,0,0,0,0,0,0,1698,14276,0,0,0,0,0,0,0,360,0,0,14636,0,.87,BEKAERT NV,051525129
2001,30809KRGRR4301E,WORLDCOLOR PRINTING (USA),4301 EVANS TO LOCKS RD,EVANS,COLUMBIA,GA,30809,33.539642,-82.119954,2754,,,,,,323111,,,,,,1301150522086,ZINC COMPOUNDS,N982,NO,NON-PBT,YES,1,NO,R,Pounds,100685,0,0,0,0,0,0,0,0,0,0,0,100685,0,0,0,0,0,0,0,0,0,0,0,0,0,0,0,0,0,0,0,0,0,0,0,0,0,100685,100685,0,0,0,0,0,0,0,0,0,0,100685,100518,0,0,0,0,0,0,0,167,0,0,100685,0,0,WORLD COLOR (USA) CORP,006265649
2001,30114MVNC I575A,CHART INC,1300 AIRPORT DR,BALL GROUND,CHEROKEE,GA,30107,34.298166,-84.421488,3443,,,,,,332420,,,,,,1301150434595,CHROMIUM,007440473,YES,NON-PBT,YES,1,YES,R,Pounds,250,250,0,0,0,0,0,0,0,0,0,0,500,0,0,0,0,5,0,0,0,0,0,0,0,0,0,0,0,0,0,0,0,5,0,0,0,0,39000,39000,0,0,0,0,0,0,0,0,0,0,505,50,0,0,0,0,0,0,0,39000,0,0,39050,0,.77,CHART INDUSTRIES INC,796093458
2001,30161MTLCN110MC,BALL CONTAINER LLC - ROME CAN PLANT,110 MCC DR,ROME,FLOYD,GA,301615484,34.293211,-85.113948,3411,,,,,,332431,,,,,,1301150493296,HYDROGEN FLUORIDE,007664393,YES,NON-PBT,NO,0,NO,R,Pounds,7,0,0,0,0,0,0,0,0,0,0,0,7,0,0,0,0,0,0,0,0,0,0,0,0,0,0,0,0,0,0,0,0,0,0,0,0,0,0,0,0,0,0,0,0,0,0,0,0,0,7,7,0,0,0,0,0,0,0,0,13270,0,13277,0,.97,BALL CORP,006419147
2001,31793TFTNLSOUTH,TIFTON ALUMINUM CO. INC,250 SOUTHWELL BLVD,TIFTON,TIFT,GA,31794,31.41706,-83.49427,3354,,,,,,331316,,,,,,1301150615868,MANGANESE,007439965,YES,NON-PBT,YES,1,NO,R,Pounds,0,250,0,0,0,0,0,0,0,0,0,0,250,0,0,0,0,0,0,0,0,0,2100,0,0,0,0,0,0,0,0,0,0,2100,0,620,0,0,0,620,0,0,0,0,0,0,0,0,0,0,2350,2121,0,0,0,0,0,0,0,620,0,0,2741,0,.98,ALCOA INC,001339472
2001,31604NKSPCHIGHW,PACKAGING CORP OF AMERICA,5495 LAKE PARK-CLYATTVILLE RD,CLYATTVILLE,LOWNDES,GA,31601,30.688865,-83.298539,2631,,,,,,322110,,,,,,1301150542924,NITRATE COMPOUNDS,N511,NO,NON-PBT,NO,0,NO,R,Pounds,0,0,12000,0,0,0,0,220,0,0,0,0,12220,0,0,0,0,0,0,0,0,0,0,0,0,0,0,0,0,0,0,0,0,0,0,0,0,0,0,0,0,0,0,0,0,0,0,0,0,0,12220,12000,0,0,0,0,0,0,0,0,0,0,12000,0,1,PACKAGING CORP OF AMERICA,060928640
2001,30913FDRLPHIGHW,INTERNATIONAL PAPER - AUGUSTA MILL,4278 MIKE PADGETT HWY,AUGUSTA,RICHMOND,GA,309069784,33.328222,-81.91175,2631,2611,,,,,322130,,,,,,1301150556381,CHLORINE,007782505,YES,NON-PBT,NO,0,NO,R,Pounds,5,250,0,0,0,0,0,0,0,0,0,0,255,0,0,0,0,0,0,0,0,0,0,0,0,0,0,0,0,0,0,0,0,0,0,0,0,0,0,0,0,0,0,0,0,0,0,0,0,0,255,160,0,0,0,0,0,0,0,0,23000,0,23160,0,.97,INTERNATIONAL PAPER CO,001316561
2001,30913FDRLPHIGHW,INTERNATIONAL PAPER - AUGUSTA MILL,4278 MIKE PADGETT HWY,AUGUSTA,RICHMOND,GA,309069784,33.328222,-81.91175,2631,2611,,,,,322130,,,,,,1301150556494,POLYCYCLIC AROMATIC COMPOUNDS,N590,YES,PBT,NO,0,YES,R,Pounds,0,272,32.1,0,0,0,27.2,0,14.7,0,0,0,346,0,0,0,0,0,0,0,0,0,0,0,0,0,0,0,0,0,0,0,0,0,0,0,0,0,0,0,0,0,0,0,0,0,0,0,0,0,346,345.9,0,0,0,0,0,0,0,0,0,0,345.9,0,.97,INTERNATIONAL PAPER CO,001316561
2001,30906NTLPP4206M,WEST FRASER AUGUSTA LUMBER MILL,4206 MIKE PADGETT HWY,AUGUSTA,RICHMOND,GA,30906,33.332086,-81.962471,2421,,,,,,321113,,,,,,1301150532594,METHANOL,000067561,YES,NON-PBT,NO,0,NO,R,Pounds,0,20400,0,0,0,0,0,0,0,0,0,0,20400,0,0,0,0,0,0,0,0,0,0,0,0,0,0,0,0,0,0,0,0,0,0,0,0,0,0,0,0,0,0,0,0,0,0,0,0,0,20400,20400,0,0,0,0,0,0,0,0,0,0,20400,0,.94,WEST FRASER TIMBER CO LTD,018342555
2001,31402GLFSTPOBOX,GULFSTREAM AEROSPACE CORP,500 GULFSTREAM RD,SAVANNAH,CHATHAM,GA,31407,32.14211,-81.192,3721,,,,,,336411,,,,,,1301150558409,TOLUENE,000108883,YES,NON-PBT,NO,0,NO,R,Pounds,3900,6600,0,0,0,0,0,0,0,0,0,0,10500,0,0,0,0,0,0,0,0,0,0,0,0,0,0,0,0,0,0,0,0,0,0,0,0,0,0,0,0,0,0,0,0,2100,0,0,0,2100,10500,10500,0,0,0,0,0,0,0,0,0,2100,12600,0,0,GENERAL DYNAMICS CORP,001381284
2001,31318NTRNT911OL,SIMPSON LUMBER CO MELDRIM OPERATIONS,911 OLD RIVER RD,MELDRIM,EFFINGHAM,GA,31318,32.150327,-81.388904,2421,,,,,,321113,,,,,,1301150534550,LEAD COMPOUNDS,N420,YES,PBT,YES,1,NO,R,Pounds,0,10.8,0,0,0,0,0,0,0,0,0,0,10.8,0,0,0,0,0,0,0,0,0,0,0,0,0,0,0,0,10,0,0,0,10,0,0,0,0,0,0,0,0,0,0,0,0,0,0,0,0,20.8,10,0,0,0,0,0,0,0,0,0,0,10,10,1.07,SIMPSON INVESTMENT CO,151464633
2001,31907THGLD6906D,HEXION SPECIALTY CHEMICALS,6906 DIXIE ST,COLUMBUS,MUSCOGEE,GA,31907,32.512269,-84.87251,2821,,,,,,325211,,,,,,1301150532303,ETHYLENE GLYCOL,000107211,YES,NON-PBT,NO,0,NO,R,Pounds,0,0,0,0,0,0,0,0,0,0,0,0,0,0,0,0,0,0,0,0,0,0,0,0,0,0,0,0,0,0,0,0,0,0,0,0,0,0,0,0,0,0,0,0,0,0,0,0,0,0,0,0,0,0,0,0,0,0,0,0,4,0,4,0,.48,HEXION SPECIALTY CHEMICALS INC,001338797
2001,31907THGLD6906D,HEXION SPECIALTY CHEMICALS,6906 DIXIE ST,COLUMBUS,MUSCOGEE,GA,31907,32.512269,-84.87251,2821,,,,,,325211,,,,,,1301150532354,STYRENE,000100425,YES,NON-PBT,NO,0,YES,R,Pounds,111,4,0,0,0,0,0,0,0,0,0,0,115,0,0,0,0,0,0,0,0,0,0,0,0,0,0,0,0,0,0,0,0,0,0,0,0,0,0,0,0,0,0,0,0,0,0,0,0,0,115,115,0,0,0,0,0,0,0,0,10,0,125,0,.48,HEXION SPECIALTY CHEMICALS INC,001338797
2001,30120TLNTCPEEPL,GERDAU AMERISTEEL CARTERSVILLE STEEL MILL,384 OLD GRASSDALE RD NE,CARTERSVILLE,BARTOW,GA,30121,34.242779,-84.797775,3312,,,,,,331111,,,,,,1301150536249,MANGANESE COMPOUNDS,N450,YES,NON-PBT,YES,1,NO,R,Pounds,1410,2635,0,0,0,0,0,0,0,0,0,0,4045,0,0,0,0,0,0,0,0,0,0,0,0,0,0,0,0,0,0,0,0,0,0,0,264579,0,0,264579,0,0,0,0,0,0,0,0,0,0,4045,4045,0,0,0,0,0,0,51531,264579,0,0,320155,0,.87,GERDAU GROUP,056000885
2001,30577PDMNTLIBER,PIEDMONT PAINTS & PRIMERS,LIBERTY HILL RD.,TOCCOA,STEPHENS,GA,30577,34.53687,-83.30061,2851,,,,,,325510,,,,,,1301150564363,METHANOL,000067561,YES,NON-PBT,NO,0,NO,R,Pounds,2041,227,0,0,0,0,0,0,0,0,0,0,2268,0,0,0,0,0,0,0,0,0,0,0,0,0,0,0,0,0,0,0,0,0,0,0,0,0,0,0,168,0,168,0,0,0,0,0,529,529,2268,2268,0,0,0,0,0,168,0,0,0,529,2965,0,1.05,NA,NA
2001,30107LNRDY1204A,LAFARGE ROAD MARKING,1260 AIRPORT DR.,BALL GROUND,CHEROKEE,GA,30107,34.29747,-84.42077,2851,,,,,,325510,,,,,,1301150600928,LEAD COMPOUNDS,N420,YES,PBT,YES,1,NO,R,Pounds,15,0,0,0,0,0,0,0,0,0,0,0,15,0,0,0,0,0,0,0,0,0,0,0,0,0,0,0,0,0,51,0,0,51,0,0,0,0,0,0,0,0,0,0,0,0,0,0,0,0,66,66,0,0,0,0,0,0,0,.39,0,0,66.39,0,1.14,LAFARGE ROAD MARKING,150585693
2001,30905HQSRMENVNA,US ARMY HQ SIGNAL CENTER FORT GORDON,ENV BRANCH (IMSE-GOR-PWE) BLDG 14600,FORT GORDON,RICHMOND,GA,309055040,33.39639,-82.16306,9711,,,,,,928110,,,,,,1301150744833,CHLORINE,007782505,YES,NON-PBT,NO,0,NO,R,Pounds,0,0,0,0,0,0,0,0,0,0,0,0,0,0,0,0,0,0,0,0,0,0,0,0,0,0,0,0,0,0,0,0,0,0,0,0,0,0,0,0,0,0,0,0,0,0,0,0,0,0,0,0,0,0,0,0,0,0,0,0,0,0,0,0,0,US DEPARTMENT OF DEFENSE,NA
2001,31404KMRNCEASTP,SAVANNAH ACID PLANT LLC,1 KERR MCGEE RD,SAVANNAH,CHATHAM,GA,31404,32.078889,-81.030556,2816,2819,,,,,325131,,,,,,1301150767539,"SULFURIC ACID (1994 AND AFTER ""ACID AEROSOLS"" ONLY)",007664939,NO,NON-PBT,NO,0,NO,R,Pounds,5000,116000,0,0,0,0,0,0,0,0,0,0,121000,0,0,0,0,0,0,0,0,0,0,0,0,0,0,0,0,0,0,0,0,0,0,0,0,0,0,0,0,0,0,0,0,0,0,0,0,0,121000,12100,0,0,0,0,0,0,0,0,2800000,0,2812100,0,.82,NA,NA
2001,30906NTRNT3005I,IFF AUGUSTA LTD,3005 INTERNATIONAL BLVD,AUGUSTA,RICHMOND,GA,30906,33.340556,-81.959167,2869,,,,,,325199,,,,,,1301150658250,SEC-BUTYL ALCOHOL,000078922,NO,NON-PBT,NO,0,NO,R,Pounds,171,27,0,0,0,0,0,0,0,0,0,0,198,0,1301,1301,0,0,0,0,0,0,0,0,0,0,0,0,0,0,0,0,0,0,0,0,0,0,0,0,0,82699,82699,0,0,0,0,0,0,0,198,198,0,0,0,0,0,82699,283637,0,24722,1301,392557,0,.59,INTERNATIONAL FLAVORS & FRAGRANCES INC,001534833
2001,30906NTRNT3005I,IFF AUGUSTA LTD,3005 INTERNATIONAL BLVD,AUGUSTA,RICHMOND,GA,30906,33.340556,-81.959167,2869,,,,,,325199,,,,,,1301150658300,CROTONALDEHYDE,004170303,NO,NON-PBT,NO,0,NO,R,Pounds,82,1,0,0,0,0,0,0,0,0,0,0,83,0,0,0,0,0,0,0,0,0,0,0,0,0,0,0,0,0,0,0,0,0,0,0,0,0,0,0,0,1424,1424,0,0,0,0,0,0,0,83,83,0,0,0,0,0,1424,0,0,0,0,1507,0,0,INTERNATIONAL FLAVORS & FRAGRANCES INC,001534833
2001,31064GRGPCHIGHW,GEORGIA-PACIFIC MONTICELLO OPERATIONS,791 GEORGIA PACIFIC RD,MONTICELLO,JASPER,GA,31064,33.277996,-83.705189,2436,,,,,,321212,,,,,,1301150720757,MANGANESE COMPOUNDS,N450,YES,NON-PBT,YES,1,NO,R,Pounds,0,1223,0,0,0,0,39576,0,0,0,0,0,40799,0,0,0,0,0,0,0,0,0,0,0,0,0,0,0,0,0,0,0,0,0,0,0,0,0,0,0,0,0,0,0,0,0,0,0,0,0,40799,40799,0,0,0,0,0,0,0,0,0,0,40799,0,.99,KOCH INDUSTRIES INC,808133958
2001,30240GTZCR1641F,FEDERAL-MOGUL CORP,1641 LUKKEN INDUSTRIAL DR W,LAGRANGE,TROUP,GA,30240,33.013114,-85.064459,3321,,,,,,331511,,,,,,1301150654984,ALUMINUM (FUME OR DUST),007429905,NO,NON-PBT,YES,4,NO,R,Pounds,0,42944,0,0,0,0,0,0,0,0,0,0,42944,0,0,0,0,0,0,0,0,0,0,0,0,0,0,0,0,0,0,0,0,0,0,0,0,0,0,0,0,0,0,0,0,0,0,0,0,0,42944,42944,0,0,0,0,0,0,0,0,0,0,42944,0,1.09,FEDERAL-MOGUL,878362367
2001,31021YKKPM100FI,YKK AP AMERICA INC,332 FIRETOWER RD,DUBLIN,LAURENS,GA,31021,32.507966,-82.947431,3354,,,,,,331316,,,,,,1301150643967,METHYL ISOBUTYL KETONE,000108101,YES,NON-PBT,NO,0,NO,R,Pounds,0,1927,0,0,0,0,0,0,0,0,0,0,1927,0,0,0,0,0,0,0,0,0,0,0,0,0,0,0,0,0,0,0,0,0,0,0,0,0,0,0,0,0,0,0,0,0,0,0,0,0,1927,1927,0,0,0,0,0,0,0,0,25604,0,27531,0,1.24,YKK CORP OF AMERICA INC,188955835
2001,31763WDGRN471US,WOODGRAIN MILLWORK INC,471 US HWY 82 W,LEESBURG,LEE,GA,31763,31.622695,-84.223677,2431,,,,,,321918,,,,,,1301150697706,TOLUENE,000108883,YES,NON-PBT,NO,0,NO,R,Pounds,45731,343,0,0,0,0,0,0,0,0,0,0,46074,0,0,0,0,0,0,0,0,0,0,0,0,0,0,0,0,0,0,0,0,0,0,0,0,0,0,0,7238,0,7238,0,0,0,0,0,0,0,46074,46074,0,0,0,0,0,7238,6536,0,0,0,59848,0,.97,WOODGRAIN MILLWORK INC,063334122
2001,31650LNGBR1000S,LANGBOARD MDF,548 LANGBOARD RD,WILLACOOCHEE,ATKINSON,GA,31650,31.318611,-83.038055,2493,,,,,,321219,,,,,,1301150697821,ACROLEIN,000107028,YES,NON-PBT,NO,0,NO,R,Pounds,0,44711,0,0,0,0,0,0,0,0,0,0,44711,0,44,44,0,0,0,0,0,0,0,0,0,0,0,0,0,0,0,0,0,0,0,0,0,0,0,0,0,0,0,0,0,0,0,0,0,0,44711,44711,0,0,0,0,0,0,0,0,0,44,44755,0,1.2,THE LANGDALE CO,178114666
2001,31908PRCSN8801M,PRECISION COMPONENTSINTERNATIO NAL INC,8801 MACON RD,COLUMBUS,MUSCOGEE,GA,31908,32.53944,-84.83505,3724,,,,,,336412,,,,,,1301150664579,LEAD COMPOUNDS,N420,YES,PBT,YES,1,NO,R,Pounds,10,19,0,0,0,0,0,0,0,0,0,0,29,0,0,0,0,0,133,0,0,0,0,0,0,0,0,0,0,0,57,0,0,190,0,444501,0,0,0,444501,0,0,0,0,0,0,0,0,0,0,219,29,0,0,0,0,0,0,0,444691,0,0,444720,0,1.25,BLADE TECHNOLOGY INTERNATIONAL,151062676
2001,31047FRTLY1200H,FRITO-LAY INC  - PERRY PLANT,1200 HWY 247 S,KATHLEEN,HOUSTON,GA,31047,32.480833,-83.612222,2096,,,,,,311919,,,,,,1301150732776,NITRIC ACID,007697372,NO,NON-PBT,NO,0,NO,R,Pounds,0,0,0,0,0,0,0,0,0,0,0,0,0,0,0,0,0,0,0,0,0,0,0,0,0,0,0,0,0,0,0,0,0,0,0,0,0,0,0,0,0,0,0,0,0,0,0,0,0,0,0,0,0,0,0,0,0,0,0,0,13000,0,13000,0,.99,PEPSICO INC,001287762
2001,31545TTRYNSAVAN,RAYONIER PERFORMANCE FIBERS JESUP MILL,4470 SAVANNAH HWY,JESUP,WAYNE,GA,31545,31.661111,-81.843889,2611,,,,,,322110,,,,,,1301150651180,CHLORINE,007782505,YES,NON-PBT,NO,0,NO,R,Pounds,220,0,0,0,0,0,0,0,0,0,0,0,220,0,0,0,0,0,0,0,0,0,0,0,0,0,0,0,0,0,0,0,0,0,0,0,0,0,0,0,0,0,0,0,0,0,0,0,0,0,220,200,0,0,0,0,0,0,0,0,150000,0,150200,20,.75,RAYONIER INC,001265263
2001,31643LNGBRHWY34,LANGBOARD OSB,HWY 84 W,QUITMAN,BROOKS,GA,31643,30.652872,-83.413351,2493,,,,,,321219,,,,,,1301150698241,ACROLEIN,000107028,YES,NON-PBT,NO,0,NO,R,Pounds,0,27166,0,0,0,0,0,0,0,0,0,0,27166,0,0,0,0,0,0,0,0,0,0,0,0,0,0,0,0,0,0,0,0,0,0,0,0,0,0,0,0,0,0,0,0,0,0,0,0,0,27166,27166,0,0,0,0,0,0,0,0,0,0,27166,0,1,THE LANGDALE CO,178114666
2001,31524STRSRFLETC,US DHS FLETC GLYNCO GA,1131 CHAPEL CROSSING RD EVS B-681,GLYNCO,GLYNN,GA,31524,31.24028,-81.47417,9229,,,,,,922190,,,,,,1301150626149,LEAD COMPOUNDS,N420,YES,PBT,YES,1,NO,R,Pounds,63.7,0,0,0,0,0,0,0,0,0,0,0,63.7,0,0,0,0,0,0,0,0,0,0,0,0,0,0,0,0,0,0,0,0,0,0,0,0,0,0,0,0,0,0,0,0,0,0,0,0,0,63.7,63.7,0,0,0,0,0,0,0,0,0,0,63.7,0,0,US DEPARTMENT OF HOMELAND SECURITY,NA
2001,30263WLLML25BON,BON L MANUFACTURING CO,25 BONNELL ST,NEWNAN,COWETA,GA,30263,33.38187,-84.81492,3354,3446,3341,3471,,,331316,,,,,,1301150729438,"1,2,4-TRIMETHYLBENZENE",000095636,NO,NON-PBT,NO,0,NO,R,Pounds,0,40000,0,0,0,0,0,0,0,0,0,0,40000,0,0,0,0,0,0,0,0,0,0,0,0,0,0,0,0,0,0,0,250,250,480,0,0,0,0,480,0,4200,4200,0,0,0,0,0,0,0,40250,40000,0,0,0,0,0,4200,0,480,0,0,44680,0,.94,TREDEGAR CORP,555463785
2001,30707RCHHLROUTE,DOW REICHHOLD KENSINGTON PLANT,300 HADGRAFT INDUSTRIAL BLVD,CHICKAMAUGA,WALKER,GA,30707,34.772028,-85.368222,2821,,,,,,325212,,,,,,1301150676346,STYRENE,000100425,YES,NON-PBT,NO,0,YES,R,Pounds,750,4374,5,0,0,0,0,0,0,0,0,0,5129,0,0,0,0,0,0,0,0,0,0,0,0,0,0,0,0,0,0,0,0,0,0,0,0,0,0,0,0,0,0,0,0,0,750,0,0,750,5129,5717,0,0,0,0,0,0,0,0,432773,716,439206,0,.84,DOW REICHHOLD SPECIALTY LATEX LLC,103199936
2001,30288KCHMT1577K,KOCH MATERIALS CO CONLEY,1577 KOPPERS RD,CONLEY,DEKALB,GA,30288,33.662777,-84.327222,2951,,,,,,324121,,,,,,1301150652156,POLYCYCLIC AROMATIC COMPOUNDS,N590,YES,PBT,NO,0,YES,R,Pounds,.06,.01,0,0,0,0,0,0,0,0,0,0,.07,0,0,0,0,0,0,0,0,0,7.301,0,0,0,0,0,0,0,0,0,0,7.301,0,0,0,0,0,0,0,0,0,0,0,0,0,0,0,0,7.371,7.3,0,0,0,0,0,0,0,0,0,0,7.3,0,0,KOCH INDUSTRIES INC,006944334
2001,30066VNNGS1650C,KEMIRA CHEMICALS INC.,1654 W OAK DR,MARIETTA,COBB,GA,30062,33.991485,-84.528197,2819,2879,2869,,,,325188,,,,,,1301150697050,"DAZOMET, SODIUM SALT",053404607,NO,NON-PBT,NO,0,NO,R,Pounds,0,0,0,0,0,0,0,0,0,0,0,0,0,0,5,5,0,0,0,0,0,0,0,0,0,0,0,0,0,0,0,0,0,0,0,0,0,0,0,0,0,0,0,0,0,5,0,0,0,5,0,4,0,0,0,0,0,0,0,0,38,30,72,0,.84,KEMIRA CHEMICALS INC,033870585
2001,30903THNTR1750L,NUTRASWEET CO,1762 LOVERS LN,AUGUSTA,RICHMOND,GA,30901,33.392583,-81.943139,2869,,,,,,325199,,,,,,1301150698710,AMMONIA,007664417,NO,NON-PBT,NO,0,NO,R,Pounds,100,330,0,0,0,0,0,0,0,0,0,0,430,0,20000,20000,0,0,0,0,0,0,0,0,0,0,0,0,0,0,0,0,0,0,0,0,0,0,0,0,0,0,0,0,0,0,0,0,0,0,430,430,0,0,0,0,0,0,0,0,920,20000,21350,0,1.86,J W CHILDS EQUITY PARTNERS II LP,NA
2001,31558GLMNP1000O,DURANGO-GEORGIA PAPER CO.,1000 OSBORNE ST.,SAINT MARYS,CAMDEN,GA,31558,30.73468,-81.54529,2611,2621,2631,,,,322100,,,,,,1301150710162,NITRATE COMPOUNDS,N511,NO,NON-PBT,NO,0,NO,R,Pounds,0,0,42900,0,0,0,0,0,0,0,0,0,42900,0,0,0,0,0,0,0,0,0,0,0,0,0,0,0,0,0,0,0,0,0,0,0,0,0,0,0,0,0,0,0,0,0,0,0,0,0,42900,42900,0,0,0,0,0,0,0,0,0,0,42900,0,.22,DURANGO PAPER CO,001288059
2001,31558GLMNP1000O,DURANGO-GEORGIA PAPER CO.,1000 OSBORNE ST.,SAINT MARYS,CAMDEN,GA,31558,30.73468,-81.54529,2611,2621,2631,,,,322100,,,,,,1301150710236,MERCURY COMPOUNDS,N458,YES,PBT,YES,1,NO,R,Pounds,0,32,1.03,0,0,0,0,0,0,0,0,0,33.03,0,0,0,0,0,0,0,0,0,6.86,0,0,0,0,0,0,0,0,0,0,6.86,0,0,0,0,0,0,0,0,0,0,0,0,0,0,0,0,39.89,31,0,0,0,0,0,0,0,0,0,6.86,37.86,0,.8,DURANGO PAPER CO,001288059
2001,30349STRPC45385,STAR PACKAGING CORP.,453 85 CIRCLE,COLLEGE PARK,CLAYTON,GA,30349,33.622222,-84.403611,2673,,,,,,326111,,,,,,1301150718322,METHYL ETHYL KETONE,000078933,NO,NON-PBT,NO,0,NO,R,Pounds,250,312,0,0,0,0,0,0,0,0,0,0,562,0,0,0,0,0,0,0,0,0,0,0,0,0,0,0,0,0,0,0,0,0,0,0,0,0,0,0,960,0,960,0,0,0,0,0,0,0,562,1272,0,0,0,0,0,960,0,0,29904,0,32136,0,1.08,NA,NA
2001,31206RMSTR4520B,ARMSTRONG WORLD INDUSTRIES INC,4520 BROADWAY,MACON,BIBB,GA,31213,32.77462,-83.6517,3296,,,,,,327993,,,,,,1301151002134,SODIUM DIMETHYLDITHIOCARBAMATE,000128041,NO,NON-PBT,NO,0,NO,A,Pounds,0,0,0,0,0,0,0,0,0,0,0,0,0,0,0,0,0,0,0,0,0,0,0,0,0,0,0,0,0,0,0,0,0,0,0,0,0,0,0,0,0,0,0,0,0,0,0,0,0,0,0,0,0,0,0,0,0,0,0,0,0,0,0,0,,ARMSTRONG WORLD INDUSTRIES INC,001307792
2001,30680STPNCOLDHI,STEPAN CO,951 BANKHEAD HWY,WINDER,BARROW,GA,30680,33.997133,-83.788275,2843,,,,,,325613,,,,,,1301151036858,DIETHYL SULFATE,000064675,YES,NON-PBT,NO,0,YES,A,Pounds,0,0,0,0,0,0,0,0,0,0,0,0,0,0,0,0,0,0,0,0,0,0,0,0,0,0,0,0,0,0,0,0,0,0,0,0,0,0,0,0,0,0,0,0,0,0,0,0,0,0,0,0,0,0,0,0,0,0,0,0,0,0,0,0,,STEPAN CO,005130182
2001,30105SSTRY285SI,SI STOREY LUMBER CO INC,285 SIKE STOREY RD,ARMUCHEE,FLOYD,GA,301052021,34.409643,-85.226864,2491,,,,,,321114,,,,,,1301151041326,CHROMIUM COMPOUNDS(EXCEPT CHROMITE ORE MINED IN THE TRANSVAAL REGION),N090,YES,NON-PBT,YES,1,NO,A,Pounds,0,0,0,0,0,0,0,0,0,0,0,0,0,0,0,0,0,0,0,0,0,0,0,0,0,0,0,0,0,0,0,0,0,0,0,0,0,0,0,0,0,0,0,0,0,0,0,0,0,0,0,0,0,0,0,0,0,0,0,0,0,0,0,0,,NA,NA
2001,31792CVSSTPOBOX,CIVES STEEL CO - SOUTHERN DIV,102 AIRPORT RD,THOMASVILLE,THOMAS,GA,31757,30.89944,-83.893159,3441,,,,,,332312,,,,,,1301155010388,ZINC (FUME OR DUST),007440666,NO,NON-PBT,YES,4,NO,R,Pounds,0,0,0,0,0,0,0,0,0,0,0,0,0,0,0,0,0,0,0,0,0,0,250,0,0,0,0,0,0,0,0,0,0,250,0,0,0,0,0,0,0,0,0,0,0,0,0,0,0,0,250,50,0,0,0,0,0,0,0,0,0,0,50,0,1.24,CIVES CORP,046545398
2001,30316DRNNC1415C,DURON ATLANTA,1415 CONSTITUTION RD SE,ATLANTA,DEKALB,GA,303164605,33.688333,-84.336139,2851,,,,,,325510,,,,,,1301151014673,VINYL ACETATE,000108054,YES,NON-PBT,NO,0,YES,A,Pounds,0,0,0,0,0,0,0,0,0,0,0,0,0,0,0,0,0,0,0,0,0,0,0,0,0,0,0,0,0,0,0,0,0,0,0,0,0,0,0,0,0,0,0,0,0,0,0,0,0,0,0,0,0,0,0,0,0,0,0,0,0,0,0,0,,THE SHERWIN WILLIAMS CO,004206397
2001,30318NGRNT2160C,NIAGARA NATIONAL LLC,2160-C HILLS AVE NW,ATLANTA,FULTON,GA,30318,33.817942,-84.433582,2841,3589,,,,,325611,,,,,,1301151022997,DICHLOROMETHANE,000075092,YES,NON-PBT,NO,0,YES,A,Pounds,0,0,0,0,0,0,0,0,0,0,0,0,0,0,0,0,0,0,0,0,0,0,0,0,0,0,0,0,0,0,0,0,0,0,0,0,0,0,0,0,0,0,0,0,0,0,0,0,0,0,0,0,0,0,0,0,0,0,0,0,0,0,0,0,,NIAGARA NATIONAL LLC,040677957
2001,31533FFNCC1415W,OPTIMA CHEMICAL GROUP LLC,200 WILLACOOCHEE HWY,DOUGLAS,COFFEE,GA,31535,31.486957,-82.860586,2869,,,,,,325199,,,,,,1301151024573,SODIUM NITRITE,007632000,NO,NON-PBT,YES,2,NO,A,Pounds,0,0,0,0,0,0,0,0,0,0,0,0,0,0,0,0,0,0,0,0,0,0,0,0,0,0,0,0,0,0,0,0,0,0,0,0,0,0,0,0,0,0,0,0,0,0,0,0,0,0,0,0,0,0,0,0,0,0,0,0,0,0,0,0,,NA,NA
2001,30318ZPMNF1310S,ZEP INC,1310 SEABOARD INDUSTRIAL BLVD,ATLANTA,FULTON,GA,30318,33.808056,-84.428333,2841,2844,2843,2842,,,325611,,,,,,1301151028735,TETRACHLOROETHYLENE,000127184,YES,NON-PBT,NO,0,YES,A,Pounds,0,0,0,0,0,0,0,0,0,0,0,0,0,0,0,0,0,0,0,0,0,0,0,0,0,0,0,0,0,0,0,0,0,0,0,0,0,0,0,0,0,0,0,0,0,0,0,0,0,0,0,0,0,0,0,0,0,0,0,0,0,0,0,0,,ZEP INC,NA
2001,30318ZPMNF1310S,ZEP INC,1310 SEABOARD INDUSTRIAL BLVD,ATLANTA,FULTON,GA,30318,33.808056,-84.428333,2841,2844,2843,2842,,,325611,,,,,,1301151028798,DIETHANOLAMINE,000111422,YES,NON-PBT,NO,0,NO,A,Pounds,0,0,0,0,0,0,0,0,0,0,0,0,0,0,0,0,0,0,0,0,0,0,0,0,0,0,0,0,0,0,0,0,0,0,0,0,0,0,0,0,0,0,0,0,0,0,0,0,0,0,0,0,0,0,0,0,0,0,0,0,0,0,0,0,,ZEP INC,NA
2001,30062MRPNC990IN,AMREP INC,990 INDUSTRIAL PARK DR,MARIETTA,COBB,GA,300620000,33.975724,-84.539783,2841,2891,2879,2842,,,325611,,,,,,1301151032950,"1,1-DICHLORO-1-FLUOROETHANE",001717006,NO,NON-PBT,NO,0,NO,A,Pounds,0,0,0,0,0,0,0,0,0,0,0,0,0,0,0,0,0,0,0,0,0,0,0,0,0,0,0,0,0,0,0,0,0,0,0,0,0,0,0,0,0,0,0,0,0,0,0,0,0,0,0,0,0,0,0,0,0,0,0,0,0,0,0,0,,AMREP INC,030471374
2001,30721MRCNM1202D,PEACH STATE LABS INC DALTON,1202 DOZIER ST,DALTON,WHITFIELD,GA,30721,34.76967,-84.949882,2843,,,,,,325613,,,,,,1301151033089,CERTAIN GLYCOL ETHERS,N230,YES,NON-PBT,NO,0,NO,A,Pounds,0,0,0,0,0,0,0,0,0,0,0,0,0,0,0,0,0,0,0,0,0,0,0,0,0,0,0,0,0,0,0,0,0,0,0,0,0,0,0,0,0,0,0,0,0,0,0,0,0,0,0,0,0,0,0,0,0,0,0,0,0,0,0,0,,PEACH STATE LABORATORIES INC,184722056
2001,30344WLLMC2335L,WILLIAM C MEREDITH CO INC,2335 LAWRENCE ST,EAST POINT,FULTON,GA,30344,33.690724,-84.440188,2491,,,,,,321114,,,,,,1301151026248,PENTACHLOROPHENOL,000087865,YES,NON-PBT,NO,0,YES,A,Pounds,0,0,0,0,0,0,0,0,0,0,0,0,0,0,0,0,0,0,0,0,0,0,0,0,0,0,0,0,0,0,0,0,0,0,0,0,0,0,0,0,0,0,0,0,0,0,0,0,0,0,0,0,0,0,0,0,0,0,0,0,0,0,0,0,,NA,NA
2001,31794BLDCRMAGNO,BOLD FORMULATORS TIFTON PLANT,7745 MAGNOLIA INDUSTRIAL BLVD,TIFTON,TIFT,GA,31794,31.410395,-83.496459,2879,,,,,,325320,,,,,,1301151043054,ORYZALIN,019044883,NO,NON-PBT,NO,0,NO,A,Pounds,0,0,0,0,0,0,0,0,0,0,0,0,0,0,0,0,0,0,0,0,0,0,0,0,0,0,0,0,0,0,0,0,0,0,0,0,0,0,0,0,0,0,0,0,0,0,0,0,0,0,0,0,0,0,0,0,0,0,0,0,0,0,0,0,,NA,NA
2001,30906NTRNT3005I,IFF AUGUSTA LTD,3005 INTERNATIONAL BLVD,AUGUSTA,RICHMOND,GA,30906,33.340556,-81.959167,2869,,,,,,325199,,,,,,1301151090279,CERTAIN GLYCOL ETHERS,N230,YES,NON-PBT,NO,0,NO,A,Pounds,0,0,0,0,0,0,0,0,0,0,0,0,0,0,0,0,0,0,0,0,0,0,0,0,0,0,0,0,0,0,0,0,0,0,0,0,0,0,0,0,0,0,0,0,0,0,0,0,0,0,0,0,0,0,0,0,0,0,0,0,0,0,0,0,,INTERNATIONAL FLAVORS & FRAGRANCES INC,001534833
2001,30362CHMCN1ALCH,UNIVAR USA INC DORAVILLE FACILITY,1 ALCHEMY PL,DORAVILLE,GWINNETT,GA,30362,33.9225,-84.259166,5169,,,,,,424690,,,,,,1301151045679,ETHYLBENZENE,000100414,YES,NON-PBT,NO,0,NO,A,Pounds,0,0,0,0,0,0,0,0,0,0,0,0,0,0,0,0,0,0,0,0,0,0,0,0,0,0,0,0,0,0,0,0,0,0,0,0,0,0,0,0,0,0,0,0,0,0,0,0,0,0,0,0,0,0,0,0,0,0,0,0,0,0,0,0,,UNIVAR USA INC,NA
2001,30362CHMCN1ALCH,UNIVAR USA INC DORAVILLE FACILITY,1 ALCHEMY PL,DORAVILLE,GWINNETT,GA,30362,33.9225,-84.259166,5169,,,,,,424690,,,,,,1301151045717,ETHYLENE GLYCOL,000107211,YES,NON-PBT,NO,0,NO,A,Pounds,0,0,0,0,0,0,0,0,0,0,0,0,0,0,0,0,0,0,0,0,0,0,0,0,0,0,0,0,0,0,0,0,0,0,0,0,0,0,0,0,0,0,0,0,0,0,0,0,0,0,0,0,0,0,0,0,0,0,0,0,0,0,0,0,,UNIVAR USA INC,NA
2001,31774BLDCRHWY12,BOLD FORMULATORS OCILLA PLANT,364 FITZGERALD HWY,OCILLA,IRWIN,GA,31774,31.625779,-83.249685,2879,,,,,,325320,,,,,,1301151043104,DICOFOL,000115322,NO,NON-PBT,NO,0,NO,A,Pounds,0,0,0,0,0,0,0,0,0,0,0,0,0,0,0,0,0,0,0,0,0,0,0,0,0,0,0,0,0,0,0,0,0,0,0,0,0,0,0,0,0,0,0,0,0,0,0,0,0,0,0,0,0,0,0,0,0,0,0,0,0,0,0,0,,NA,NA
2001,31774BLDCRHWY12,BOLD FORMULATORS OCILLA PLANT,364 FITZGERALD HWY,OCILLA,IRWIN,GA,31774,31.625779,-83.249685,2879,,,,,,325320,,,,,,1301151043142,QUINTOZENE,000082688,YES,NON-PBT,NO,0,NO,A,Pounds,0,0,0,0,0,0,0,0,0,0,0,0,0,0,0,0,0,0,0,0,0,0,0,0,0,0,0,0,0,0,0,0,0,0,0,0,0,0,0,0,0,0,0,0,0,0,0,0,0,0,0,0,0,0,0,0,0,0,0,0,0,0,0,0,,NA,NA
2001,30705SHWND616DU,SHAW INDUSTRIES GROUP INC PLANT WE,616 DUVALL RD,CHATSWORTH,MURRAY,GA,30705,34.787428,-84.790238,2273,2281,,,,,314110,,,,,,1301151061417,DIISOCYANATES,N120,YES,NON-PBT,NO,0,NO,A,Pounds,0,0,0,0,0,0,0,0,0,0,0,0,0,0,0,0,0,0,0,0,0,0,0,0,0,0,0,0,0,0,0,0,0,0,0,0,0,0,0,0,0,0,0,0,0,0,0,0,0,0,0,0,0,0,0,0,0,0,0,0,0,0,0,0,,SHAW INDUSTRIES GROUP INC,045840055
2001,30060NRTHC1525C,KEMIRA CHEMICALS INC,1525 CHURCH ST EXTENSION,MARIETTA,COBB,GA,30060,33.978217,-84.556542,2899,2843,,,,,325998,,,,,,1301151062167,BENZOYL PEROXIDE,000094360,NO,NON-PBT,NO,0,NO,A,Pounds,0,0,0,0,0,0,0,0,0,0,0,0,0,0,0,0,0,0,0,0,0,0,0,0,0,0,0,0,0,0,0,0,0,0,0,0,0,0,0,0,0,0,0,0,0,0,0,0,0,0,0,0,0,0,0,0,0,0,0,0,0,0,0,0,,KEMIRA INC,033870585
2001,30060NRTHC1525C,KEMIRA CHEMICALS INC,1525 CHURCH ST EXTENSION,MARIETTA,COBB,GA,30060,33.978217,-84.556542,2899,2843,,,,,325998,,,,,,1301151062217,FORMALDEHYDE,000050000,YES,NON-PBT,NO,0,YES,A,Pounds,0,0,0,0,0,0,0,0,0,0,0,0,0,0,0,0,0,0,0,0,0,0,0,0,0,0,0,0,0,0,0,0,0,0,0,0,0,0,0,0,0,0,0,0,0,0,0,0,0,0,0,0,0,0,0,0,0,0,0,0,0,0,0,0,,KEMIRA INC,033870585
2001,31792SFLTR1828M,SIEMENS WATER TECHNOLOGIES CORP,1828 METCALF AVE,THOMASVILLE,THOMAS,GA,31792,30.83308,-83.95178,3589,,,,,,333319,,,,,,1301151063144,MANGANESE,007439965,YES,NON-PBT,YES,1,NO,A,Pounds,0,0,0,0,0,0,0,0,0,0,0,0,0,0,0,0,0,0,0,0,0,0,0,0,0,0,0,0,0,0,0,0,0,0,0,0,0,0,0,0,0,0,0,0,0,0,0,0,0,0,0,0,0,0,0,0,0,0,0,0,0,0,0,0,,SIEMENS AG,NA
2001,31331SMRNCHWY57,US MARINE CORPS MCAS BEAUFORT TOWNSEND BOMBING RANGE,HWY 57 PO BOX 220,TOWNSEND,MCINTOSH,GA,31331,31.417117,-81.461752,9711,,,,,,928110,,,,,,1301150753008,LEAD COMPOUNDS,N420,YES,PBT,YES,1,NO,R,Pounds,25,0,0,0,0,0,0,0,0,0,0,1589,1614,0,0,0,0,0,0,0,0,0,0,0,0,0,0,0,0,0,0,0,0,0,0,0,0,0,0,0,0,0,0,0,0,0,0,0,0,0,1614,1614,0,0,0,0,0,0,0,0,0,0,1614,0,1,US DEPARTMENT OF DEFENSE,NA
2001,31206CHRKB3250W,CHEROKEE BRICK & TILE CO,3250 WATERVILLE RD,MACON,BIBB,GA,312061246,32.805324,-83.636291,3251,,,,,,327121,,,,,,1301151020789,ETHYLENE GLYCOL,000107211,YES,NON-PBT,NO,0,NO,A,Pounds,0,0,0,0,0,0,0,0,0,0,0,0,0,0,0,0,0,0,0,0,0,0,0,0,0,0,0,0,0,0,0,0,0,0,0,0,0,0,0,0,0,0,0,0,0,0,0,0,0,0,0,0,0,0,0,0,0,0,0,0,0,0,0,0,,NA,NA
2001,30427DRMTCPOBOX,DURAMATIC PRODUCTS,799 W BARNARD ST,GLENNVILLE,TATTNALL,GA,30427,32.009131,-81.97907,3524,,,,,,333112,,,,,,1301150719110,"HYDROCHLORIC ACID (1995 AND AFTER ""ACID AEROSOLS"" ONLY)",007647010,YES,NON-PBT,NO,0,NO,R,Pounds,0,0,0,0,0,0,0,0,0,0,0,0,0,0,0,0,0,0,0,0,0,0,0,0,0,0,0,0,0,0,0,0,0,0,0,0,0,0,0,0,0,0,0,0,0,0,0,0,0,0,0,0,0,0,0,0,0,0,0,0,0,0,0,0,.79,ROTARY CORP,049983737
2001,30701THGDY1601H,OMNOVA SOLUTIONS INC,"1601 HWY 41, SW",CALHOUN,GORDON,GA,307013651,34.464722,-84.935,2821,,,,,,325211,,,,,,1301151018948,ETHYLENE GLYCOL,000107211,YES,NON-PBT,NO,0,NO,A,Pounds,0,0,0,0,0,0,0,0,0,0,0,0,0,0,0,0,0,0,0,0,0,0,0,0,0,0,0,0,0,0,0,0,0,0,0,0,0,0,0,0,0,0,0,0,0,0,0,0,0,0,0,0,0,0,0,0,0,0,0,0,0,0,0,0,,OMNOVA SOLUTIONS INC,088498618
2001,31408MCLCMFOUND,NUSTAR ASPHALT REFINING LLC,7 FOUNDATION DR,SAVANNAH,CHATHAM,GA,31408,32.109658,-81.127796,2911,,,,,,324110,,,,,,1301151018999,CUMENE,000098828,YES,NON-PBT,NO,0,NO,A,Pounds,0,0,0,0,0,0,0,0,0,0,0,0,0,0,0,0,0,0,0,0,0,0,0,0,0,0,0,0,0,0,0,0,0,0,0,0,0,0,0,0,0,0,0,0,0,0,0,0,0,0,0,0,0,0,0,0,0,0,0,0,0,0,0,0,,NUSTAR ENERGY LP,848110701
2001,30824VGRTN148VI,VIGORTONE AG PRODUCTS INC.,148 VIGORTONE DR. N.W.,THOMSON,MCDUFFIE,GA,30824,33.454032,-82.532027,2048,,,,,,311000,,,,,,1301151019128,MANGANESE COMPOUNDS,N450,YES,NON-PBT,YES,1,NO,A,Pounds,0,0,0,0,0,0,0,0,0,0,0,0,0,0,0,0,0,0,0,0,0,0,0,0,0,0,0,0,0,0,0,0,0,0,0,0,0,0,0,0,0,0,0,0,0,0,0,0,0,0,0,0,0,0,0,0,0,0,0,0,0,0,0,0,,NA,NA
2001,30291NVRSL6843G,UNIVERSAL FOREST PRODUCTS EASTERN DIV INC,"5200 HWY 138, SUITE 100",UNION CITY,FULTON,GA,302910329,33.571172,-84.558187,2491,,,,,,321114,,,,,,1301151030614,ARSENIC COMPOUNDS,N020,YES,NON-PBT,YES,1,NO,A,Pounds,0,0,0,0,0,0,0,0,0,0,0,0,0,0,0,0,0,0,0,0,0,0,0,0,0,0,0,0,0,0,0,0,0,0,0,0,0,0,0,0,0,0,0,0,0,0,0,0,0,0,0,0,0,0,0,0,0,0,0,0,0,0,0,0,,UNIVERSAL FOREST PRODUCTS INC,017104670
2001,30269GSRFN200SI,GS ROOFING PRODUCTS CO INC,200 SIERRA DR,PEACHTREE CITY,FAYETTE,GA,30269,33.353995,-84.55969,2952,,,,,,324122,,,,,,1301150741940,LEAD COMPOUNDS,N420,YES,PBT,YES,1,NO,R,Pounds,17,.4,0,0,0,0,0,0,0,0,0,0,17.4,0,0,0,0,0,0,0,0,0,41,0,0,0,0,0,0,0,0,0,0,41,0,0,578,0,0,578,0,0,0,0,0,0,0,0,0,0,58.4,636,0,0,0,0,0,0,0,0,0,619,1255,0,1.26,SAINT-GOBAIN CORP,001008515
2001,30336LCHMX5625F,ALCOA HOME EXTERIORS INC ATLANTA VINYL OPERATIONS,5625 FULTON INDUSTRIAL BLVD,ATLANTA,FULTON,GA,30336,33.731568,-84.569903,3089,,,,,,326199,,,,,,1301151048446,MANGANESE COMPOUNDS,N450,YES,NON-PBT,YES,1,NO,A,Pounds,0,0,0,0,0,0,0,0,0,0,0,0,0,0,0,0,0,0,0,0,0,0,0,0,0,0,0,0,0,0,0,0,0,0,0,0,0,0,0,0,0,0,0,0,0,0,0,0,0,0,0,0,0,0,0,0,0,0,0,0,0,0,0,0,,ALCOA INC,001339472
2001,30071VNWTR2145S,UNIVAR USA INC NORCROSS FACILI TY,2145 SKYLAND CT,NORCROSS,GWINNETT,GA,300712960,33.914804,-84.229382,5169,,,,,,424690,,,,,,1301151056254,METHYL ETHYL KETONE,000078933,NO,NON-PBT,NO,0,NO,A,Pounds,0,0,0,0,0,0,0,0,0,0,0,0,0,0,0,0,0,0,0,0,0,0,0,0,0,0,0,0,0,0,0,0,0,0,0,0,0,0,0,0,0,0,0,0,0,0,0,0,0,0,0,0,0,0,0,0,0,0,0,0,0,0,0,0,,UNIVAR USA INC,NA
2001,30071VNWTR2145S,UNIVAR USA INC NORCROSS FACILI TY,2145 SKYLAND CT,NORCROSS,GWINNETT,GA,300712960,33.914804,-84.229382,5169,,,,,,424690,,,,,,1301151056292,ETHYLBENZENE,000100414,YES,NON-PBT,NO,0,NO,A,Pounds,0,0,0,0,0,0,0,0,0,0,0,0,0,0,0,0,0,0,0,0,0,0,0,0,0,0,0,0,0,0,0,0,0,0,0,0,0,0,0,0,0,0,0,0,0,0,0,0,0,0,0,0,0,0,0,0,0,0,0,0,0,0,0,0,,UNIVAR USA INC,NA
2001,31404NCHMN1680E,UNIVAR USA INC SAVANNAH FACILITY,1680 E PRESIDENT ST,SAVANNAH,CHATHAM,GA,31404,32.071237,-81.063085,5169,,,,,,424690,,,,,,1301151056924,ETHYLENE GLYCOL,000107211,YES,NON-PBT,NO,0,NO,A,Pounds,0,0,0,0,0,0,0,0,0,0,0,0,0,0,0,0,0,0,0,0,0,0,0,0,0,0,0,0,0,0,0,0,0,0,0,0,0,0,0,0,0,0,0,0,0,0,0,0,0,0,0,0,0,0,0,0,0,0,0,0,0,0,0,0,,NA,NA
2001,30082MRCNN1819S,VOPAK USA INC.,1819 S. COBB INDUSTRIAL BLVD.,SMYRNA,COBB,GA,30082,33.83775,-84.500779,5169,,,,,,424690,,,,,,1301151056987,METHYL ETHYL KETONE,000078933,NO,NON-PBT,NO,0,NO,A,Pounds,0,0,0,0,0,0,0,0,0,0,0,0,0,0,0,0,0,0,0,0,0,0,0,0,0,0,0,0,0,0,0,0,0,0,0,0,0,0,0,0,0,0,0,0,0,0,0,0,0,0,0,0,0,0,0,0,0,0,0,0,0,0,0,0,,NA,NA
2001,30130TYSNF340WM,TYSON FOODS INC,340 W MAPLE ST,CUMMING,FORSYTH,GA,30041,34.205276,-84.142502,2048,,,,,,311615,,,,,,1301151006564,MANGANESE,007439965,YES,NON-PBT,YES,1,NO,A,Pounds,0,0,0,0,0,0,0,0,0,0,0,0,0,0,0,0,0,0,0,0,0,0,0,0,0,0,0,0,0,0,0,0,0,0,0,0,0,0,0,0,0,0,0,0,0,0,0,0,0,0,0,0,0,0,0,0,0,0,0,0,0,0,0,0,,TYSON FOODS INC,069203702
2001,30240DRCLL1567F,GILLETTE CO DURACELL A DIV,1567 LUKKEN INDUSTRIAL DR W,LAGRANGE,TROUP,GA,302405799,33.012897,-85.054583,3692,,,,,,335912,,,,,,1301150738627,LEAD,007439921,YES,PBT,YES,1,YES,R,Pounds,0,.03,0,0,0,0,0,0,0,0,0,0,.03,0,0,0,0,0,.01,0,0,0,.18,0,0,0,0,0,0,0,0,0,0,.19,0,13.94,.25,0,0,14.19,0,0,0,0,0,0,0,0,0,0,.22,.22,0,0,0,0,0,0,0,13.94,0,0,14.16,0,1.78,THE PROCTER & GAMBLE CO,001025931
2001,30601CRRRT700OL,CARRIER TRANSICOLD,700 OLYMPIC DR,ATHENS,CLARKE,GA,30601,33.96635,-83.3446,3585,,,,,,333415,,,,,,1301151031960,CHLORODIFLUOROMETHANE,000075456,NO,NON-PBT,NO,0,NO,A,Pounds,0,0,0,0,0,0,0,0,0,0,0,0,0,0,0,0,0,0,0,0,0,0,0,0,0,0,0,0,0,0,0,0,0,0,0,0,0,0,0,0,0,0,0,0,0,0,0,0,0,0,0,0,0,0,0,0,0,0,0,0,0,0,0,0,,UNITED TECHNOLOGIES CORP,001344142
2001,30058GRFFT6601G,GRIFFITH LABORATORIES USA INC,6601 GRIFITH WAY,LITHONIA,DEKALB,GA,300580219,33.7245,-84.11966,2099,,,,,,311942,,,,,,1301151033495,SODIUM NITRITE,007632000,NO,NON-PBT,YES,2,NO,A,Pounds,0,0,0,0,0,0,0,0,0,0,0,0,0,0,0,0,0,0,0,0,0,0,0,0,0,0,0,0,0,0,0,0,0,0,0,0,0,0,0,0,0,0,0,0,0,0,0,0,0,0,0,0,0,0,0,0,0,0,0,0,0,0,0,0,,GRIFFITH LABORATORIES USA INC,005105788
2001,30720LDDNM2001A,ALADDIN MILLS - ANTIOCH RD PLA NT,2001 ANTIOCH RD,DALTON,WHITFIELD,GA,30720,34.73616,-84.94958,2273,,,,,,314110,,,,,,1301151037633,ZINC COMPOUNDS,N982,NO,NON-PBT,YES,1,NO,A,Pounds,0,0,0,0,0,0,0,0,0,0,0,0,0,0,0,0,0,0,0,0,0,0,0,0,0,0,0,0,0,0,0,0,0,0,0,0,0,0,0,0,0,0,0,0,0,0,0,0,0,0,0,0,0,0,0,0,0,0,0,0,0,0,0,0,,MOHAWK INDUSTRIES INC,612757070
2001,30721DRKNF121GO,MOHAWK INDUSTRIES - DURKAN FIN ISHING PLANT,121 GOODWILL DR,DALTON,WHITFIELD,GA,307214052,34.770253,-84.939578,2273,,,,,,314110,,,,,,1301151037672,DECABROMODIPHENYL OXIDE,001163195,NO,NON-PBT,NO,0,NO,A,Pounds,0,0,0,0,0,0,0,0,0,0,0,0,0,0,0,0,0,0,0,0,0,0,0,0,0,0,0,0,0,0,0,0,0,0,0,0,0,0,0,0,0,0,0,0,0,0,0,0,0,0,0,0,0,0,0,0,0,0,0,0,0,0,0,0,,MOHAWK INDUSTRIES INC,612757070
2001,30362CHMCN1ALCH,UNIVAR USA INC DORAVILLE FACILITY,1 ALCHEMY PL,DORAVILLE,GWINNETT,GA,30362,33.9225,-84.259166,5169,,,,,,424690,,,,,,1301151046277,TRICHLOROETHYLENE,000079016,YES,NON-PBT,NO,0,YES,A,Pounds,0,0,0,0,0,0,0,0,0,0,0,0,0,0,0,0,0,0,0,0,0,0,0,0,0,0,0,0,0,0,0,0,0,0,0,0,0,0,0,0,0,0,0,0,0,0,0,0,0,0,0,0,0,0,0,0,0,0,0,0,0,0,0,0,,UNIVAR USA INC,NA
2001,30243WKNST1000W,WIKA INSTRUMENT CORP,1000 WIEGAND BLVD,LAWRENCEVILLE,GWINNETT,GA,30043,33.96205,-84.05055,3823,,,,,,334513,,,,,,1301151057268,ALUMINUM (FUME OR DUST),007429905,NO,NON-PBT,YES,4,NO,A,Pounds,0,0,0,0,0,0,0,0,0,0,0,0,0,0,0,0,0,0,0,0,0,0,0,0,0,0,0,0,0,0,0,0,0,0,0,0,0,0,0,0,0,0,0,0,0,0,0,0,0,0,0,0,0,0,0,0,0,0,0,0,0,0,0,0,,ALEXANDER WIEGAND GMBH,NA
