Year,TRI Facility ID,Facility Name,Street Address,City,County,ST,ZIP,Latitude,Longitude,Primary SIC,SIC 2,SIC 3,SIC 4,SIC 5,SIC 6,Primary NAICS,NAICS 2,NAICS 3,NAICS 4,NAICS 5,NAICS 6,Doc_Ctrl_Num,Chemical,CAS #/Compound ID,Clean Air Act Chemical,Classification,Metal,Metal Category,Carcinogen,Form Type,Unit of Measure,5.1 Fugitive Air,5.2 Stack Air,5.3 Water,5.4.1 Underground Class I,5.4.2 Underground Class II-V,5.5.1A RCRA C Landfills,5.5.1B Other Landfills,5.5.2 Land Treatment,5.5.3 Surface Impoundment,5.5.3A RCRA C Surface Impoundment,5.5.3B Other Surface Impoundment,5.5.4 Other Disposal,On-site Release Total,6.1 POTW - Metals and Metal Compounds,6.1 POTW - Non-Metals,6.1 POTW - Total Transfers,6.2 M10,6.2 M41,6.2 M62,6.2 M71,6.2 M81,6.2 M82,6.2 M72,6.2 M63,6.2 M66,6.2 M67,6.2 M64,6.2 M65,6.2 M73,6.2 M79,6.2 M90,6.2 M94,6.2 M99,Off-Site Release Total,6.2 M20,6.2 M24,6.2 M26,6.2 M28,6.2 M93,Off-Site Recycled Total,6.2 M56,6.2 M92,Off-Site Recovery Total,6.2 M40,6.2 M50,6.2 M54,6.2 M61,6.2 M69,6.2 M95,Off-Site Treated Total,Total Releases,8.1 Releases,8.1a On-site Contained Releases,8.1b On-site Other Releases,8.1c Off-site Contained Releases,8.1d Off-site Other Releases,8.2 Energy Recovery On-site,8.3 Energy Recovery Off-site,8.4 Recycling On-Site,8.5 Recycling Off-Site,8.6 Treatment On-site,8.7 Treatement Off-site,Production Waste (8.1 thru 8.7),8.8 One-time Release,8.9 Production Ratio,Parent Company Name,Parent Company DB Number,3/3/2012 v10
2001,77562STHWS18310,SOUTHWEST SHIPYARD LP,18310 MARKET ST,CHANNELVIEW,HARRIS,TX,77530,29.789306,-95.065583,3731,,,,,,336611,,,,,,1301150011981,MANGANESE,007439965,YES,NON-PBT,YES,1,NO,R,Pounds,5,0,7,0,0,0,0,0,0,0,0,0,12,0,0,0,0,0,0,0,0,0,262,0,0,0,0,0,0,0,0,0,0,262,0,0,0,0,0,0,0,0,0,0,0,0,0,0,0,0,274,12,0,0,0,0,0,0,0,0,0,262,274,0,1,SOUTHWEST SHIPYARD LP,002784957
2001,75482SSCTD1101M,DAIRY FARMERS OF AMERICA INC SULPHUR SPRINGS,1101 MAIN ST,SULPHUR SPRINGS,HOPKINS,TX,75483,33.134722,-95.618611,2023,2026,,,,,311511,,,,,,1301150022135,NITRATE COMPOUNDS,N511,NO,NON-PBT,NO,0,NO,R,Pounds,0,0,0,0,0,0,0,0,0,0,0,0,0,0,33501,33501,0,0,0,0,0,0,0,0,0,0,0,0,0,0,0,0,0,0,0,0,0,0,0,0,0,0,0,0,0,0,0,0,0,0,0,0,0,0,0,0,0,0,0,0,0,33501,33501,0,.5,DAIRY FARMERS OF AMERICA INC,029855640
2001,76502TMTXS4208S,TEM-TEX SOLVENTS CORP,4208 S GENERAL BRUCE DR,TEMPLE,BELL,TX,765024836,31.08888,-97.39389,5169,,,,,,424690,,,,,,1301150062661,TOLUENE,000108883,YES,NON-PBT,NO,0,NO,R,Pounds,250,250,0,0,0,0,0,0,0,0,0,0,500,0,0,0,0,0,0,0,0,0,0,0,0,0,0,0,0,0,0,0,0,0,0,0,0,0,0,0,0,0,0,0,0,0,0,0,0,0,500,800,0,0,0,0,0,0,0,0,0,0,800,0,0,NA,NA
2001,77902DPNTVOLDBL,DUPONT VICTORIA PLANT,2697 OLD BLOOMINGTON RD N,VICTORIA,VICTORIA,TX,77905,28.678138,-96.970861,2869,,,,,,325188,,,,,,1301150066342,ETHYLENE GLYCOL,000107211,YES,NON-PBT,NO,0,NO,R,Pounds,280,980,0,0,0,0,0,0,0,0,0,0,1260,0,0,0,0,0,0,0,0,0,0,0,0,0,0,0,0,0,0,0,0,0,0,0,0,0,0,0,0,0,0,0,0,70399,0,0,0,70399,1260,1260,0,0,0,0,0,0,0,0,0,70399,71659,0,.81,E I DU PONT DE NEMOURS & CO INC,001315704
2001,77902DPNTVOLDBL,DUPONT VICTORIA PLANT,2697 OLD BLOOMINGTON RD N,VICTORIA,VICTORIA,TX,77905,28.678138,-96.970861,2869,,,,,,325188,,,,,,1301150066431,NICKEL,007440020,YES,NON-PBT,YES,1,YES,R,Pounds,0,0,0,0,0,0,0,0,0,0,0,0,0,0,0,0,0,0,0,0,0,0,0,0,0,0,0,0,0,0,0,0,0,0,0,0,0,0,0,0,0,0,0,0,0,0,0,0,0,0,0,0,0,0,0,0,0,0,0,0,0,0,0,0,.81,E I DU PONT DE NEMOURS & CO INC,001315704
2001,77902DPNTVOLDBL,DUPONT VICTORIA PLANT,2697 OLD BLOOMINGTON RD N,VICTORIA,VICTORIA,TX,77905,28.678138,-96.970861,2869,,,,,,325188,,,,,,1301150066494,POLYCYCLIC AROMATIC COMPOUNDS,N590,YES,PBT,NO,0,YES,R,Pounds,0,129,0,0,0,0,0,0,0,0,0,0,129,0,0,0,0,0,0,0,0,0,0,0,0,0,0,0,0,0,0,0,0,0,0,0,0,0,0,0,0,0,0,0,0,0,0,0,0,0,129,129,0,0,0,0,0,0,0,0,0,0,129,0,.92,E I DU PONT DE NEMOURS & CO INC,001315704
2001,77902DPNTVOLDBL,DUPONT VICTORIA PLANT,2697 OLD BLOOMINGTON RD N,VICTORIA,VICTORIA,TX,77905,28.678138,-96.970861,2869,,,,,,325188,,,,,,1301150066532,TITANIUM TETRACHLORIDE,007550450,YES,NON-PBT,YES,2,NO,R,Pounds,0,0,0,0,0,0,0,0,0,0,0,0,0,0,0,0,0,0,0,0,0,0,0,0,0,0,0,0,0,0,0,0,0,0,0,0,0,0,0,0,0,0,0,0,0,0,0,0,0,0,0,0,0,0,0,0,0,0,0,0,0,0,0,0,.85,E I DU PONT DE NEMOURS & CO INC,001315704
2001,76067GWNTR830HO,COMPLEMENTARY COATINGS CORP,830 HOOD RD,MINERAL WELLS,PARKER,TX,76067,32.827573,-98.049158,2851,,,,,,325510,,,,,,1301150095216,XYLENE (MIXED ISOMERS),001330207,YES,NON-PBT,NO,0,NO,R,Pounds,0,5047,0,0,0,0,0,0,0,0,0,0,5047,0,0,0,0,0,0,0,0,0,0,0,0,0,0,0,0,0,0,0,0,0,0,0,0,0,0,0,0,0,0,0,0,0,0,0,0,0,5047,5047,0,0,0,0,0,0,0,0,0,0,5047,0,.9,BENJAMIN MOORE & CO,001210715
2001,78220YRKNT5680E,JOHNSON CONTROLS INC - SAN ANTONIO,5680 E HOUSTON ST,SAN ANTONIO,BEXAR,TX,78220,29.422374,-98.378106,3585,,,,,,333415,,,,,,1301150029751,NICKEL,007440020,YES,NON-PBT,YES,1,YES,R,Pounds,0,0,0,0,0,0,0,0,0,0,0,0,0,0,0,0,0,0,0,0,0,0,0,0,0,0,0,0,0,0,0,0,0,0,0,5924,0,0,0,5924,0,0,0,0,0,0,0,0,0,0,0,0,0,0,0,0,0,0,0,5924,0,0,5924,0,.87,JOHNSON CONTROLS INC,006092860
2001,76106VLKSW4401B,TRAULSEN & CO,4401 BLUE MOUND RD,FORT WORTH,TARRANT,TX,76106,32.82328,-97.342788,3585,,,,,,333415,,,,,,1301150045072,CHROMIUM,007440473,YES,NON-PBT,YES,1,YES,R,Pounds,0,0,0,0,0,0,0,0,0,0,0,0,0,0,0,0,0,0,0,0,0,0,0,0,0,0,0,0,0,0,0,0,0,0,0,0,0,0,36807,36807,0,0,0,0,0,0,0,0,0,0,0,0,0,0,0,0,0,0,0,36807,0,0,36807,0,.5,PMI FOOD EQUIPMENT GROUP,001533082
2001,76401FBRGR900FM,FIBERGRATE COMPOSITE STRUCTURES INC,900 FM 205,STEPHENVILLE,ERATH,TX,76401,32.22146,-98.18464,3089,,,,,,326199,,,,,,1301150067054,CUMENE HYDROPEROXIDE,000080159,NO,NON-PBT,NO,0,NO,R,Pounds,0,0,0,0,0,0,0,0,0,0,0,0,0,0,0,0,0,0,0,0,0,0,0,0,0,0,0,0,0,0,0,0,0,0,0,0,0,0,0,0,0,0,0,0,0,0,0,0,0,0,0,0,0,0,0,0,0,0,0,0,0,0,0,0,0,RPM INC,004155651
2001,75119KRLND1504S,KORAL INDUSTRIES INC,1504 S KAUFMAN ST,ENNIS,ELLIS,TX,75119,32.318088,-96.614263,3088,,,,,,326191,,,,,,1301150089124,STYRENE,000100425,YES,NON-PBT,NO,0,YES,R,Pounds,0,49736,0,0,0,0,0,0,0,0,0,0,49736,0,0,0,0,0,0,0,0,0,0,0,0,0,0,0,0,0,0,0,0,0,0,0,0,0,0,0,0,0,0,0,0,0,0,0,0,0,49736,49753,0,0,0,0,0,0,0,0,0,0,49753,0,1000000.08,NA,NA
2001,79778DDNSW702MA,UNITED FUEL & ENERGY CORP,702 MAIN ST,RANKIN,UPTON,TX,79778,31.222754,-101.93919,5171,,,,,,424710,,,,,,1301150092120,BENZENE,000071432,YES,NON-PBT,NO,0,YES,R,Pounds,16,0,0,0,0,0,0,0,0,0,0,0,16,0,0,0,0,0,0,0,0,0,0,0,0,0,0,0,0,0,0,0,0,0,0,0,0,0,0,0,0,0,0,0,0,0,0,0,0,0,16,16,0,0,0,0,0,0,0,0,0,0,16,0,0,NA,NA
2001,79778DDNSW702MA,UNITED FUEL & ENERGY CORP,702 MAIN ST,RANKIN,UPTON,TX,79778,31.222754,-101.93919,5171,,,,,,424710,,,,,,1301150092183,MIXTURE,MIXTURE,NO,NON-PBT,NO,0,NO,R,Pounds,20,0,0,0,0,0,0,0,0,0,0,0,20,0,0,0,0,0,0,0,0,0,0,0,0,0,0,0,0,0,0,0,0,0,0,0,0,0,0,0,0,0,0,0,0,0,0,0,0,0,20,20,0,0,0,0,0,0,0,0,0,0,20,0,0,NA,NA
2001,79923SSCTD255MO,EAGLE FAMILY FOODS,255 MONTOYA RD,EL PASO,EL PASO,TX,79932,31.87204,-106.59588,2023,,,,,,311514,,,,,,1301150085862,NITRATE COMPOUNDS,N511,NO,NON-PBT,NO,0,NO,R,Pounds,0,0,0,0,0,0,0,0,0,0,0,0,0,0,58400,58400,0,0,0,0,0,0,0,0,0,0,0,0,0,0,0,0,0,0,0,0,0,0,0,0,0,0,0,0,0,0,0,0,0,0,0,0,0,0,0,0,0,0,0,0,0,58400,58400,0,1,NA,NA
2001,77562STHWS18310,SOUTHWEST SHIPYARD LP,18310 MARKET ST,CHANNELVIEW,HARRIS,TX,77530,29.789306,-95.065583,3731,,,,,,336611,,,,,,1301150012058,PROPYLENE OXIDE,000075569,YES,NON-PBT,NO,0,YES,R,Pounds,0,0,0,0,0,0,0,0,0,0,0,0,0,0,0,0,0,0,0,0,0,0,0,0,0,0,0,0,0,0,0,0,0,0,0,0,0,0,0,0,0,0,0,0,0,0,0,0,0,0,0,0,0,0,0,0,0,0,0,0,0,0,0,0,.01,SOUTHWEST SHIPYARD LP,002784957
2001,77562STHWS18310,SOUTHWEST SHIPYARD LP,18310 MARKET ST,CHANNELVIEW,HARRIS,TX,77530,29.789306,-95.065583,3731,,,,,,336611,,,,,,1301150012108,VINYL ACETATE,000108054,YES,NON-PBT,NO,0,YES,R,Pounds,2775,694,1,0,0,0,0,0,0,0,0,0,3470,0,0,0,0,0,0,0,0,0,0,0,0,0,0,0,0,0,0,2141,0,2141,0,0,0,0,0,0,0,0,0,0,0,0,0,0,0,0,5611,3470,0,0,0,0,0,0,0,0,31258,2141,36869,0,2,SOUTHWEST SHIPYARD LP,002784957
2001,78408CHMPL1801N,CITGO REFINING & CHEMICALS CO LP EAST PLANT,1801 NUECES BAY BLVD,CORPUS CHRISTI,NUECES,TX,78407,27.810556,-97.426944,2911,,,,,,324110,,,,,,1301150055275,"1,3-BUTADIENE",000106990,YES,NON-PBT,NO,0,YES,R,Pounds,52,0,0,0,0,0,0,0,0,0,0,0,52,0,0,0,0,0,0,0,0,0,0,0,0,0,0,0,0,0,0,0,0,0,0,0,0,0,0,0,0,0,0,0,0,0,0,0,0,0,52,52,0,0,0,0,0,0,0,0,0,0,52,0,1,CITGO PETROLEUM CORP,102417268
2001,78408CHMPL1801N,CITGO REFINING & CHEMICALS CO LP EAST PLANT,1801 NUECES BAY BLVD,CORPUS CHRISTI,NUECES,TX,78407,27.810556,-97.426944,2911,,,,,,324110,,,,,,1301150055337,CYCLOHEXANE,000110827,NO,NON-PBT,NO,0,NO,R,Pounds,7755,9318,0,0,0,0,0,0,0,0,0,0,17073,0,0,0,0,0,0,0,0,0,0,0,0,0,0,0,0,0,0,0,0,0,0,0,0,0,0,0,0,0,0,0,0,0,0,0,0,0,17073,17073,0,0,0,0,0,0,0,0,0,0,17073,0,1,CITGO PETROLEUM CORP,102417268
2001,78408CHMPL1801N,CITGO REFINING & CHEMICALS CO LP EAST PLANT,1801 NUECES BAY BLVD,CORPUS CHRISTI,NUECES,TX,78407,27.810556,-97.426944,2911,,,,,,324110,,,,,,1301150055414,MOLYBDENUM TRIOXIDE,001313275,NO,NON-PBT,YES,2,NO,R,Pounds,0,0,0,0,0,0,0,0,0,0,0,0,0,0,0,0,0,0,0,0,0,0,133769,0,0,0,0,0,0,0,0,0,0,133769,0,2496,0,0,0,2496,0,0,0,0,0,0,0,0,0,0,133769,133769,0,0,0,0,0,0,0,2496,0,0,136265,0,1,CITGO PETROLEUM CORP,102417268
2001,78409CHMPL7350I,CITGO REFINING & CHEMICALS CO LP - WEST PLANT,7350 INTERSTATE HWY 37,CORPUS CHRISTI,NUECES,TX,78409,27.8114,-97.4881,2911,,,,,,324110,,,,,,1301150055628,BENZENE,000071432,YES,NON-PBT,NO,0,YES,R,Pounds,1210,23,0,0,0,0,0,0,0,0,0,0,1233,0,0,0,0,0,0,0,0,0,0,0,0,0,0,0,0,0,0,0,0,0,16,0,0,0,0,16,0,0,0,0,0,0,0,0,0,0,1233,1233,0,0,0,0,0,0,0,16,0,0,1249,0,1,CITGO PETROLEUM CORP,102417268
2001,78409CHMPL7350I,CITGO REFINING & CHEMICALS CO LP - WEST PLANT,7350 INTERSTATE HWY 37,CORPUS CHRISTI,NUECES,TX,78409,27.8114,-97.4881,2911,,,,,,324110,,,,,,1301150055693,MOLYBDENUM TRIOXIDE,001313275,NO,NON-PBT,YES,2,NO,R,Pounds,0,0,0,0,0,0,0,0,0,0,0,0,0,0,0,0,0,0,0,0,0,0,0,0,0,0,0,0,0,0,5636,0,0,5636,0,0,0,0,0,0,0,0,0,0,0,0,0,0,0,0,5636,5636,0,0,0,0,0,0,0,0,0,0,5636,0,1,CITGO PETROLEUM CORP,102417268
2001,78409CHMPL7350I,CITGO REFINING & CHEMICALS CO LP - WEST PLANT,7350 INTERSTATE HWY 37,CORPUS CHRISTI,NUECES,TX,78409,27.8114,-97.4881,2911,,,,,,324110,,,,,,1301150055768,XYLENE (MIXED ISOMERS),001330207,YES,NON-PBT,NO,0,NO,R,Pounds,5302,0,0,0,0,0,0,0,0,0,0,0,5302,0,0,0,0,0,0,0,0,0,0,0,0,0,0,0,0,0,0,0,0,0,48,0,0,0,0,48,0,0,0,0,250,0,0,0,0,250,5302,5302,0,0,0,0,0,0,0,48,0,250,5600,0,1,CITGO PETROLEUM CORP,102417268
2001,78407CTGRF4809U,CITGO REFINING & CHEMICALS CO LP-DEEP SEA TERMINAL,4809 UP RIVER RD,CORPUS CHRISTI,NUECES,TX,78407,27.811806,-97.438583,5171,,,,,,424710,,,,,,1301150055919,NAPHTHALENE,000091203,YES,NON-PBT,NO,0,NO,R,Pounds,3,0,0,0,0,0,0,0,0,0,0,0,3,0,0,0,0,0,0,0,0,0,0,0,0,0,0,0,0,0,0,0,0,0,0,0,0,0,0,0,0,0,0,0,0,0,0,0,0,0,3,3,0,0,0,0,0,0,0,0,0,0,3,0,1,CITGO PETROLEUM CORP,102417268
2001,75662THRDL1915N,UNITED FUEL & ENERGY CORP,1915 N HWY #135,KILGORE,RUSK,TX,75662,32.385853,-94.884595,5171,,,,,,424710,,,,,,1301150081406,XYLENE (MIXED ISOMERS),001330207,YES,NON-PBT,NO,0,NO,R,Pounds,488,0,0,0,0,0,0,0,0,0,0,0,488,0,0,0,0,0,0,0,0,0,0,0,0,0,0,0,0,0,0,0,0,0,0,0,0,0,0,0,0,0,0,0,0,0,0,0,0,0,488,488,0,0,0,0,0,0,0,0,0,0,488,0,0,UNITED FUEL & ENERGY CORP,NA
2001,76036ZTCMN400NO,AZZ GALVANIZING-CROWLEY,200 N BEVERLY,CROWLEY,TARRANT,TX,76036,32.58029,-97.36246,3498,3479,,,,,332812,,,,,,1301150078323,ZINC COMPOUNDS,N982,NO,NON-PBT,YES,1,NO,R,Pounds,1831,0,2303,0,0,0,0,0,0,0,0,0,4134,0,0,0,0,0,48319,333842,0,0,2363,0,0,0,0,0,0,0,0,0,0,384524,0,600014,38118,0,0,638132,0,0,0,0,0,0,0,0,0,0,388658,388658,0,0,0,0,0,0,0,638133,0,0,1026791,0,.83,AZZ INC,008012148
2001,79404DDNSW5002S,UNITED FUEL & ENERGY CORP,5002 SE DR,LUBBOCK,LUBBOCK,TX,79404,33.548892,-101.803773,5171,,,,,,424710,,,,,,1301150078451,NAPHTHALENE,000091203,YES,NON-PBT,NO,0,NO,R,Pounds,38,0,0,0,0,0,0,0,0,0,0,0,38,0,0,0,0,0,0,0,0,0,0,0,0,0,0,0,0,0,0,0,0,0,0,0,0,0,0,0,0,0,0,0,0,0,0,0,0,0,38,38,0,0,0,0,0,0,0,0,0,0,38,0,0,NA,NA
2001,76110GWNTR1800P,TRINKOTE INDUSTRIAL FINISHES INC,1800 PARK PL AVE,FORT WORTH,TARRANT,TX,76110,32.7258,-97.3456,2851,,,,,,325510,,,,,,1301150095952,METHYL ETHYL KETONE,000078933,NO,NON-PBT,NO,0,NO,R,Pounds,0,253,0,0,0,0,0,0,0,0,0,0,253,0,0,0,0,0,0,0,0,0,0,0,0,0,0,0,0,0,0,0,0,0,0,0,0,0,929,929,0,0,0,0,0,0,0,0,0,0,253,253,0,0,0,0,0,0,0,929,0,0,1182,0,.9,TRINKOTE INDUSTRIAL FINISHES INC,NA
2001,77007HLLBR1907S,HALLIBURTON ENERGY SERVICE - SABINE,1907 SABINE ST,HOUSTON,HARRIS,TX,77007,29.774502,-95.37589,3496,,,,,,332618,,,,,,1301150023048,NICKEL,007440020,YES,NON-PBT,YES,1,YES,R,Pounds,0,0,0,0,0,0,0,0,0,0,0,0,0,0,0,0,0,0,0,0,0,0,0,0,0,0,0,0,0,0,0,0,0,0,0,8400,0,0,0,8400,0,0,0,0,0,0,0,0,0,0,0,0,0,0,0,0,0,0,0,8400,0,0,8400,0,.68,HALLIBURTON CO,964409007
2001,78759TXSNS12501,TYCO PRINTED CIRCUIT GROUP AUSTIN DIV,12501 RESEARCH,AUSTIN,TRAVIS,TX,787592220,30.42934,-97.75875,3672,,,,,,334412,,,,,,1301150056404,COPPER COMPOUNDS,N100,NO,NON-PBT,YES,1,NO,R,Pounds,5,250,0,0,0,0,0,0,0,0,0,0,255,273,0,273,0,0,0,0,0,0,0,0,0,0,0,0,0,0,0,0,0,0,0,148900,0,0,0,148900,0,0,0,0,0,0,0,0,0,0,528,311,0,0,0,0,0,0,0,148901,0,0,149212,0,.96,NA,NA
2001,77705LNCRP1400O,CHEMTRADE REFINERY SERVICES INC,1400 OLIN RD,BEAUMONT,JEFFERSON,TX,77705,30.046389,-94.06888,2819,,,,,,325188,,,,,,1301150056570,"SULFURIC ACID (1994 AND AFTER ""ACID AEROSOLS"" ONLY)",007664939,NO,NON-PBT,NO,0,NO,R,Pounds,0,6652,0,0,0,0,0,0,0,0,0,0,6652,0,0,0,0,0,0,0,0,0,0,0,0,0,0,0,0,0,0,0,0,0,0,0,0,0,0,0,0,0,0,0,0,0,0,0,0,0,6652,6652,0,0,0,0,0,0,0,0,0,0,6652,0,.68,CHEMTRADE LOGISTICS INC,201126559
2001,77705LNCRP1400O,CHEMTRADE REFINERY SERVICES INC,1400 OLIN RD,BEAUMONT,JEFFERSON,TX,77705,30.046389,-94.06888,2819,,,,,,325188,,,,,,1301150056606,METHANOL,000067561,YES,NON-PBT,NO,0,NO,R,Pounds,169,44,0,0,0,0,0,0,0,0,0,0,213,0,0,0,0,0,0,0,0,0,0,0,0,0,0,0,0,0,0,0,0,0,0,0,0,0,0,0,0,0,0,0,0,0,0,0,0,0,213,213,0,0,0,0,0,0,0,0,0,0,213,0,.68,CHEMTRADE LOGISTICS INC,201126559
2001,77545CHMPN3130H,CHAMPION TECHNOLOGIES INC,3130 FM 521,FRESNO,FORT BEND,TX,77545,29.543917,-95.446861,2869,,,,,,325110,,,,,,1301150056810,FORMALDEHYDE,000050000,YES,NON-PBT,NO,0,YES,R,Pounds,33,3,0,0,0,0,0,0,0,0,0,0,36,0,0,0,14,0,0,2051,0,0,0,0,0,0,0,0,0,0,0,0,0,2065,0,0,0,0,0,0,473,0,473,0,0,0,5592,0,0,5592,2101,2097,0,0,0,0,0,473,0,0,0,5592,8162,0,1.37,PERMIAN MUD SERVICE,008024580
2001,79760CHMPN115PR,CHAMPION TECHNOLOGIES INC,115 PROCTOR,ODESSA,ECTOR,TX,79762,31.873333,-102.302778,2869,,,,,,325110,,,,,,1301150056935,XYLENE (MIXED ISOMERS),001330207,YES,NON-PBT,NO,0,NO,R,Pounds,259,119,0,0,0,0,0,0,0,0,0,0,378,0,0,0,0,0,0,0,0,0,0,0,0,0,0,0,0,0,0,0,0,0,0,0,0,0,0,0,1297,0,1297,0,0,0,1077,0,0,1077,378,378,0,0,0,0,0,1297,56266,0,0,0,57941,0,.91,PERMIAN MUD SERVICE,008024580
2001,76503RLPHW10501,WILSONART INTERNATIONALTEMPLE NORTH,10501 NW HK DODGEN LOOP,TEMPLE,BELL,TX,76504,31.0968,-97.3649,3083,,,,,,326130,,,,,,1301150020749,PHENOL,000108952,YES,NON-PBT,NO,0,NO,R,Pounds,240,17775,0,0,0,0,0,0,0,0,0,0,18015,0,0,0,0,0,0,0,0,0,0,0,0,0,0,0,0,0,0,0,0,0,0,0,0,0,0,0,1040,0,1040,3375,0,0,0,0,0,3375,18015,18015,0,0,0,0,627424,1013,1300,0,0,3375,651127,0,.99,ILLINOIS TOOL WORKS INC,005146428
2001,78962TXNDS605UT,UTEX INDUSTRIES INC,605 UTEX DR,WEIMAR,COLORADO,TX,78962,29.69563,-96.771049,3053,,,,,,339991,,,,,,1301150014203,LEAD,007439921,YES,PBT,YES,1,YES,R,Pounds,0,0,0,0,0,0,0,0,0,0,0,0,0,0,0,0,0,0,0,0,0,0,0,0,0,0,0,0,0,0,0,0,0,0,0,0,0,0,4611,4611,0,0,0,0,0,0,0,0,0,0,0,0,0,0,0,0,0,0,0,4611,0,0,4611,0,1,NA,NA
2001,77041CHMNC15150,CHEM ONE LTD,8017 PINEMONT DR #100,HOUSTON,HARRIS,TX,770406519,29.84119,-95.511365,5169,,,,,,424690,,,,,,1301150014316,COPPER COMPOUNDS,N100,NO,NON-PBT,YES,1,NO,R,Pounds,0,0,0,0,0,0,0,0,0,0,0,0,0,0,0,0,0,0,0,0,0,0,0,0,0,0,0,0,0,0,0,0,5,5,0,0,0,0,0,0,0,0,0,0,0,0,0,0,0,0,5,4,0,0,0,0,0,0,0,0,0,0,4,0,0,CHEM ONE LTD,805873569
2001,75662BKRPT806PA,BAKER PETROLITE KILGORE BLEND PLANT,806 PALUXY ST,KILGORE,RUSK,TX,75662,32.363889,-94.891944,5169,1389,,,,,424690,,,,,,1301150017578,ETHYLBENZENE,000100414,YES,NON-PBT,NO,0,NO,R,Pounds,34,13,0,0,0,0,0,0,0,0,0,0,47,0,0,0,0,0,0,0,0,0,0,0,0,0,0,0,0,0,0,0,0,0,0,0,0,0,0,0,2334,0,2334,0,0,0,0,0,0,0,47,47,0,0,0,0,0,2334,0,0,0,0,2381,0,1.2,BAKER HUGHES INC,174987909
2001,77507HCHST12212,CAN HOLDINGS INC. TICONA GUR BAYPORT PLANT,"12212 ""C"" PORT RD.",PASADENA,HARRIS,TX,77507,29.604024,-95.020836,2821,,,,,,325211,,,,,,1301150017705,ETHYLENE,000074851,NO,NON-PBT,NO,0,NO,R,Pounds,6300,0,0,0,0,0,0,0,0,0,0,0,6300,0,0,0,0,0,0,0,0,0,0,0,0,0,0,0,0,0,0,0,0,0,0,0,0,0,0,0,244000,0,244000,0,43000,0,0,0,0,43000,6300,6300,0,0,0,0,0,244000,0,0,0,43000,293300,0,.84,CELANESE AMERICAS CORP,097413462
2001,77024STHLNPOBOX,SOUTHLINE METAL PRODUCTS CO,3777 W 12TH ST,HOUSTON,HARRIS,TX,77055,29.791186,-95.450026,3412,,,,,,332439,,,,,,1301150043432,METHYL ETHYL KETONE,000078933,NO,NON-PBT,NO,0,NO,R,Pounds,1610,48139,0,0,0,0,0,0,0,0,0,0,49749,0,0,0,0,0,0,0,0,0,0,0,0,0,0,0,0,0,0,0,0,0,0,0,0,0,0,0,13912,0,13912,0,0,0,0,0,0,0,49749,49749,0,0,0,0,0,13912,0,0,0,0,63661,0,1.03,GREIF INC,NA
2001,77520CHMCL12321,CHEMICALS INC,12321 HATCHERVILLE RD,BAYTOWN,CHAMBERS,TX,77520,29.858673,-94.919106,2869,2899,,,,,325412,,,,,,1301150053217,PHENOL,000108952,YES,NON-PBT,NO,0,NO,R,Pounds,250,0,0,0,0,0,0,0,0,0,0,0,250,0,0,0,0,0,0,0,0,0,0,0,0,0,0,0,0,0,0,0,0,0,0,0,0,0,0,0,0,0,0,0,0,0,0,0,0,0,250,250,0,0,0,0,0,0,0,0,0,0,250,0,.42,CHEMICALS INC,137554606
2001,78945LCRFY6549P,LCRA FAYETTE POWER PROJECT,6549 POWER PLANT RD,LA GRANGE,FAYETTE,TX,78945,29.916444,-96.750972,4911,,,,,,221122,,,,,,1301150072813,CHLORINE,007782505,YES,NON-PBT,NO,0,NO,R,Pounds,1,0,0,0,0,0,0,0,0,0,0,0,1,0,0,0,0,0,0,0,0,0,0,0,0,0,0,0,0,0,0,0,0,0,0,0,0,0,0,0,0,0,0,0,0,0,0,0,0,0,1,1,0,0,0,0,0,0,0,0,0,0,1,0,.99,LOWER COLORADO RIVER AUTHORITY/CITYOFAUSTIN,043226885
2001,78945LCRFY6549P,LCRA FAYETTE POWER PROJECT,6549 POWER PLANT RD,LA GRANGE,FAYETTE,TX,78945,29.916444,-96.750972,4911,,,,,,221112,,,,,,1301150072864,MERCURY COMPOUNDS,N458,YES,PBT,YES,1,NO,R,Pounds,0,615,0,0,0,0,68,0,2.7,0,0,0,685.7,0,0,0,0,0,0,0,0,0,.01,0,0,0,0,0,0,0,0,0,0,.01,0,0,.05,0,0,.05,0,0,0,0,0,0,0,0,0,0,685.71,686,0,0,0,0,0,0,0,.05,0,0,686.05,0,.99,LOWER COLORADO RIVER AUTHORITY/CITYOFAUSTIN,043226885
2001,78945LCRFY6549P,LCRA FAYETTE POWER PROJECT,6549 POWER PLANT RD,LA GRANGE,FAYETTE,TX,78945,29.916444,-96.750972,4911,,,,,,221112,,,,,,1301150072914,"BENZO(G,H,I)PERYLENE",000191242,YES,PBT,NO,0,YES,R,Pounds,0,.13,0,0,0,0,0,0,0,0,0,0,.13,0,0,0,0,0,0,0,0,0,0,0,0,0,0,0,0,0,0,0,0,0,0,0,0,0,0,0,0,0,0,0,0,0,0,0,0,0,.13,.13,0,0,0,0,1517.87,0,0,0,0,0,1518,0,.99,LOWER COLORADO RIVER AUTHORITY/CITYOFAUSTIN,043226885
2001,77536MPKNC2759B,VOPAK LOGISTICS SERVICES USA INC DEER PARK,2759 INDEPENDENCE PKWY S,DEER PARK,HARRIS,TX,775360897,29.739449,-95.08992,4953,,,,,,562211,,,,,,1301150073043,MALATHION,000121755,NO,NON-PBT,NO,0,NO,R,Pounds,5,0,250,5,0,0,0,0,0,0,0,0,260,0,0,0,0,0,0,0,0,0,0,0,0,0,0,0,0,0,0,0,0,0,0,0,0,0,0,0,47000,0,47000,0,0,0,0,0,0,0,260,260,0,0,0,0,0,47000,0,0,50,0,47310,0,0,VOPAK NORTH AMERICA INC,026643007
2001,77536MPKNC2759B,VOPAK LOGISTICS SERVICES USA INC DEER PARK,2759 INDEPENDENCE PKWY S,DEER PARK,HARRIS,TX,775360897,29.739449,-95.08992,4953,,,,,,562000,,,,,,1301150073132,TERT-BUTYL ALCOHOL,000075650,NO,NON-PBT,NO,0,NO,R,Pounds,5,0,0,0,0,0,0,0,0,0,0,0,5,0,0,0,0,0,0,0,0,0,0,0,0,0,0,0,0,0,0,0,0,0,0,0,0,0,0,0,17300,0,17300,0,0,0,0,0,0,0,5,5,0,0,0,0,0,17300,0,0,0,0,17305,0,0,VOPAK NORTH AMERICA INC,026643007
2001,78842DDNSW4778H,EDDINS WALCHER CO,4778 HWY 90,DEL RIO,VAL VERDE,TX,78842,29.429166,-100.91,5171,,,,,,424710,,,,,,1301150079541,CYCLOHEXANE,000110827,NO,NON-PBT,NO,0,NO,R,Pounds,2,0,0,0,0,0,0,0,0,0,0,0,2,0,0,0,0,0,0,0,0,0,0,0,0,0,0,0,0,0,0,0,0,0,0,0,0,0,0,0,0,0,0,0,0,0,0,0,0,0,2,2,0,0,0,0,0,0,0,0,0,0,2,0,0,NA,NA
2001,77507LNZBY9700B,GULF BAYPORT CHEMICALS LP,9700 BAYPORT BLVD,PASADENA,HARRIS,TX,77507,29.615556,-95.061389,2869,,,,,,325000,,,,,,1301150024646,AMMONIA,007664417,NO,NON-PBT,NO,0,NO,R,Pounds,798,0,0,0,0,0,0,0,0,0,0,0,798,0,0,0,0,0,0,0,0,0,0,0,0,0,0,0,0,0,0,0,0,0,0,0,0,0,0,0,0,0,0,0,0,0,0,0,0,0,798,798,0,0,0,0,0,0,0,0,0,0,798,0,.99,NA,NA
2001,77562STHWS18310,SOUTHWEST SHIPYARD LP,18310 MARKET ST,CHANNELVIEW,HARRIS,TX,77530,29.789306,-95.065583,3731,,,,,,336611,,,,,,1301150011765,AMMONIA,007664417,NO,NON-PBT,NO,0,NO,R,Pounds,2,10,503,0,0,0,0,0,0,0,0,0,515,0,0,0,0,0,0,0,0,0,0,0,0,0,0,0,0,0,0,0,0,0,0,0,0,0,0,0,0,0,0,0,0,0,0,0,0,0,515,515,0,0,0,0,0,0,0,0,9997,0,10512,0,1,SOUTHWEST SHIPYARD LP,002784957
2001,77984KSPRWHWY95,KASPAR WIRE WORKS INC.,959 HWY 95 N,SHINER,LAVACA,TX,77984,29.436696,-97.164929,3496,,,,,,332618,,,,,,1301150003489,TOLUENE,000108883,YES,NON-PBT,NO,0,NO,R,Pounds,11882,830,0,0,0,0,0,0,0,0,0,0,12712,0,0,0,0,0,0,0,0,0,0,0,0,0,0,0,0,0,0,0,0,0,0,0,0,0,0,0,0,0,0,0,0,0,0,0,0,0,12712,12713,0,0,0,0,0,0,0,0,0,0,12713,0,.9,NA,NA
2001,75902LFKNNDOUGL,LUFKIN INDUSTRIES INC,435 JEFFERSON ST,LUFKIN,ANGELINA,TX,75902,31.337261,-94.733508,3321,3566,,,,,331511,,,,,,1301150033405,XYLENE (MIXED ISOMERS),001330207,YES,NON-PBT,NO,0,NO,R,Pounds,11189,11189,0,0,0,0,0,0,0,0,0,0,22378,0,0,0,0,0,0,0,0,0,0,0,0,0,0,0,0,0,0,0,0,0,0,0,0,0,0,0,19593,0,19593,0,0,0,0,0,0,0,22378,22378,0,0,0,0,0,19835,0,0,0,0,42213,0,1.1,LUFKIN INDUSTRIES INC,NA
2001,78359CCDNTHWY36,OCCIDENTAL CHEMICAL CORP,4133 HWY 361,GREGORY,SAN PATRICIO,TX,78359,27.891667,-97.240833,2869,2812,,,,,325199,,,,,,1301150036655,ASBESTOS (FRIABLE),001332214,YES,NON-PBT,YES,2,YES,R,Pounds,0,0,0,0,0,0,0,0,0,0,0,0,0,0,0,0,0,0,0,0,0,0,0,0,0,0,0,0,0,0,0,0,0,0,0,0,0,0,0,0,0,0,0,0,0,0,0,0,0,0,0,0,0,0,0,0,0,0,0,0,25,0,25,0,.95,OCCIDENTAL PETROLEUM CORP,006908354
2001,78359CCDNTHWY36,OCCIDENTAL CHEMICAL CORP,4133 HWY 361,GREGORY,SAN PATRICIO,TX,78359,27.891667,-97.240833,2869,2812,,,,,325000,,,,,,1301150036743,CHLOROMETHANE,000074873,YES,NON-PBT,NO,0,NO,R,Pounds,0,0,0,0,0,0,0,0,0,0,0,0,0,0,0,0,0,0,0,0,0,0,0,0,0,0,0,0,0,0,0,0,0,0,0,0,0,0,0,0,0,0,0,0,0,0,0,0,0,0,0,0,0,0,0,0,0,0,0,0,0,0,0,0,1.13,OCCIDENTAL PETROLEUM CORP,006908354
2001,77983RCCRBHWY18,SEADRIFT COKE LP,8618 HWY 185 N,PORT LAVACA,CALHOUN,TX,77979,28.5125,-96.793056,2999,,,,,,324199,,,,,,1301150053849,M-XYLENE,000108383,YES,NON-PBT,NO,0,NO,R,Pounds,1015,0,0,0,0,0,0,0,0,0,0,0,1015,0,0,0,0,0,0,0,0,0,0,0,0,0,0,0,0,0,0,0,0,0,0,0,0,0,0,0,0,0,0,0,0,0,0,0,0,0,1015,1000,0,0,0,0,0,0,0,0,0,0,1000,0,0,NA,NA
2001,79765DDNSW9421N,UNITED FUEL & ENERGY CORP,9421 N ANDREWS HWY,ODESSA,ECTOR,TX,79765,31.945305,-102.405382,5171,,,,,,424710,,,,,,1301150077028,NAPHTHALENE,000091203,YES,NON-PBT,NO,0,NO,R,Pounds,286,0,0,0,0,0,0,0,0,0,0,0,286,0,0,0,0,0,0,0,0,0,0,0,0,0,0,0,0,0,0,0,0,0,0,0,0,0,0,0,0,0,0,0,0,0,0,0,0,0,286,286,0,0,0,0,0,0,0,0,0,0,286,0,0,UNITED FUEL & ENERGY CORP,NA
2001,75119WNSCR203CE,OWENS CORNING ROOFING & ASPHALT LLC ENNIS,203 CEDAR RD,ENNIS,ELLIS,TX,75119,32.35483,-96.644715,2952,,,,,,324122,,,,,,1301150006688,POLYCYCLIC AROMATIC COMPOUNDS,N590,YES,PBT,NO,0,YES,R,Pounds,0,.14,0,0,0,0,0,0,0,0,0,0,.14,0,0,0,0,0,0,0,0,0,8,0,0,0,0,0,0,0,0,0,0,8,0,0,0,0,0,0,0,0,0,0,0,0,0,0,0,0,8.14,8,0,0,0,0,0,0,0,0,0,0,8,0,0,OWENS CORNING,001317452
2001,76040STHWS1401R,SOUTHWESTERN RACK CO.,1401 ROYAL PKWY. SUITE A,EULESS,TARRANT,TX,76040,32.81767,-97.11928,3499,,,,,,332999,,,,,,1301150009951,COPPER,007440508,NO,NON-PBT,YES,1,NO,R,Pounds,0,0,0,0,0,0,0,0,0,0,0,0,0,0,0,0,0,0,0,0,0,0,0,0,0,0,0,0,0,0,0,0,0,0,0,0,750,0,0,750,0,0,0,0,0,0,0,0,0,0,0,0,0,0,0,0,0,0,0,1500,0,0,1500,0,0,ASSOCIATED RACK CORP,NA
2001,78359CCDNTHWY36,OCCIDENTAL CHEMICAL CORP,4133 HWY 361,GREGORY,SAN PATRICIO,TX,78359,27.891667,-97.240833,2869,2812,,,,,325199,,,,,,1301150036832,TRICHLOROETHYLENE,000079016,YES,NON-PBT,NO,0,YES,R,Pounds,5019,0,0,0,0,0,0,0,0,0,0,0,5019,0,0,0,0,0,0,0,0,0,0,0,0,0,0,0,0,0,0,0,0,0,0,0,0,0,0,0,0,0,0,0,564,0,0,0,0,564,5019,5019,0,0,0,0,0,0,0,0,0,564,5583,0,1.13,OCCIDENTAL PETROLEUM CORP,006908354
2001,77541VSCPL102SA,ENDURO SYSTEMS INC,102 S AVE A,FREEPORT,BRAZORIA,TX,77541,28.959166,-95.359722,3089,,,,,,326199,,,,,,1301150051290,STYRENE,000100425,YES,NON-PBT,NO,0,YES,R,Pounds,5,5133,0,0,0,0,0,0,0,0,0,0,5138,0,0,0,0,0,0,0,0,0,0,0,0,0,0,0,0,0,0,0,0,0,0,0,0,0,0,0,0,0,0,0,0,0,0,0,0,0,5138,5143,0,0,0,0,0,0,0,0,0,0,5143,0,0,ENDURO SYSTEMS INC,NA
2001,75243DLLS011344,BRENNTAG SOUTHWEST INC. DALLAS,11344 PLANO RD,DALLAS,DALLAS,TX,75243,32.903056,-96.700278,5169,,,,,,424690,,,,,,1301150080707,DICHLOROMETHANE,000075092,YES,NON-PBT,NO,0,YES,R,Pounds,250,3893,0,0,0,0,0,0,0,0,0,0,4143,0,0,0,0,0,0,0,0,0,0,0,0,0,0,0,0,0,0,0,0,0,0,0,0,0,0,0,0,0,0,0,0,0,12300,0,0,12300,4143,3913,0,0,0,0,0,0,0,0,0,12297,16210,0,1.13,BRENNTAG INC,092963644
2001,79359DDNSW704RA,EDDINS WALCHER CO,704 RAILROAD AVE,SEAGRAVES,GAINES,TX,79359,32.94476,-102.55648,5171,,,,,,424710,,,,,,1301150080796,TOLUENE,000108883,YES,NON-PBT,NO,0,NO,R,Pounds,15,0,0,0,0,0,0,0,0,0,0,0,15,0,0,0,0,0,0,0,0,0,0,0,0,0,0,0,0,0,0,0,0,0,0,0,0,0,0,0,0,0,0,0,0,0,0,0,0,0,15,15,0,0,0,0,0,0,0,0,0,0,15,0,0,NA,NA
2001,77590SLNCH5700J,SEA LION TECHNOLOGY INC,5700 CENTURY BLVD,TEXAS CITY,GALVESTON,TX,77590,29.424167,-95.01972,2869,,,,,,325199,,,,,,1301150041580,DIMETHYLAMINE,000124403,NO,NON-PBT,NO,0,NO,R,Pounds,5,250,0,0,0,0,0,0,0,0,0,0,255,0,0,0,0,0,0,0,0,0,0,0,0,0,0,0,0,0,0,0,0,0,0,0,0,0,0,0,0,0,0,0,0,0,0,0,0,0,255,233,0,0,0,0,0,0,0,0,10950,0,11183,0,.49,NA,NA
2001,77590SLNCH5700J,SEA LION TECHNOLOGY INC,5700 CENTURY BLVD,TEXAS CITY,GALVESTON,TX,77590,29.424167,-95.01972,2869,,,,,,325199,,,,,,1301150041630,PYRIDINE,000110861,NO,NON-PBT,NO,0,NO,R,Pounds,250,5,0,0,0,0,0,0,0,0,0,0,255,0,0,0,0,0,0,0,0,0,0,0,0,0,0,0,0,0,0,0,0,0,0,0,0,0,0,0,0,0,0,0,0,0,1814,0,250,2064,255,93,0,0,0,0,0,0,0,0,153,1864,2110,0,1.75,NA,NA
2001,77065DNLVL19191,SPX PROCESS EQUIPMENT,19191 HEMSTEAD RD,HOUSTON,HARRIS,TX,77065,29.905708,-95.606758,3492,,,,,,332911,,,,,,1301150027441,MANGANESE,007439965,YES,NON-PBT,YES,1,NO,R,Pounds,0,0,0,0,0,0,0,0,0,0,0,0,0,0,0,0,0,0,0,0,0,0,0,0,0,0,0,0,0,0,0,0,0,0,0,0,0,0,0,0,0,0,0,0,0,0,0,0,0,0,0,0,0,0,0,0,0,0,0,0,0,0,0,0,1.49,SPX CORP,NA
2001,75604DLTDS610FI,BRENNTAG SOUTHWEST INC LONG VIEW,610 FISHER RD,LONGVIEW,GREGG,TX,75604,32.495833,-94.819167,5169,,,,,,424690,,,,,,1301150080909,TOLUENE,000108883,YES,NON-PBT,NO,0,NO,R,Pounds,5,250,0,0,0,0,0,0,0,0,0,0,255,0,0,0,0,0,0,0,0,0,0,0,0,0,0,0,0,0,0,0,0,0,0,0,0,0,0,0,1868,0,1868,0,0,0,0,0,0,0,255,242,0,0,0,0,0,1868,0,0,0,0,2110,0,.78,BRENNTAG NA INC,092963644
2001,79762DLTDS108E6,BRENNTAG SOUTHWEST INC. ODESSA,108 E. 67TH ST.,ODESSA,ECTOR,TX,79762,31.90713,-102.392331,5169,,,,,,424690,,,,,,1301150080962,TOLUENE,000108883,YES,NON-PBT,NO,0,NO,R,Pounds,250,750,0,0,0,0,0,0,0,0,0,0,1000,0,0,0,0,0,0,0,0,0,0,0,0,0,0,0,0,0,0,0,0,0,0,0,0,0,0,0,0,0,0,0,0,0,0,0,0,0,1000,677,0,0,0,0,0,0,0,0,0,0,677,0,.77,BRENNTAG INC,092963644
2001,79360DDNSW2800S,UNITED FUEL & ENERGY CORP,2800 S HWY 385,SEMINOLE,GAINES,TX,79360,32.699722,-102.64444,5171,,,,,,424710,,,,,,1301150077966,XYLENE (MIXED ISOMERS),001330207,YES,NON-PBT,NO,0,NO,R,Pounds,55,0,0,0,0,0,0,0,0,0,0,0,55,0,0,0,0,0,0,0,0,0,0,0,0,0,0,0,0,0,0,0,0,0,0,0,0,0,0,0,0,0,0,0,0,0,0,0,0,0,55,55,0,0,0,0,0,0,0,0,0,0,55,0,0,NA,NA
2001,79745DDNSW1934S,UNITED FUEL & ENERGY CORP,1934 S HWY 18,KERMIT,WINKLER,TX,79745,31.833055,-103.08222,5171,,,,,,424710,,,,,,1301150081178,XYLENE (MIXED ISOMERS),001330207,YES,NON-PBT,NO,0,NO,R,Pounds,179,0,0,0,0,0,0,0,0,0,0,0,179,0,0,0,0,0,0,0,0,0,0,0,0,0,0,0,0,0,0,0,0,0,0,0,0,0,0,0,0,0,0,0,0,0,0,0,0,0,179,179,0,0,0,0,0,0,0,0,0,0,179,0,0,NA,NA
2001,75155CSTNT3030S,CASITA ENTERPRISES INC,3030 SO MCKINNEY,RICE,NAVARRO,TX,75155,32.18884,-96.47206,3792,,,,,,336214,,,,,,1301150007654,STYRENE,000100425,YES,NON-PBT,NO,0,YES,R,Pounds,250,43300,0,0,0,0,0,0,0,0,0,0,43550,0,0,0,0,0,0,0,0,0,48800,0,0,0,0,0,0,0,0,0,250,49050,0,0,0,0,0,0,0,0,0,0,0,0,0,0,0,0,92600,43300,0,0,0,0,0,0,0,0,39300,48800,131400,0,1.02,NA,NA
2001,75208MCKYT511WC,MICKEY TRUCK BODIES INC,511 W COMMERCE SE ST,DALLAS,DALLAS,TX,75208,32.77299,-96.83243,3713,,,,,,336211,,,,,,1301150033975,"SULFURIC ACID (1994 AND AFTER ""ACID AEROSOLS"" ONLY)",007664939,NO,NON-PBT,NO,0,NO,R,Pounds,600,0,0,0,0,0,0,0,0,0,0,0,600,0,0,0,0,0,0,0,0,0,0,0,0,0,0,0,0,0,0,0,0,0,0,0,0,0,0,0,0,0,0,0,0,0,0,0,0,0,600,600,0,0,0,0,0,0,0,0,0,0,600,0,0,NA,NA
2001,77539DRTHR2700A,DURATHERM INC,2700 AVE S,SAN LEON,GALVESTON,TX,77539,29.468788,-94.965569,4953,,,,,,562211,,,,,,1301150034128,LEAD,007439921,YES,PBT,YES,1,YES,R,Pounds,0,0,0,0,0,0,0,0,0,0,0,0,0,0,0,0,0,0,0,25,0,0,12900,0,0,0,0,0,0,0,0,0,4200,17125,0,0,0,0,0,0,0,0,0,0,0,0,0,0,0,0,17125,17125,0,0,0,0,0,0,0,0,0,0,17125,0,0,DURATHERM INC,809773021
2001,75090MMCST6416U,MEMC SOUTHWEST INC,6416 HWY. 75 S.,SHERMAN,GRAYSON,TX,750919493,33.563333,-96.607222,3674,,,,,,334413,,,,,,1301150030880,NITRATE COMPOUNDS,N511,NO,NON-PBT,NO,0,NO,R,Pounds,0,0,0,0,0,0,0,0,0,0,0,0,0,0,16000,16000,0,0,0,0,0,0,0,0,0,0,0,0,0,0,0,0,0,0,0,0,0,0,0,0,0,0,0,0,0,0,0,0,0,0,0,0,0,0,0,0,0,0,0,0,0,16000,16000,0,.35,MEMC ELECTRONIC MATERIALS INC,361834617
2001,75119NNSPN2800O,ENNIS PAINT INC,2803 OLD HWY 75 N,ENNIS,ELLIS,TX,75119,32.361505,-96.641932,2851,,,,,,325510,,,,,,1301150031060,METHYL ETHYL KETONE,000078933,NO,NON-PBT,NO,0,NO,R,Pounds,48,484,0,0,0,0,0,0,0,0,0,0,532,0,0,0,0,0,0,0,0,0,0,0,0,0,0,0,0,0,0,0,0,0,0,0,0,0,0,0,2166,0,2166,0,0,0,0,0,0,0,532,532,0,0,0,0,0,2166,0,0,0,0,2698,0,1.16,ENNIS PAINT,NA
2001,77501GRGGL3503P,GEORGIA GULF CHEMICALS & VINYL S LLC - PASADENA,3503 PASADENA FWY,PASADENA,HARRIS,TX,775031105,29.732833,-95.1545,2865,,,,,,325192,,,,,,1301150063939,CUMENE,000098828,YES,NON-PBT,NO,0,NO,R,Pounds,29473,13022,0,0,0,0,0,0,0,0,0,0,42495,0,0,0,0,0,0,0,0,0,0,0,0,0,0,0,0,0,0,0,0,0,0,0,0,0,0,0,0,0,0,0,0,1,0,0,0,1,42495,42496,0,0,0,0,29753,0,176158,0,258458,1,506866,0,.63,GEORGIA GULF CORP,120957840
2001,77501GRGGL3503P,GEORGIA GULF CHEMICALS & VINYL S LLC - PASADENA,3503 PASADENA FWY,PASADENA,HARRIS,TX,775031105,29.732833,-95.1545,2865,,,,,,325192,,,,,,1301150064018,NITRATE COMPOUNDS,N511,NO,NON-PBT,NO,0,NO,R,Pounds,0,0,32443,0,0,0,0,0,0,0,0,0,32443,0,0,0,0,0,0,0,0,0,0,0,0,0,0,0,0,0,0,0,0,0,0,0,0,0,0,0,0,0,0,0,0,0,0,0,0,0,32443,32443,0,0,0,0,0,0,0,0,0,0,32443,0,.71,GEORGIA GULF CORP,120957840
2001,79549RF   16THA,REEF CHEMICAL CORP INC,1600 AVE Q,SNYDER,SCURRY,TX,79549,32.726138,-100.915799,2899,,,,,,325998,,,,,,1301150096269,TOLUENE,000108883,YES,NON-PBT,NO,0,NO,R,Pounds,0,0,0,0,0,0,0,0,0,0,0,0,0,0,0,0,0,0,0,0,0,0,0,0,0,0,0,0,0,0,0,0,0,0,0,0,0,0,0,0,0,0,0,0,0,0,0,0,0,0,0,0,0,0,0,0,0,0,0,0,0,0,0,0,0,NA,NA
2001,79763DDNSW3800S,EDDINS WALCHER CO,3800 SLATOR,ODESSA,ECTOR,TX,79763,31.870018,-102.425367,5171,,,,,,424710,,,,,,1301150096713,NAPHTHALENE,000091203,YES,NON-PBT,NO,0,NO,R,Pounds,30,0,0,0,0,0,0,0,0,0,0,0,30,0,0,0,0,0,0,0,0,0,0,0,0,0,0,0,0,0,0,0,0,0,0,0,0,0,0,0,0,0,0,0,0,0,0,0,0,0,30,30,0,0,0,0,0,0,0,0,0,0,30,0,0,NA,NA
2001,76241FLTDS1501W,FLEET DESIGN INC.,1501 W END DR.,GAINESVILLE,COOKE,TX,76240,33.64,-97.200833,3471,,,,,,332813,,,,,,1301150008617,COPPER,007440508,NO,NON-PBT,YES,1,NO,R,Pounds,0,0,0,0,0,0,0,0,0,0,0,0,0,0,0,0,0,0,0,0,0,0,0,0,0,0,0,0,0,0,0,0,0,0,0,3184,0,0,0,3184,0,0,0,0,0,0,0,0,0,0,0,0,0,0,0,0,0,0,0,3184,0,0,3184,0,0,IMPERIAL GROUP LP,NA
2001,75050WYNNK1102W,VALEO CLIMATE CONTROL,1102 W.N. CARRIER PKY.,GRAND PRAIRIE,TARRANT,TX,75050,32.784722,-97.049444,3585,,,,,,333415,,,,,,1301150002448,TRICHLOROETHYLENE,000079016,YES,NON-PBT,NO,0,YES,R,Pounds,14000,0,0,0,0,0,0,0,0,0,0,0,14000,0,0,0,0,0,0,0,0,0,0,0,0,0,0,0,0,0,0,0,0,0,11380,0,0,0,0,11380,0,0,0,0,0,0,0,0,0,0,14000,14080,0,0,0,0,0,0,0,11380,0,0,25460,0,0,VALEO CLIMATE CONTROL,095438438
2001,75607LDNMRFM349,ALDON MARBLE MANUFACTURING CO,FM 349 & FM 2011,LONGVIEW,GREGG,TX,75603,32.40395,-94.76352,3088,,,,,,326191,,,,,,1301150002513,STYRENE,000100425,YES,NON-PBT,NO,0,YES,R,Pounds,0,10400,0,0,0,0,0,0,0,0,0,0,10400,0,0,0,0,0,0,0,0,0,0,0,0,0,0,0,0,0,0,0,0,0,0,0,0,0,0,0,0,0,0,0,0,0,0,0,0,0,10400,10400,0,0,0,0,0,0,0,0,0,0,10400,0,0,NA,NA
2001,78744GTCTN3733D,GTI COATINGS INC,3733 DROSSETT DR,AUSTIN,TRAVIS,TX,787441101,30.211697,-97.730564,3471,3479,,,,,332813,,,,,,1301150060539,COPPER COMPOUNDS,N100,NO,NON-PBT,YES,1,NO,R,Pounds,0,0,0,0,0,0,0,0,0,0,0,0,0,0,0,0,0,0,0,0,0,0,0,0,0,0,0,0,0,0,0,0,0,0,0,25333,0,0,0,25333,0,0,0,0,0,0,0,0,0,0,0,0,0,0,0,0,0,0,0,25333,0,0,25333,0,1.18,NA,NA
2001,78370BYCHMSTATE,GENERAL CHEMICAL,5302 COUNTY RD 2047,ODEM,SAN PATRICIO,TX,78370,27.956116,-97.596982,2899,,,,,,325998,,,,,,1301150064501,AMMONIA,007664417,NO,NON-PBT,NO,0,NO,R,Pounds,250,250,0,0,0,0,0,0,0,0,0,0,500,0,0,0,0,0,0,0,0,0,0,0,0,0,0,0,0,0,0,0,0,0,0,0,0,0,0,0,0,0,0,0,0,0,0,0,0,0,500,37,0,0,0,0,0,0,0,0,0,0,37,0,.92,GENERAL CHEMICAL LLC,NA
2001,76401NRTNC2770W,SAINT-GOBAIN ABRASIVES,2770 W WASHINGTON ST,STEPHENVILLE,ERATH,TX,76401,32.204613,-98.236958,3291,,,,,,327910,,,,,,1301150001978,ZINC COMPOUNDS,N982,NO,NON-PBT,YES,1,NO,R,Pounds,0,0,0,0,0,0,0,0,0,0,0,0,0,0,0,0,0,0,0,0,0,0,2644,0,0,0,0,0,0,0,0,0,0,2644,0,0,0,0,0,0,0,0,0,0,0,0,0,0,0,0,2644,529,0,0,0,0,0,0,0,0,0,0,529,0,0,SAINT-GOBAIN CORP,001126234
2001,76579CHDCS222LE,C&H DIE CASTING INC,222 LELY ST,TROY,BELL,TX,76579,31.191223,-97.306636,3363,,,,,,331521,,,,,,1301150057786,LEAD,007439921,YES,PBT,YES,1,YES,R,Pounds,0,0,0,0,0,0,0,0,0,0,0,0,0,0,0,0,0,0,0,0,0,0,105,0,0,0,0,0,0,0,0,0,0,105,0,445,0,0,0,445,0,0,0,0,0,0,0,0,0,0,105,550,0,0,0,0,0,0,5527,436,0,0,6513,0,1.15,C&H DIE CASTING INC,NA
2001,79355DDNSW1370U,EDDINS WALCHER CO,1370 US HWY 82,PLAINS,YOAKUM,TX,79355,33.189444,-102.83527,5171,,,,,,424710,,,,,,1301150093348,NAPHTHALENE,000091203,YES,NON-PBT,NO,0,NO,R,Pounds,5,0,0,0,0,0,0,0,0,0,0,0,5,0,0,0,0,0,0,0,0,0,0,0,0,0,0,0,0,0,0,0,0,0,0,0,0,0,0,0,0,0,0,0,0,0,0,0,0,0,5,5,0,0,0,0,0,0,0,0,0,0,5,0,0,NA,NA
2001,77507QSTSP12500,SSI CHUSEI INC,12500 BAY AREA BLVD,PASADENA,HARRIS,TX,775071308,29.630162,-95.04601,2869,,,,,,325199,,,,,,1301150065454,ALLYL ALCOHOL,000107186,NO,NON-PBT,NO,0,NO,R,Pounds,216,209,0,0,0,0,0,0,0,0,0,0,425,0,211,211,0,0,0,0,0,0,0,0,0,0,0,0,0,0,0,0,0,0,0,0,0,0,0,0,3464,0,3464,0,491760,9,0,0,0,491769,425,425,0,0,0,0,0,3464,0,0,10456,491769,506114,0,.3,SSI CHUSEI INC,858728389
2001,77507QSTSP12500,SSI CHUSEI INC,12500 BAY AREA BLVD,PASADENA,HARRIS,TX,775071308,29.630162,-95.04601,2869,,,,,,325199,,,,,,1301150065617,MALEIC ANHYDRIDE,000108316,YES,NON-PBT,NO,0,NO,R,Pounds,0,1,0,0,0,0,0,0,0,0,0,0,1,0,0,0,0,0,0,0,0,0,0,0,0,0,0,0,0,0,0,0,0,0,0,0,0,0,0,0,0,0,0,0,0,0,0,0,0,0,1,1,0,0,0,0,0,0,0,0,29,0,30,0,0,SSI CHUSEI INC,858728389
2001,77580NTRPR10207,ENTERPRISE PRODUCTS OPERATING LLC,10207 FM 1942,MONT BELVIEU,CHAMBERS,TX,775800573,29.857222,-94.900278,2869,5171,2911,1321,,,325000,,,,,,1301150083893,METHANOL,000067561,YES,NON-PBT,NO,0,NO,R,Pounds,750,250,0,0,0,0,0,0,0,0,0,0,1000,0,0,0,0,0,0,0,0,0,0,0,0,0,0,0,0,0,0,0,0,0,0,0,0,0,0,0,0,0,0,0,0,0,0,0,0,0,1000,620,0,0,0,0,0,0,0,0,0,0,620,0,1.03,ENTERPRISE PRODUCTS OPERATING LLC,048210686
2001,76017NTNLS1111W,NATIONAL SEMICONDUCTOR CORP,1111 W BARDIN RD,ARLINGTON,TARRANT,TX,76017,32.672778,-97.1275,3674,,,,,,334413,,,,,,1301150058384,HYDROGEN FLUORIDE,007664393,YES,NON-PBT,NO,0,NO,R,Pounds,0,793,0,0,0,0,0,0,0,0,0,0,793,0,0,0,0,0,0,0,0,0,0,0,0,0,0,0,0,0,0,0,0,0,0,0,0,0,0,0,0,0,0,0,0,0,0,1931,0,1931,793,793,0,0,0,0,0,0,0,0,73751,1931,76475,0,1.1,NATIONAL SEMICONDUCTOR CORP,041472986
2001,77902DPNTVOLDBL,DUPONT VICTORIA PLANT,2697 OLD BLOOMINGTON RD N,VICTORIA,VICTORIA,TX,77905,28.678138,-96.970861,2869,,,,,,325188,,,,,,1301150066203,ACETONITRILE,000075058,YES,NON-PBT,NO,0,NO,R,Pounds,2,699,0,68,0,3,0,0,0,0,0,0,772,0,0,0,0,0,0,0,0,0,0,0,0,0,0,0,0,0,0,0,0,0,0,0,0,0,0,0,0,0,0,0,0,22,0,0,0,22,772,772,0,0,0,0,887310,0,0,0,60988,22,949092,0,.81,E I DU PONT DE NEMOURS & CO INC,001315704
2001,76950DDNSW1505W,UNITED FUEL & ENERGY CORP,1505 W CROCKETT,SONORA,SUTTON,TX,76950,30.560204,-100.639235,5171,,,,,,424710,,,,,,1301150091015,BENZENE,000071432,YES,NON-PBT,NO,0,YES,R,Pounds,15,0,0,0,0,0,0,0,0,0,0,0,15,0,0,0,0,0,0,0,0,0,0,0,0,0,0,0,0,0,0,0,0,0,0,0,0,0,0,0,0,0,0,0,0,0,0,0,0,0,15,15,0,0,0,0,0,0,0,0,0,0,15,0,0,UNITED FUEL & ENERGY CORP,NA
2001,78551VLLYC1901N,VALLEY CO-OP OIL MILL,1901 N EXPRESSWAY 77,HARLINGEN,CAMERON,TX,78551,26.213056,-97.72,2074,,,,,,311223,,,,,,1301150193199,N-HEXANE,000110543,YES,NON-PBT,NO,0,NO,R,Pounds,107640,251180,0,0,0,0,0,0,0,0,0,0,358820,0,0,0,0,0,0,0,0,0,0,0,0,0,0,0,0,0,0,0,0,0,0,0,0,0,0,0,0,0,0,0,0,0,0,0,0,0,358820,358820,0,0,0,0,0,0,0,0,0,0,358820,0,0,NA,NA
2001,75244DLLSS4350B,MAXIM INTEGRATED PRODUCTS,4350 S BELTWOOD PKWY,DALLAS,DALLAS,TX,752443292,32.948145,-96.834734,3674,,,,,,334413,,,,,,1301150193338,NITRIC ACID,007697372,NO,NON-PBT,NO,0,NO,R,Pounds,0,91,0,0,0,0,0,0,0,0,0,0,91,0,0,0,0,0,0,0,0,0,0,0,0,0,0,0,0,0,0,0,0,0,0,0,0,0,0,0,0,0,0,0,0,0,0,0,0,0,91,91,0,0,0,0,0,0,0,0,14492,0,14583,0,.67,MAXIM INTEGRATED PRODUCTS INC,102112489
2001,75060SCHNM111NN,SCHNEE-MOREHEAD INC,111 N NURSERY RD,IRVING,DALLAS,TX,75060,32.814753,-96.934349,2891,,,,,,325520,,,,,,1301150190080,BUTYL ACRYLATE,000141322,NO,NON-PBT,NO,0,NO,R,Pounds,250,250,0,0,0,0,0,0,0,0,0,0,500,0,0,0,0,0,0,0,0,0,0,0,0,0,0,0,0,0,0,0,250,250,0,0,0,0,0,0,750,0,750,0,0,0,0,0,0,0,750,750,0,0,0,0,0,760,1,0,690,0,2201,0,.9,ILLINOIS TOOL WORKS INC,NA
2001,77303CHMCL5HACK,CHEMICAL SPECIALISTS & DEVELOPMENT INC,2210 HACKBERRY LN,CUT AND SHOOT,MONTGOMERY,TX,77303,30.320797,-95.389303,5169,,,,,,325510,,,,,,1301150157131,METHYL ETHYL KETONE,000078933,NO,NON-PBT,NO,0,NO,R,Pounds,280,3635,0,0,0,0,0,0,0,0,0,0,3915,0,0,0,0,0,0,0,0,0,0,0,0,0,0,0,0,0,0,0,0,0,0,0,0,0,0,0,0,0,0,0,0,0,0,0,0,0,3915,3915,0,0,0,0,0,0,0,0,0,0,3915,0,1.11,NA,NA
2001,75604STHWS600FO,SOUTHWEST STEEL CASTING CO,600 FOUNDRY DR,LONGVIEW,GREGG,TX,75604,32.49432,-94.81323,3325,,,,,,331513,,,,,,1301150161091,NAPHTHALENE,000091203,YES,NON-PBT,NO,0,NO,R,Pounds,1300,0,0,0,0,0,0,0,0,0,0,0,1300,0,0,0,0,0,0,0,0,0,0,0,0,0,0,0,0,0,0,0,0,0,0,0,0,0,0,0,0,0,0,0,0,0,0,0,0,0,1300,1300,0,0,0,0,0,0,0,0,0,0,1300,0,87,AMERICAN RAILCAR INDUSTRIES INC,929875615
2001,78410LNCHL3501C,AMERICAN ELECTRIC POWER LON C. HILL POWER STATION,3501 CALLICOATTE RD.,CORPUS CHRISTI,NUECES,TX,78410,27.849056,-97.618111,4911,,,,,,221122,,,,,,1301150167753,"BENZO(G,H,I)PERYLENE",000191242,YES,PBT,NO,0,YES,R,Pounds,0,0,0,0,0,0,0,0,0,0,0,0,0,0,0,0,0,0,0,0,0,0,0,0,0,0,0,0,0,0,0,0,0,0,0,0,0,0,0,0,0,0,0,0,0,0,0,0,0,0,0,0,0,0,0,0,0,0,0,0,0,0,0,0,1,AMERICAN ELECTRIC POWER,006979868
2001,77960CLTCRFMRD2,COLETO CREEK POWER STATION,45 FM 2987,FANNIN,GOLIAD,TX,77960,28.69761,-97.23691,4911,,,,,,221112,,,,,,1301150167839,NICKEL COMPOUNDS,N495,YES,NON-PBT,YES,1,NO,R,Pounds,250,280,0,0,0,0,0,0,15000,0,0,0,15530,0,0,0,0,0,0,0,0,0,0,0,0,0,0,0,0,0,0,0,0,0,0,0,0,0,2210,2210,0,0,0,0,0,0,0,0,0,0,15530,16000,0,0,0,0,0,0,0,2200,0,0,18200,0,.91,NA,NA
2001,76310CRTNT4515A,SAINT-GOBAIN VETROTEX AMERICA INC,4515 ALLENDALE RD,WICHITA FALLS,WICHITA,TX,763102199,33.864827,-98.595912,3229,,,,,,327212,,,,,,1301150190142,CERTAIN GLYCOL ETHERS,N230,YES,NON-PBT,NO,0,NO,R,Pounds,0,62578,0,0,0,0,0,0,0,0,0,0,62578,0,26335,26335,0,0,0,0,0,0,0,0,0,0,0,0,0,0,0,0,0,0,0,0,0,0,0,0,0,5,5,0,0,0,0,0,0,0,62578,62578,0,0,0,0,0,5,0,0,0,26335,88918,0,.86,NA,NA
2001,76140MLLRB6600W,BALL METAL BEVERAGE CONTAINER CORP,6600 WILL ROGERS BLVD,FORT WORTH,TARRANT,TX,76140,32.6492,-97.31301,3411,,,,,,332431,,,,,,1301150193629,N-BUTYL ALCOHOL,000071363,NO,NON-PBT,NO,0,NO,R,Pounds,10000,11000,0,0,0,0,0,0,0,0,0,0,21000,0,0,0,0,0,0,0,0,0,0,0,0,0,0,0,0,0,0,0,0,0,0,0,0,0,0,0,0,75,75,0,0,0,0,0,0,0,21000,21000,0,0,0,0,0,75,0,0,80000,0,101075,0,.85,BALL CORP,006419147
2001,77580DMNDS316SO,EAST STORAGE / SPLITTER III FACILITY,316 S MAIN ST,MONT BELVIEU,CHAMBERS,TX,77580,29.84459,-94.88999,2869,4226,,,,,325110,,,,,,1301150190344,PROPYLENE,000115071,NO,NON-PBT,NO,0,NO,R,Pounds,44000,11700,0,0,0,0,0,0,0,0,0,0,55700,0,0,0,0,0,0,0,0,0,0,0,0,0,0,0,0,0,0,0,0,0,0,0,0,0,0,0,0,0,0,0,0,0,0,0,0,0,55700,55700,0,0,0,0,0,0,0,0,11446,0,67146,8100,.84,ENTERPRISE PRODUCTS OPERATING LLC,048210686
2001,76117KYSRN4201J,KYSOR PANEL SYSTEMS,4201 JANADA ST,HALTOM CITY,TARRANT,TX,76117,32.82552,-97.27581,3585,,,,,,333415,,,,,,1301150197147,"1,1-DICHLORO-1-FLUOROETHANE",001717006,NO,NON-PBT,NO,0,NO,R,Pounds,11200,0,0,0,0,0,0,0,0,0,0,0,11200,0,0,0,0,0,0,0,0,0,0,0,0,0,0,0,0,0,0,0,0,0,0,0,0,0,0,0,0,0,0,0,0,0,0,0,0,0,11200,11200,0,0,0,0,0,0,0,0,0,0,11200,0,1.19,KYSOR INDUSTRIAL CORP,NA
2001,75034GNBNCSOUTH,EXIDE TECHNOLOGIES FRISCO RECYCLING CENTER,7471 S FIFTH ST,FRISCO,COLLIN,TX,75034,33.1425,-96.835,3341,2819,,,,,331492,,,,,,1301150150112,ARSENIC,007440382,YES,NON-PBT,YES,1,YES,R,Pounds,3,23,1,0,0,0,2021,0,0,0,0,0,2048,4,0,4,0,0,0,0,0,0,0,0,0,0,0,0,0,0,0,0,0,0,0,0,0,0,0,0,0,0,0,0,0,0,0,0,0,0,2052,2050,0,0,0,0,0,0,2600,0,0,0,4650,0,1.04,EXIDE TECHNOLOGIES,006451090
2001,77536DSPSL2525B,TM DEER PARK SERVICES LP,2525 BATTLEGROUND RD,DEER PARK,HARRIS,TX,77536,29.733278,-95.091861,2869,7389,,,,,562000,,,,,,1301150118560,BENZENE,000071432,YES,NON-PBT,NO,0,YES,R,Pounds,1630,250,0,0,0,0,0,0,0,0,0,0,1880,0,0,0,0,0,0,0,0,0,0,0,0,0,0,0,0,0,0,0,0,0,0,0,0,0,0,0,750,0,750,0,0,0,0,0,0,0,1880,1963,0,0,0,0,0,731,0,0,0,0,2694,0,0,TEXAS MOLECULAR LP,042400759
2001,75840BGBRW11MIE,BIG BROWN STEAM ELECTRIC STATION & LIGNITE MINE,11 MI E OF FAIRFIELD ON FM 2570,FAIRFIELD,FREESTONE,TX,75840,31.7425,-96.15,4911,,,,,,221112,,,,,,1301150118659,COPPER COMPOUNDS,N100,NO,NON-PBT,YES,1,NO,R,Pounds,0,253,2,0,0,0,75680,0,0,0,0,0,75935,0,0,0,0,0,0,0,0,0,0,0,0,0,0,0,0,0,0,0,0,0,0,0,0,0,0,0,0,0,0,0,0,0,0,0,0,0,75935,75936,0,0,0,0,0,0,0,0,0,0,75936,0,1.36,LUMINANT GENERATION CO LLC,109506043
2001,75601HGHLNFM275,WEATHERFORD ARTIFICIAL LIFT SYSTEMS,2143 FM 2751,LONGVIEW,GREGG,TX,75605,32.616667,-94.741667,3561,,,,,,333911,,,,,,1301150125146,LEAD,007439921,YES,PBT,YES,1,YES,R,Pounds,0,0,0,0,0,0,0,0,0,0,0,0,0,0,0,0,0,0,0,0,0,0,0,0,0,0,0,0,0,0,0,0,0,0,0,0,0,0,0,0,0,0,0,0,0,0,0,0,0,0,0,0,0,0,0,0,0,0,0,0,0,0,0,0,.83,WEATHERFORD INTERNATIONAL,062157284
2001,79567LJRMNHWY15,SELKIRK AIRMATE DIV,1111 W DALE ST,WINTERS,RUNNELS,TX,79567,31.95791,-99.975135,3499,,,,,,332322,,,,,,1301150154096,MANGANESE COMPOUNDS,N450,YES,NON-PBT,YES,1,NO,R,Pounds,0,0,0,0,0,0,0,0,0,0,0,0,0,5,0,5,0,0,0,0,0,0,0,0,0,0,0,0,0,0,0,0,0,0,0,15000,0,0,0,15000,0,0,0,0,0,0,0,0,0,0,5,0,0,0,0,0,0,0,0,15000,0,0,15000,0,.3,TINICUM,NA
2001,77471QNXCRSCOTT,VISION METALS INC. GULF STATES TUBE DIV.,221 SCOTT RD.,ROSENBERG,FORT BEND,TX,77471,29.542015,-95.852234,3317,,,,,,331210,,,,,,1301150183200,MANGANESE,007439965,YES,NON-PBT,YES,1,NO,R,Pounds,0,0,0,0,0,0,0,0,0,0,0,0,0,0,0,0,0,0,0,485,0,0,396,0,0,0,0,0,0,0,0,0,0,881,0,0,0,0,0,0,0,0,0,0,0,0,0,0,0,0,881,881,0,0,0,0,0,0,0,0,0,0,881,0,.77,VISION METALS INC,055146492
2001,75840BGBRW11MIE,BIG BROWN STEAM ELECTRIC STATION & LIGNITE MINE,11 MI E OF FAIRFIELD ON FM 2570,FAIRFIELD,FREESTONE,TX,75840,31.7425,-96.15,4911,,,,,,221112,,,,,,1301150118786,"SULFURIC ACID (1994 AND AFTER ""ACID AEROSOLS"" ONLY)",007664939,NO,NON-PBT,NO,0,NO,R,Pounds,0,10416,0,0,0,0,0,0,0,0,0,0,10416,0,0,0,0,0,0,0,0,0,0,0,0,0,0,0,0,0,0,0,0,0,0,0,0,0,0,0,0,0,0,0,0,0,0,0,0,0,10416,10416,0,0,0,0,0,0,0,0,0,0,10416,0,1.36,LUMINANT GENERATION CO LLC,109506043
2001,75691MRTNL8850F,MARTIN LAKE STEAM ELECTRIC STATION & LIGNITE MINE,8850 FM 2658 N,TATUM,RUSK,TX,75691,32.229667,-94.58275,4911,,,,,,221122,,,,,,1301150118848,"BENZO(G,H,I)PERYLENE",000191242,YES,PBT,NO,0,YES,R,Pounds,0,.3,0,0,0,0,0,0,0,0,0,0,.3,0,0,0,0,0,0,0,0,0,0,0,0,0,0,0,0,0,0,0,0,0,0,0,0,0,0,0,0,0,0,0,0,0,0,0,0,0,.3,.3,0,0,0,0,0,0,0,0,0,0,.3,0,.96,LUMINANT GENERATION CO LLC,109506043
2001,75691MRTNL8850F,MARTIN LAKE STEAM ELECTRIC STATION & LIGNITE MINE,8850 FM 2658 N,TATUM,RUSK,TX,75691,32.229667,-94.58275,4911,,,,,,221112,,,,,,1301150118887,DIOXIN AND DIOXIN-LIKE COMPOUNDS,N150,YES,DIOXIN,NO,0,NO,R,Grams,0,.0028,0,0,0,0,0,0,0,0,0,0,.0028,0,0,0,0,0,0,0,0,0,0,0,0,0,0,0,0,0,0,0,0,0,0,0,0,0,0,0,0,0,0,0,0,0,0,0,0,0,.0028,.0028,0,0,0,0,0,0,0,0,0,0,.0028,0,.96,LUMINANT GENERATION CO LLC,109506043
2001,75069NCRWR1410M,ENCORE WIRE CORP,1410 MILLWOOD RD,MC KINNEY,COLLIN,TX,75069,33.18117,-96.604643,3357,3351,3087,,,,331422,,,,,,1301150151239,ZINC COMPOUNDS,N982,NO,NON-PBT,YES,1,NO,R,Pounds,1,44,484,0,0,0,0,0,0,0,0,0,529,2,0,2,0,0,0,0,0,0,312,0,0,0,0,0,0,0,0,0,0,312,0,0,0,0,0,0,0,0,0,0,0,0,0,0,0,0,843,840,0,0,0,0,0,0,0,0,0,0,840,0,1.2,ENCORE WIRE CORP,NA
2001,77033GRDNR6733S,GARDNER ASPHALT INC,6733 SILSBEE ST,HOUSTON,HARRIS,TX,77033,29.682768,-95.328281,2952,,,,,,324122,,,,,,1301150148118,POLYCYCLIC AROMATIC COMPOUNDS,N590,YES,PBT,NO,0,YES,R,Pounds,1,1,0,0,0,0,0,0,0,0,0,0,2,0,0,0,0,0,0,0,0,0,0,0,0,0,0,0,0,0,0,0,0,0,0,0,0,0,0,0,0,0,0,0,0,0,0,0,0,0,2,2,0,0,0,0,0,0,0,0,0,0,2,0,1,GARDNER INDUSTRIES INC,041495490
2001,75455MNTCLOFFFM,MONTICELLO STEAM ELECTRIC STATION & LIGNITE MINE,OFF FM 127 8 MI SW OF MOUNT PLEASANT,MOUNT PLEASANT,TITUS,TX,75455,33.108833,-95.064861,4911,,,,,,221112,,,,,,1301150119283,SELENIUM COMPOUNDS,N725,YES,NON-PBT,YES,1,NO,R,Pounds,0,26830,0,0,0,0,29718,0,0,0,0,0,56548,0,0,0,0,0,0,0,0,0,0,0,0,0,0,0,0,0,0,0,0,0,0,0,0,0,0,0,0,0,0,0,0,0,0,0,0,0,56548,56548,0,0,0,0,0,0,0,0,0,0,56548,0,.94,LUMINANT GENERATION CO LLC,109506043
2001,76567SNDWS7MISW,SANDOW STEAM ELECTRIC STATION,7 MI SW OF ROCKDALE OFF FM 1786,ROCKDALE,MILAM,TX,76567,30.5642,-97.0639,4911,,,,,,221112,,,,,,1301150119333,ZINC COMPOUNDS,N982,NO,NON-PBT,YES,1,NO,R,Pounds,0,56,0,0,0,0,28077,0,0,0,0,0,28133,0,0,0,0,0,0,0,0,0,0,0,0,0,0,0,0,0,0,0,0,0,0,0,0,0,0,0,0,0,0,0,0,0,0,0,0,0,28133,28134,0,0,0,0,0,0,0,0,0,0,28134,0,.76,LUMINANT GENERATION CO LLC,109506043
2001,76567SNDWS7MISW,SANDOW STEAM ELECTRIC STATION,7 MI SW OF ROCKDALE OFF FM 1786,ROCKDALE,MILAM,TX,76567,30.5642,-97.0639,4911,,,,,,221112,,,,,,1301150119410,"HYDROCHLORIC ACID (1995 AND AFTER ""ACID AEROSOLS"" ONLY)",007647010,YES,NON-PBT,NO,0,NO,R,Pounds,0,11254,0,0,0,0,0,0,0,0,0,0,11254,0,0,0,0,0,0,0,0,0,0,0,0,0,0,0,0,0,0,0,0,0,0,0,0,0,0,0,0,0,0,0,0,0,0,0,0,0,11254,11254,0,0,0,0,0,0,0,0,0,0,11254,0,.76,LUMINANT GENERATION CO LLC,109506043
2001,77979BPCHMTEXAS,INEOS USA LLC           GREEN LAKE PLANT,TEXAS HWY 185,PORT LAVACA,CALHOUN,TX,77979,28.566421,-96.83919,2869,2819,,,,,325199,,,,,,1301150144487,CHLORINE,007782505,YES,NON-PBT,NO,0,NO,R,Pounds,509,0,663,0,0,0,0,0,0,0,0,0,1172,0,0,0,0,0,0,0,0,0,0,0,0,0,0,0,0,0,0,0,0,0,0,0,0,0,0,0,0,0,0,0,0,0,0,0,0,0,1172,1200,0,0,0,0,0,0,0,0,0,0,1200,0,.97,INEOS USA LLC,NA
2001,77979BPCHMTEXAS,INEOS USA LLC           GREEN LAKE PLANT,TEXAS HWY 185,PORT LAVACA,CALHOUN,TX,77979,28.566421,-96.83919,2869,2819,,,,,325199,,,,,,1301150144602,VANADIUM (EXCEPT WHEN CONTAINED IN AN ALLOY),007440622,NO,NON-PBT,YES,4,NO,R,Pounds,0,299,0,13700,0,0,0,0,0,0,0,0,13999,0,0,0,0,9161,0,0,0,0,0,0,0,0,0,0,0,0,0,0,0,9161,0,0,0,0,0,0,0,0,0,0,0,0,0,0,0,0,23160,23161,0,0,0,0,0,0,0,0,0,0,23161,0,1.46,INEOS USA LLC,NA
2001,78257SRMYC4782W,US ARMY CAMP BULLIS TRAINING SITE,RR-2 BLDG 5000,SAN ANTONIO,BEXAR,TX,78257,29.674999,-98.55278,9711,,,,,,928110,,,,,,1301150111856,LEAD,007439921,YES,PBT,YES,1,YES,R,Pounds,0,0,0,0,0,0,0,0,0,0,0,77226,77226,0,0,0,0,0,0,0,0,0,0,0,0,0,0,0,0,0,0,0,0,0,0,0,0,0,0,0,0,0,0,0,0,0,0,0,0,0,77226,77226,0,0,0,0,0,0,0,0,0,0,77226,0,0,US DEPARTMENT OF DEFENSE,NA
2001,76111HNTNG3600C,HUNTINGTON TILE GROUP,3600 CONWAY,FORT WORTH,TARRANT,TX,76111,32.76799,-97.296364,3253,,,,,,327122,,,,,,1301150113165,BARIUM,007440393,NO,NON-PBT,YES,3,NO,R,Pounds,0,5,0,0,0,0,0,0,0,0,0,0,5,250,0,250,0,0,0,0,0,0,3221,0,0,0,0,0,0,0,0,0,0,3221,0,0,0,0,0,0,0,0,0,0,0,0,0,0,0,0,3476,1380,0,0,0,0,0,0,0,0,0,0,1380,0,1.1,NA,NA
2001,79073XCLCRPOBOX,CARGILL MEAT SOLUTIONS CORP,N I-27 EXIT 54,PLAINVIEW,HALE,TX,79072,34.2497,-101.7042,2011,,,,,,311611,,,,,,1301150119600,NITRATE COMPOUNDS,N511,NO,NON-PBT,NO,0,NO,R,Pounds,0,0,0,0,0,0,0,77819,0,0,0,0,77819,0,0,0,0,0,0,0,0,0,0,0,0,0,0,0,0,0,0,0,0,0,0,0,0,0,0,0,0,0,0,0,0,0,0,0,0,0,77819,77819,0,0,0,0,0,0,0,0,2138866,0,2216685,0,1.02,CARGILL INC,006249189
2001,77627CCRYL6350N,LUCITE INTERNATIONAL INC,6350 N TWIN CITY HWY,NEDERLAND,JEFFERSON,TX,77627,30.008092,-94.03105,2869,,,,,,325211,,,,,,1301150116414,METHYL METHACRYLATE,000080626,YES,NON-PBT,NO,0,NO,R,Pounds,1715,1000,0,0,0,0,0,0,0,0,0,0,2715,0,0,0,0,0,0,0,0,0,0,0,0,0,0,0,0,0,0,0,0,0,0,0,0,0,0,0,0,0,0,21578,0,0,0,0,0,21578,2715,8763,0,0,0,0,414358,0,0,0,30379,0,453500,184,.96,LUCITE INTERNATIONAL INC,006266563
2001,77053WTCRG15200,AKZO NOBEL SURFACE CHEMISTRY LLC,15200 ALMEDA RD,HOUSTON,HARRIS,TX,77053,29.583889,-95.433889,2843,,,,,,325613,,,,,,1301150181004,PROPYLENE OXIDE,000075569,YES,NON-PBT,NO,0,YES,R,Pounds,555,36,0,0,0,0,0,0,0,0,0,0,591,0,0,0,0,0,0,0,0,0,0,0,0,0,0,0,0,0,0,0,0,0,0,0,0,0,0,0,0,0,0,0,0,0,0,0,0,0,591,592,0,0,0,0,0,0,0,0,0,0,592,250,1.01,AKZO NOBEL NV,062999347
2001,78758MLTLY3300W,MULTILAYER TEK L.P.,3300 W. BRAKER LN.,AUSTIN,TRAVIS,TX,78758,30.393194,-97.727191,3672,,,,,,334412,,,,,,1301150105462,ETHYLENE GLYCOL,000107211,YES,NON-PBT,NO,0,NO,R,Pounds,0,40,0,0,0,0,0,0,0,0,0,0,40,0,14000,14000,0,0,0,0,0,0,0,0,0,0,0,0,0,0,0,0,0,0,0,0,0,0,0,0,0,0,0,0,0,0,0,0,0,0,40,14007,0,0,0,0,0,0,0,0,0,0,14007,0,.1,FLEXTRONICS INTL,014607886
2001,75006WSTRN1735S,WESTERN EXTRUSIONS CORP,1735 SANDY LAKE RD,CARROLLTON,DALLAS,TX,75006,32.96857,-96.9216,3354,3479,3471,,,,331316,,,,,,1301150108761,CERTAIN GLYCOL ETHERS,N230,YES,NON-PBT,NO,0,NO,R,Pounds,0,10281,0,0,0,0,0,0,0,0,0,0,10281,0,5,5,0,0,0,0,0,0,290,0,0,0,0,0,0,0,0,0,0,290,0,0,0,0,0,0,0,0,0,0,0,0,0,0,0,0,10571,10281,0,0,0,0,0,0,3000,0,0,0,13281,0,1.04,NA,NA
2001,77501TNNCM4403L,ENRON METHANOL CO.,4403 PASADENA FWY.,PASADENA,HARRIS,TX,77503,29.712018,-95.146744,2869,,,,,,325000,,,,,,1301150141707,FORMALDEHYDE,000050000,YES,NON-PBT,NO,0,YES,R,Pounds,0,21497,0,0,0,0,0,0,0,0,0,0,21497,0,0,0,0,0,0,0,0,0,0,0,0,0,0,0,0,0,0,0,0,0,0,0,0,0,0,0,0,0,0,0,0,0,0,0,0,0,21497,21497,0,0,0,0,0,0,0,0,0,0,21497,0,.52,ENRON CORP,969986983
2001,78245DVNCD8611M,SONY SEMICONDUCTOR  SAN ANTONIO,ONE SONY PL,SAN ANTONIO,BEXAR,TX,78245,29.44489,-98.64136,3674,,,,,,334413,,,,,,1301150141808,HYDROGEN FLUORIDE,007664393,YES,NON-PBT,NO,0,NO,R,Pounds,5,1287,5,0,0,0,0,0,0,0,0,0,1297,0,0,0,0,0,0,0,0,0,0,0,0,0,0,0,0,0,0,0,0,0,0,0,0,0,0,0,0,0,0,584,0,0,0,0,0,584,1297,1287,0,0,0,0,0,0,0,0,103088,584,104959,0,.56,SONY CORP OF AMERICA,005902150
2001,77588SLVNT4704S,SOLVENTS & CHEMICALS INC.,4704 SHANK RD.,PEARLAND,BRAZORIA,TX,77581,29.573439,-95.294853,5169,,,,,,424690,,,,,,1301150149250,XYLENE (MIXED ISOMERS),001330207,YES,NON-PBT,NO,0,NO,R,Pounds,174,120,0,0,0,0,0,0,0,0,0,0,294,0,0,0,0,0,0,0,0,0,0,0,0,0,0,0,0,0,0,0,0,0,0,0,0,0,0,0,0,0,0,0,0,0,0,0,0,0,294,294,0,0,0,0,0,0,0,0,0,0,294,0,.88,SEMPRE AVANT LLC,NA
2001,75041CRRLL2900W,CARROLL CO,2900 W KINGSLEY RD,GARLAND,DALLAS,TX,750412311,32.878816,-96.673834,2841,,,,,,325611,,,,,,1301150184517,CERTAIN GLYCOL ETHERS,N230,YES,NON-PBT,NO,0,NO,R,Pounds,0,0,0,0,0,0,0,0,0,0,0,0,0,0,7804,7804,0,0,0,0,0,0,0,0,0,0,0,0,0,0,0,0,0,0,0,0,0,0,0,0,0,0,0,0,0,0,0,0,0,0,0,0,0,0,0,0,0,0,0,0,0,7804,7804,0,1.15,CARROLL CO,NA
2001,75120CRGLLPOBOX,HEXION SPECIALTY CHEMICALS INC,201 CEDAR RD,ENNIS,ELLIS,TX,75119,32.35479,-96.6448,2821,,,,,,325211,,,,,,1301150184657,PHTHALIC ANHYDRIDE,000085449,YES,NON-PBT,NO,0,NO,R,Pounds,109,142,0,0,0,0,0,0,0,0,0,0,251,0,0,0,0,0,0,0,0,0,0,0,0,0,0,0,0,0,0,0,0,0,0,0,0,0,0,0,0,0,0,0,0,0,0,0,0,0,251,251,0,0,0,0,0,0,0,0,0,0,251,0,.8,HEXION SPECIALTY CHEMICALS INC,001338797
2001,75243DRSNF13532,DRS RSTA INC,13532 N CENTRAL EXPRESSWAY,DALLAS,DALLAS,TX,75243,32.933373,-96.753364,3674,,,,,,334413,,,,,,1301150141885,MERCURY,007439976,YES,PBT,YES,1,NO,R,Pounds,0,0,0,0,0,0,0,0,0,0,0,0,0,0,0,0,0,0,0,0,0,0,0,0,0,0,0,0,0,0,0,0,0,0,0,6.4,320,0,0,326.4,0,0,0,0,0,0,0,0,0,0,0,326.4,0,0,0,0,0,0,0,326.4,0,0,652.8,0,0,FINMECCANICA SPA,061345351
2001,77009STHWS1312H,SOUTHWESTERN PLATING CO INC,1312 HALPERN,HOUSTON,HARRIS,TX,77009,29.7875,-95.3533,3471,,,,,,332813,,,,,,1301150141986,CADMIUM COMPOUNDS,N078,YES,NON-PBT,YES,1,NO,R,Pounds,250,0,0,0,0,0,0,0,0,0,0,0,250,250,0,250,0,6577,0,764,0,0,0,0,0,0,0,0,0,0,0,0,0,7341,0,0,0,0,0,0,0,0,0,0,0,0,0,0,0,0,7841,7436,0,0,0,0,0,0,0,0,0,0,7436,0,1,SOUTHWESTERN PLATING CO,NA
2001,77064TXSRN8204F,TEXAS ARAI,8204 FAIRBANKS N HOUSTON RD,HOUSTON,HARRIS,TX,77064,29.900041,-95.52483,3498,3471,3479,,,,332996,,,,,,1301150184986,ZINC COMPOUNDS,N982,NO,NON-PBT,YES,1,NO,R,Pounds,3,0,10,0,0,0,0,0,0,0,0,0,13,0,0,0,0,0,1583,0,0,0,3615,0,0,0,0,0,0,0,0,0,0,5198,0,0,0,0,0,0,0,0,0,0,0,0,0,0,0,0,5211,5211,0,0,0,0,0,0,0,0,0,0,5211,0,1.02,MAVERICK TUBE CORP,086918398
2001,78550NDRSN5801E,TYCO VALVES & CONTROLS HARLINGEN,5801 E HARRISON,HARLINGEN,CAMERON,TX,78550,26.191419,-97.61862,3471,3491,,,,,332813,,,,,,1301150135301,LEAD,007439921,YES,PBT,YES,1,YES,R,Pounds,0,0,0,0,0,0,0,0,0,0,0,0,0,0,0,0,0,0,0,0,0,0,0,0,0,0,0,0,0,0,0,0,0,0,0,0,0,0,179,179,0,0,0,0,0,0,0,0,0,0,0,0,0,0,0,0,0,0,0,179,0,0,179,0,0,TYCO INTERNATIONAL LTD,NA
2001,76714HCKMN8001I,ALCOA FASTENING SYSTEMS,8001 IMPERIAL,WACO,MCLENNAN,TX,76714,31.494444,-97.202778,3452,3471,,,,,332722,,,,,,1301150185054,MANGANESE,007439965,YES,NON-PBT,YES,1,NO,R,Pounds,0,5,0,0,0,0,0,0,0,0,0,0,5,0,0,0,500,0,0,0,0,0,10,0,0,0,0,0,0,0,0,0,0,510,0,0,20924,0,0,20924,0,0,0,0,0,0,0,0,0,0,515,541,0,0,0,0,0,0,0,20924,0,0,21465,0,.8,ALCOA INC,001339472
2001,77868NTRSTINTER,ELLWOOD TEXAS FORGE NAVASOTA,10908 COUNTY RD 419,NAVASOTA,GRIMES,TX,77868,30.345472,-96.078556,3462,,,,,,332111,,,,,,1301150175382,CHROMIUM COMPOUNDS(EXCEPT CHROMITE ORE MINED IN THE TRANSVAAL REGION),N090,YES,NON-PBT,YES,1,NO,R,Pounds,0,5,0,0,0,0,0,0,0,0,0,0,5,0,0,0,0,0,0,0,0,0,0,0,0,0,0,0,0,0,0,0,0,0,0,0,215246,0,0,215246,0,0,0,0,0,0,0,0,0,0,5,2,0,0,0,0,0,0,0,215247,0,0,215249,0,1.14,NA,NA
2001,78521TRCTC1995B,TRICO PRODUCTS CORP,1995 BILLY MITCHELL BLVD,BROWNSVILLE,CAMERON,TX,78521,25.910833,-97.439444,3714,,,,,,336399,,,,,,1301150172979,COPPER,007440508,NO,NON-PBT,YES,1,NO,R,Pounds,500,0,0,0,0,0,0,0,0,0,0,0,500,4,0,4,0,0,0,0,0,0,0,0,0,0,0,0,0,0,0,0,0,0,0,0,4809,0,0,4809,0,0,0,0,0,0,0,0,0,0,504,500,0,0,0,0,0,0,0,4809,0,0,5309,0,.98,KOHLBERG & CO,615960341
2001,79371STHWS8MISW,SOUTHWESTERN PUBLIC SERVICE CO TOLK STATION,970 COUNTY RD 65,EARTH,LAMB,TX,79031,34.185,-102.5675,4911,,,,,,221112,,,,,,1301150185546,LEAD COMPOUNDS,N420,YES,PBT,YES,1,NO,R,Pounds,1,63,0,0,0,0,0,0,0,0,0,0,64,0,0,0,0,0,0,0,0,0,0,0,0,0,0,0,0,0,15474,0,0,15474,0,0,0,0,0,0,0,0,0,0,0,0,0,0,0,0,15538,15538,0,0,0,0,0,0,0,0,0,0,15538,0,.94,XCEL ENERGY,848381245
2001,79371STHWS8MISW,SOUTHWESTERN PUBLIC SERVICE CO TOLK STATION,970 COUNTY RD 65,EARTH,LAMB,TX,79031,34.185,-102.5675,4911,,,,,,221112,,,,,,1301150185623,DIOXIN AND DIOXIN-LIKE COMPOUNDS,N150,YES,DIOXIN,NO,0,NO,R,Grams,0,.6,0,0,0,0,0,0,0,0,0,0,.6,0,0,0,0,0,0,0,0,0,0,0,0,0,0,0,0,0,0,0,0,0,0,0,0,0,0,0,0,0,0,0,0,0,0,0,0,0,.6,.6,0,0,0,0,0,0,0,0,0,0,.6,0,.94,XCEL ENERGY,848381245
2001,79108STHWSNLAKE,SOUTHWESTERN PUBLIC SERVICE CO HARRINGTON STATION,8400 N LAKESIDE DR,AMARILLO,POTTER,TX,79108,35.308056,-101.751333,4911,,,,,,221112,,,,,,1301150185748,HYDROGEN FLUORIDE,007664393,YES,NON-PBT,NO,0,NO,R,Pounds,0,180000,0,0,0,0,0,0,0,0,0,0,180000,0,0,0,0,0,0,0,0,0,0,0,0,0,0,0,0,0,0,0,0,0,0,0,0,0,0,0,0,0,0,0,0,0,0,0,0,0,180000,180000,0,0,0,0,0,0,0,0,180000,0,360000,0,.99,XCEL ENERGY,848381245
2001,77340GRDNRHWY75,GARDNER GLASS PRODUCTS INC,7553 STATE HWY 75 S,HUNTSVILLE,WALKER,TX,77340,30.666666,-95.511388,3231,,,,,,327215,,,,,,1301150103962,XYLENE (MIXED ISOMERS),001330207,YES,NON-PBT,NO,0,NO,R,Pounds,8263,6491,0,0,0,0,0,0,0,0,0,0,14754,0,0,0,0,0,0,0,0,0,0,0,0,0,0,0,0,0,0,0,0,0,0,0,0,0,0,0,0,0,0,0,0,0,0,0,0,0,14754,14753,0,0,0,0,0,0,0,0,0,0,14753,0,.91,GARDNER GLASS PRODUCTS INC,NA
2001,77012STFFR8615M,RHODIA INC,8615 MANCHESTER ST,HOUSTON,HARRIS,TX,77012,29.718139,-95.26875,2819,,,,,,325188,,,,,,1301150104040,BENZENE,000071432,YES,NON-PBT,NO,0,YES,R,Pounds,4,0,0,0,0,0,0,0,0,0,0,0,4,0,0,0,0,0,0,0,0,0,0,0,0,0,0,0,0,0,0,0,0,0,0,0,0,0,0,0,0,0,0,0,0,0,0,0,0,0,4,4,0,0,0,0,33929,0,0,0,0,0,33933,0,.69,RHODIA INC,002959810
2001,76248SCRCR9275D,CORNING CABLE SYSTEMS LLC,9275 DENTON HWY,KELLER,TARRANT,TX,76248,32.901384,-97.257631,3661,,,,,,334210,,,,,,1301150162016,COPPER,007440508,NO,NON-PBT,YES,1,NO,R,Pounds,0,0,0,0,0,0,0,0,0,0,0,0,0,0,0,0,0,0,0,0,0,0,0,0,0,0,0,0,0,0,0,0,0,0,0,1938,0,0,0,1938,0,0,0,0,0,0,0,0,0,0,0,0,0,0,0,0,0,0,0,1938,0,0,1938,0,1.41,CORNING INC,NA
2001,76202PTRBL3200A,PETERBILT MOTORS CO,3200 AIRPORT RD,DENTON,DENTON,TX,76207,33.20386,-97.17313,3711,,,,,,336120,,,,,,1301150162170,ETHYLENE GLYCOL,000107211,YES,NON-PBT,NO,0,NO,R,Pounds,659,0,0,0,0,0,0,0,0,0,0,0,659,0,0,0,0,0,0,0,0,0,0,0,0,0,0,0,0,0,0,0,0,0,0,0,0,0,0,0,10699,0,10699,0,0,0,0,0,0,0,659,11358,0,0,0,0,0,10699,0,0,0,0,22057,0,.66,PACCAR INC,048341267
2001,75603MRCNLRT6BO,AMERICAN ELECTRIC POWER KNOX LEE POWER PLANT,RT 6 BOX 306A,LONGVIEW,GREGG,TX,75603,32.376028,-94.64025,4911,,,,,,221112,,,,,,1301150165468,"BENZO(G,H,I)PERYLENE",000191242,YES,PBT,NO,0,YES,R,Pounds,0,0,0,0,0,0,0,0,0,0,0,0,0,0,0,0,0,0,0,0,0,0,0,0,0,0,0,0,0,0,0,0,0,0,0,0,0,0,0,0,0,0,0,0,0,0,0,0,0,0,0,0,0,0,0,0,0,0,0,0,0,0,0,0,1,AMERICAN ELECTRIC POWER,006979868
2001,77041CHMPN7403W,CHAMPION COATINGS,7403 WRIGHT RD,HOUSTON,HARRIS,TX,77041,29.885271,-95.589257,2851,,,,,,325510,,,,,,1301150176081,TOLUENE,000108883,YES,NON-PBT,NO,0,NO,R,Pounds,36,1864,0,0,0,0,0,0,0,0,0,0,1900,0,0,0,0,0,0,0,0,0,0,0,0,0,0,0,0,0,0,0,0,0,0,0,0,0,0,0,0,0,0,0,600,0,0,0,0,600,1900,1900,0,0,0,0,0,0,200,0,0,0,2100,0,.69,CHAMPION COATINGS,016680480
2001,77012STFFR8615M,RHODIA INC,8615 MANCHESTER ST,HOUSTON,HARRIS,TX,77012,29.718139,-95.26875,2819,,,,,,325188,,,,,,1301150104089,"HYDROCHLORIC ACID (1995 AND AFTER ""ACID AEROSOLS"" ONLY)",007647010,YES,NON-PBT,NO,0,NO,R,Pounds,0,247,0,0,0,0,0,0,0,0,0,0,247,0,0,0,0,0,0,0,0,0,0,0,0,0,0,0,0,0,0,0,0,0,0,0,0,0,0,0,0,0,0,0,0,0,0,0,0,0,247,247,0,0,0,0,0,0,0,0,823059,0,823306,0,.69,RHODIA INC,002959810
2001,77012STFFR8615M,RHODIA INC,8615 MANCHESTER ST,HOUSTON,HARRIS,TX,77012,29.718139,-95.26875,2819,,,,,,325188,,,,,,1301150104139,O-TOLUIDINE,000095534,YES,NON-PBT,NO,0,YES,R,Pounds,0,1,0,0,0,0,0,0,0,0,0,0,1,0,0,0,0,0,0,0,0,0,0,0,0,0,0,0,0,0,0,0,0,0,0,0,0,0,0,0,0,0,0,0,0,0,0,0,0,0,1,1,0,0,0,0,446098,0,0,0,0,0,446099,0,.69,RHODIA INC,002959810
2001,77012STFFR8615M,RHODIA INC,8615 MANCHESTER ST,HOUSTON,HARRIS,TX,77012,29.718139,-95.26875,2819,,,,,,325188,,,,,,1301150104180,TOLUENE,000108883,YES,NON-PBT,NO,0,NO,R,Pounds,8,1,0,0,0,0,0,0,0,0,0,0,9,0,0,0,0,0,0,0,0,0,0,0,0,0,0,0,0,0,0,0,0,0,0,0,0,0,0,0,0,0,0,0,0,0,0,0,0,0,9,9,0,0,0,0,255379,0,0,0,0,0,255388,0,.69,RHODIA INC,002959810
2001,77012STFFR8615M,RHODIA INC,8615 MANCHESTER ST,HOUSTON,HARRIS,TX,77012,29.718139,-95.26875,2819,,,,,,325188,,,,,,1301150104255,DIETHANOLAMINE,000111422,YES,NON-PBT,NO,0,NO,R,Pounds,0,0,0,0,0,0,0,0,0,0,0,0,0,0,0,0,0,0,0,0,0,0,0,0,0,0,0,0,0,0,0,0,0,0,0,0,0,0,0,0,0,0,0,0,0,0,0,0,0,0,0,0,0,0,0,0,24615,0,0,0,0,0,24615,0,.69,RHODIA INC,002959810
2001,77541RHNPL6213H,PERSTORP COATINGS INC,6213 HWY 332 E,FREEPORT,BRAZORIA,TX,77541,28.945556,-95.423333,2869,2819,,,,,325188,,,,,,1301150194696,NITRATE COMPOUNDS,N511,NO,NON-PBT,NO,0,NO,R,Pounds,0,0,0,0,0,0,0,0,0,0,0,0,0,0,0,0,0,0,0,0,0,0,0,0,0,0,0,0,0,0,0,0,0,0,0,0,0,0,0,0,0,0,0,0,0,0,0,0,0,0,0,0,0,0,0,0,0,0,0,0,0,0,0,0,.6,PERSTORP AB,353972060
2001,77520LDRDN8490W,EL DORADO NITROGEN LP,8490 W BAY RD,BAYTOWN,CHAMBERS,TX,77520,29.762778,-94.909722,2873,,,,,,325311,,,,,,1301150194912,NITRIC ACID,007697372,NO,NON-PBT,NO,0,NO,R,Pounds,3220,20,0,0,0,0,0,0,0,0,0,0,3240,0,0,0,0,0,0,0,0,0,0,0,0,0,0,0,0,0,0,0,0,0,0,0,0,0,0,0,0,0,0,0,0,0,0,0,0,0,3240,3240,0,0,0,0,0,0,0,0,43806,0,47046,0,1.3,LSB INDUSTRIES INC,046860979
2001,77651MRPLS1215M,AMERIPOL SYNPOL CORP.,1215 MAIN ST.,PORT NECHES,JEFFERSON,TX,77651,29.988333,-93.94555,2822,,,,,,325212,,,,,,1301150117000,STYRENE,000100425,YES,NON-PBT,NO,0,YES,R,Pounds,240718,2009,0,0,0,0,0,0,0,0,0,0,242727,0,0,0,0,0,0,0,0,0,22769,0,0,0,0,0,0,0,0,0,0,22769,0,0,0,0,0,0,0,0,0,0,0,0,0,0,0,0,265496,246269,0,0,0,0,0,0,0,0,0,0,246269,0,.6,NA,NA
2001,77507MRCNC4923B,AMERICAN ACRYL LP,4923 BAYPORT RD,PASADENA,HARRIS,TX,77507,29.62132,-95.06676,2869,,,,,,325199,,,,,,1301150133751,NITRIC ACID,007697372,NO,NON-PBT,NO,0,NO,R,Pounds,5,0,0,0,0,0,0,0,0,0,0,0,5,0,0,0,0,0,0,0,0,0,0,0,0,0,0,0,0,0,0,0,0,0,0,0,0,0,0,0,0,0,0,0,0,0,35496,0,0,35496,5,35496,0,0,0,0,0,0,0,0,0,35496,70992,0,0,NA,NA
2001,77507NVMLC10200,NOVA MOLECULAR TECHNOLOGIES I NC,10200 BAY AREA BLVD,PASADENA,HARRIS,TX,77507,29.60802,-95.0555,2869,,,,,,325199,,,,,,1301150133813,METHANOL,000067561,YES,NON-PBT,NO,0,NO,R,Pounds,250,250,0,0,0,0,0,0,0,0,0,0,500,0,250,250,0,0,0,0,0,0,0,0,0,0,0,0,0,0,0,0,0,0,0,0,0,0,0,0,0,25400,25400,0,0,0,0,0,0,0,500,277,0,0,0,0,0,25400,0,0,7874,25440,58991,0,0,NA,NA
2001,79008CMNCMFMROA,AGRIUM US INC,F M RD 1551,BORGER,HUTCHINSON,TX,79007,35.644722,-101.425278,2873,,,,,,325311,,,,,,1301150169466,NICKEL COMPOUNDS,N495,YES,NON-PBT,YES,1,NO,R,Pounds,0,0,0,82,0,0,0,0,0,0,0,0,82,0,0,0,0,0,0,0,0,0,0,0,0,0,0,0,0,0,0,0,0,0,0,0,0,0,0,0,0,0,0,0,0,0,0,0,0,0,82,82,0,0,0,0,0,0,0,0,0,0,82,0,.95,AGRIUM INC,249568056
2001,79008CMNCMFMROA,AGRIUM US INC,F M RD 1551,BORGER,HUTCHINSON,TX,79007,35.644722,-101.425278,2873,,,,,,325311,,,,,,1301150169480,ZINC COMPOUNDS,N982,NO,NON-PBT,YES,1,NO,R,Pounds,0,0,0,1091,0,0,0,0,0,0,0,0,1091,0,0,0,0,0,0,0,0,0,0,0,0,0,0,0,0,0,0,0,0,0,0,0,31020,0,0,31020,0,0,0,0,0,0,0,0,0,0,1091,1091,0,0,0,0,0,0,0,31020,0,0,32111,0,.73,AGRIUM INC,249568056
2001,79008CMNCMFMROA,AGRIUM US INC,F M RD 1551,BORGER,HUTCHINSON,TX,79007,35.644722,-101.425278,2873,,,,,,325311,,,,,,1301150169528,ASBESTOS (FRIABLE),001332214,YES,NON-PBT,YES,2,YES,R,Pounds,0,0,0,0,0,0,1200,0,0,0,0,0,1200,0,0,0,0,0,0,0,0,0,1200,0,0,0,0,0,0,0,0,0,0,1200,0,0,0,0,0,0,0,0,0,0,0,0,0,0,0,0,2400,1200,0,0,0,0,0,0,0,0,0,0,1200,0,.73,AGRIUM INC,249568056
2001,75686WLSHPFM173,AMERICAN ELECTRIC POWER WELSH PLANT,FM 1735 STOREROOM 65,PITTSBURG,CAMP,TX,75686,33.054167,-94.839444,4911,,,,,,221112,,,,,,1301150166724,ZINC COMPOUNDS,N982,NO,NON-PBT,YES,1,NO,R,Pounds,5,3500,250,0,0,0,16000,0,0,0,0,5,19760,0,0,0,0,0,0,0,0,0,0,0,0,0,0,0,0,0,0,0,0,0,0,0,0,0,0,0,0,0,0,0,0,0,0,0,0,0,19760,20000,0,0,0,0,0,0,0,0,0,0,20000,0,100,AMERICAN ELECTRIC POWER,006979868
2001,77507KNKTX6161U,KANEKA TEXAS CORP,6161 UNDERWOOD RD,PASADENA,HARRIS,TX,77507,29.6209,-95.086874,2821,3086,,,,,325211,,,,,,1301150126985,STYRENE,000100425,YES,NON-PBT,NO,0,YES,R,Pounds,1100,12200,0,0,0,0,0,0,0,0,0,0,13300,0,0,0,0,0,0,0,0,0,0,0,0,0,0,0,0,0,0,0,0,0,0,0,0,0,0,0,15000,0,15000,0,0,0,0,0,0,0,13300,13300,0,0,0,0,146000,15000,0,0,0,0,174300,860,.99,NA,NA
2001,77507GDYRB13441,THE GOODYEAR TIRE & RUBBER CO BAYPORT CHEMICAL PLANT,13441 BAY AREA BLVD,PASADENA,HARRIS,TX,77507,29.646167,-95.048,2869,,,,,,325199,,,,,,1301150127140,DIPHENYLAMINE,000122394,NO,NON-PBT,NO,0,NO,R,Pounds,1344,0,0,0,0,0,0,0,0,0,0,0,1344,0,0,0,0,0,0,0,0,0,0,0,0,0,0,0,0,0,0,0,0,0,0,0,0,0,0,0,0,0,0,0,0,0,0,0,0,0,1344,1344,0,0,0,0,0,0,0,0,0,0,1344,0,.71,THE GOODYEAR TIRE& RUBBER CO,004467924
2001,77507GDYRB13441,THE GOODYEAR TIRE & RUBBER CO BAYPORT CHEMICAL PLANT,13441 BAY AREA BLVD,PASADENA,HARRIS,TX,77507,29.646167,-95.048,2869,,,,,,325199,,,,,,1301150127189,PROPYLENE,000115071,NO,NON-PBT,NO,0,NO,R,Pounds,88,0,0,0,0,0,0,0,0,0,0,0,88,0,0,0,0,0,0,0,0,0,0,0,0,0,0,0,0,0,0,0,0,0,0,0,0,0,0,0,0,0,0,0,0,0,0,0,0,0,88,88,0,0,0,0,0,0,0,0,0,0,88,0,.89,THE GOODYEAR TIRE& RUBBER CO,004467924
2001,78469HCHST1901C,CELANESE LTD. CORPUS CHRISTI TECHNICAL CENTER,1901 CLARKWOOD RD.,CORPUS CHRISTI,NUECES,TX,78409,27.817264,-97.535932,2869,,,,,,325199,,,,,,1301150169884,METHANOL,000067561,YES,NON-PBT,NO,0,NO,R,Pounds,1,348,0,0,0,0,0,0,0,0,0,0,349,0,1220,1220,0,0,0,0,0,0,0,0,0,0,0,0,0,0,0,0,0,0,0,0,0,0,0,0,5260,0,5260,0,0,0,0,0,0,0,349,348,0,0,0,0,0,5260,0,0,23349,1220,30177,0,.8,CELANESE AMERICAS CORP,097413462
2001,75650HWPRK2400F,AMERICAN ELECTRIC POWER HW PIRKEY POWER PLANT,2400 FM RD 3251,HALLSVILLE,HARRISON,TX,75650,32.458639,-94.473278,4911,,,,,,221112,,,,,,1301150166876,MANGANESE COMPOUNDS,N450,YES,NON-PBT,YES,1,NO,R,Pounds,250,940,79,0,0,0,350000,0,70000,0,0,5,421274,0,0,0,0,0,0,0,0,0,0,0,0,0,0,0,0,0,0,0,0,0,0,0,0,0,2200,2200,0,0,0,0,0,0,0,0,0,0,421274,420000,0,0,0,0,0,0,0,2200,0,0,422200,0,.85,AMERICAN ELECTRIC POWER,006979868
2001,76384KLNNP12567,AMERICAN ELECTRIC POWER OKLAUNION PLANT,12567 FM RD 3430,VERNON,WILBARGER,TX,76384,34.08,-99.179167,4911,,,,,,221112,,,,,,1301150167029,LEAD COMPOUNDS,N420,YES,PBT,YES,1,NO,R,Pounds,0,100,0,0,0,0,0,0,800,0,0,0,900,0,0,0,0,0,0,0,0,0,0,0,0,0,0,0,0,0,0,33,0,33,0,0,0,0,8,8,0,0,0,0,0,0,0,0,0,0,933,940,0,0,0,0,0,0,0,8,0,0,948,0,.9,AMERICAN ELECTRIC POWER,006979868
2001,76384KLNNP12567,AMERICAN ELECTRIC POWER OKLAUNION PLANT,12567 FM RD 3430,VERNON,WILBARGER,TX,76384,34.08,-99.179167,4911,,,,,,221112,,,,,,1301150167068,VANADIUM COMPOUNDS,N770,NO,NON-PBT,YES,1,NO,R,Pounds,5,240,0,0,0,0,0,0,9300,0,0,5,9550,0,0,0,0,0,0,0,0,0,0,0,0,0,0,0,0,0,0,0,0,0,0,0,0,0,0,0,0,0,0,0,0,0,0,0,0,0,9550,9500,0,0,0,0,0,0,0,0,0,0,9500,0,.9,AMERICAN ELECTRIC POWER,006979868
2001,79506KCRKP1401S,AMERICAN ELECTRIC POWER OAK CREEK POWER STATION,1401 S. STATE HWY. 70,BLACKWELL,COKE,TX,795063109,32.04722,-100.2917,4911,,,,,,221112,,,,,,1301150167157,"BENZO(G,H,I)PERYLENE",000191242,YES,PBT,NO,0,YES,R,Pounds,0,0,0,0,0,0,0,0,0,0,0,0,0,0,0,0,0,0,0,0,0,0,0,0,0,0,0,0,0,0,0,0,0,0,0,0,0,0,0,0,0,0,0,0,0,0,0,0,0,0,0,0,0,0,0,0,0,0,0,0,0,0,0,0,1,AMERICAN ELECTRIC POWER,006979868
2001,76053KLLYM301WE,KELLY-MOORE PAINT CO INC,301 W HURST BLVD,HURST,TARRANT,TX,76053,32.80887,-97.17284,2851,,,,,,325510,,,,,,1301150300123,ETHYLENE GLYCOL,000107211,YES,NON-PBT,NO,0,NO,R,Pounds,5,250,0,0,0,0,0,0,0,0,0,0,255,0,0,0,0,0,0,0,0,0,0,0,0,0,0,0,0,0,0,0,0,0,0,0,0,0,0,0,0,0,0,0,0,0,0,0,0,0,255,75,0,0,0,0,0,0,0,0,0,0,75,0,.99,KELLY-MOORE PAINT CO INC,NA
2001,77029CHMCN8425M,UNIVAR USA INC HOUSTON MARKET STREET,8425 MARKET ST,HOUSTON,HARRIS,TX,77029,29.77138,-95.27755,5169,,,,,,424690,,,,,,1301150258806,METHYL ISOBUTYL KETONE,000108101,YES,NON-PBT,NO,0,NO,R,Pounds,5,250,0,0,0,0,0,0,0,0,0,0,255,0,0,0,0,0,0,0,0,0,0,0,0,0,0,0,0,0,0,0,0,0,0,0,0,0,0,0,250,0,250,0,0,0,0,0,0,0,255,100,0,0,0,0,0,130,0,0,0,0,230,0,.75,UNIVAR USA INC,102971785
2001,75088GLCPL2220G,GLECO PLATING INC,2220 GRISHAM,ROWLETT,DALLAS,TX,75088,32.90338,-96.58211,3471,,,,,,332813,,,,,,1301150266308,LEAD COMPOUNDS,N420,YES,PBT,YES,1,NO,R,Pounds,0,1,0,0,0,0,0,0,0,0,0,0,1,9,0,9,0,0,0,0,0,0,14,0,0,0,0,0,0,0,0,0,0,14,0,89,0,0,0,89,0,0,0,0,0,0,0,0,0,0,24,24,0,0,0,0,0,0,0,89,0,0,113,0,.44,GLECO PLATING INC,NA
2001,77590DLLSG301DO,DALLAS GROUP OF AMERICA INC,301 DOCK RD,TEXAS CITY,GALVESTON,TX,77590,29.375,-94.89444,2819,,,,,,325188,,,,,,1301150266221,"HYDROCHLORIC ACID (1995 AND AFTER ""ACID AEROSOLS"" ONLY)",007647010,YES,NON-PBT,NO,0,NO,R,Pounds,1109,1008,0,0,0,0,0,0,0,0,0,0,2117,0,0,0,0,0,0,0,0,0,0,0,0,0,0,0,0,0,0,0,0,0,0,0,0,0,0,0,0,0,0,0,0,0,0,0,0,0,2117,2117,0,0,0,0,0,0,0,0,0,0,2117,0,1.01,DALLAS GROUP OF AMERICA INC,197212954
2001,77902CCDNTOLDBL,EQUISTAR CHEMICALS,2699 OLD BLOOMINGTON RD,VICTORIA,VICTORIA,TX,77901,28.688116,-96.941707,2821,,,,,,325211,,,,,,1301150262893,METHYL ETHYL KETONE,000078933,NO,NON-PBT,NO,0,NO,R,Pounds,0,980,0,0,0,0,0,0,0,0,0,0,980,0,0,0,0,0,0,0,0,0,0,0,0,0,0,0,0,0,0,0,0,0,0,0,0,0,0,0,0,0,0,0,0,0,0,0,0,0,980,980,0,0,0,0,0,0,0,0,48043,0,49023,0,.87,LYONDELLBASELL INDUSTRIES,969557263
2001,77483CNCHM13MIL,EQUISTAR CHEMICALS LP MATAGOR DA FACILITY,13 MI SO OF BAY CITY ON HWY 60,BAY CITY,MATAGORDA,TX,77414,28.7875,-95.94305,2821,,,,,,325211,,,,,,1301150262994,METHYL ETHYL KETONE,000078933,NO,NON-PBT,NO,0,NO,R,Pounds,0,0,0,0,0,0,0,0,0,0,0,0,0,0,0,0,0,0,0,0,0,0,0,0,0,0,0,0,0,0,0,0,0,0,815,0,0,0,0,815,768,0,768,0,0,0,0,0,0,0,0,0,0,0,0,0,0,1583,0,0,0,0,1583,0,1,LYONDELLBASELL INDUSTRIES,969557263
2001,77631PLYSRFM100,LANXESS CORP,4647 FM 1006,ORANGE,ORANGE,TX,77631,30.045833,-93.76972,2822,,,,,,325212,,,,,,1301150263061,ETHYLENE,000074851,NO,NON-PBT,NO,0,NO,R,Pounds,38713,5145,0,0,0,0,0,0,0,0,0,0,43858,0,0,0,0,0,0,0,0,0,0,0,0,0,0,0,0,0,0,0,0,0,0,0,0,0,0,0,0,0,0,0,0,0,0,0,0,0,43858,43858,0,0,0,0,0,0,0,0,509326,0,553184,7,.71,LANXESS CORP,145858770
2001,77701TRNTY850PI,TRINITY INDUSTRIES INC PLANT  118,850 PINE ST.,BEAUMONT,JEFFERSON,TX,77701,30.089468,-94.099357,3743,,,,,,336510,,,,,,1301150319477,XYLENE (MIXED ISOMERS),001330207,YES,NON-PBT,NO,0,NO,R,Pounds,0,72973,0,0,0,0,0,0,0,0,0,0,72973,0,0,0,0,0,0,0,0,0,0,0,0,0,0,0,0,0,0,0,0,0,0,0,0,0,0,0,750,0,750,0,0,0,0,0,0,0,72973,72973,0,0,0,0,0,10900,0,0,0,0,83873,0,0,TRINITY INDUSTRIES INC,007324254
2001,77007TRNTY3910W,TRINITY INDUSTRIES INC. PLT # 62,1206 BONNER ST,HOUSTON,HARRIS,TX,77007,29.769786,-95.399418,3441,3443,,,,,332312,,,,,,1301150319820,ZINC (FUME OR DUST),007440666,NO,NON-PBT,YES,4,NO,R,Pounds,0,0,0,0,0,0,0,0,0,0,0,0,0,0,0,0,0,0,0,0,0,0,0,0,0,0,0,0,0,0,0,0,0,0,0,0,0,0,0,0,0,0,0,0,750,0,0,0,0,750,0,2783,0,0,0,0,0,0,0,0,0,0,2783,0,0,TRINITY INDUSTRIES INC,007324254
2001,76111MBLLF3600N,EXXONMOBIL OIL CORP FORT WORTH TERMINAL,3600 N. SYLVANIA,FORT WORTH,TARRANT,TX,76111,32.809004,-97.3084,5171,,,,,,424710,,,,,,1301150223485,XYLENE (MIXED ISOMERS),001330207,YES,NON-PBT,NO,0,NO,R,Pounds,50,403,0,0,0,0,0,0,0,0,0,0,453,0,0,0,0,0,0,0,0,0,0,0,0,0,0,0,0,0,0,0,0,0,0,0,0,0,0,0,0,0,0,0,0,0,0,0,0,0,453,453,0,0,0,0,0,0,0,0,0,0,453,0,0,EXXONMOBIL CORP,001213214
2001,75090KRFTF1201E,AGP REFINERIES L.C.,1201 E. PECAN,SHERMAN,GRAYSON,TX,75090,33.641232,-96.596324,2079,,,,,,311220,,,,,,1301150255976,NICKEL,007440020,YES,NON-PBT,YES,1,YES,R,Pounds,0,0,0,0,0,0,0,0,0,0,0,0,0,40,0,40,0,0,0,0,0,0,0,0,0,0,0,0,0,0,0,0,0,0,0,12000,0,0,0,12000,0,0,0,0,0,0,0,0,0,0,40,40,0,0,0,0,0,0,0,12000,0,0,12040,0,.21,AG PROCESSING INC,005275631
2001,79762CHMCN105PR,UNIVAR USA INC ODESSA PRONTO,105 PRONTO,ODESSA,ECTOR,TX,79762,31.879921,-102.296874,5169,,,,,,424690,,,,,,1301150259366,METHANOL,000067561,YES,NON-PBT,NO,0,NO,R,Pounds,250,250,0,0,0,0,0,0,0,0,0,0,500,0,0,0,0,0,0,0,0,0,0,0,0,0,0,0,0,0,0,0,0,0,0,0,0,0,0,0,250,0,250,0,0,0,0,0,0,0,500,1100,0,0,0,0,0,170,0,0,0,0,1270,0,1.38,UNIVAR USA INC,102971785
2001,77521NCHML4803D,LCY ELASTOMERS LP,4803 DECKER DR,BAYTOWN,HARRIS,TX,77520,29.773333,-95.018333,2822,,,,,,326299,,,,,,1301150282503,"1,3-BUTADIENE",000106990,YES,NON-PBT,NO,0,YES,R,Pounds,1351,889,0,0,0,0,0,0,0,0,0,0,2240,0,5,5,0,0,0,0,0,0,0,0,0,0,0,0,0,0,0,0,0,0,0,0,0,0,0,0,0,0,0,0,0,0,0,0,0,0,2240,889,0,0,0,0,0,0,0,0,0,0,889,0,1.02,NA,NA
2001,77507HLDRT10010,HALDOR TOPSOE INC,10010 BAYPORT RD,PASADENA,HARRIS,TX,77507,29.613776,-95.05866,2819,2869,,,,,325188,,,,,,1301150227181,MOLYBDENUM TRIOXIDE,001313275,NO,NON-PBT,YES,2,NO,R,Pounds,1,1436,96,0,0,0,0,0,0,0,0,0,1533,0,4084,4084,0,31,0,0,0,0,0,0,0,0,0,0,0,0,0,0,0,31,0,126048,0,0,0,126048,0,0,0,0,0,0,0,0,0,0,1564,5617,0,0,0,0,0,0,0,126048,0,0,131665,0,1.01,HALDOR TOPSOE/ AS,NA
2001,77720BMNTMHWY34,BMC HOLDINGS INC,5470 TWIN CITY HWY,NEDERLAND,JEFFERSON,TX,77627,30.013944,-94.048333,2869,,,,,,325000,,,,,,1301150256269,N-BUTYL ALCOHOL,000071363,NO,NON-PBT,NO,0,NO,R,Pounds,5,5,0,0,0,0,0,0,0,0,0,0,10,0,0,0,0,0,0,0,0,0,0,0,0,0,0,0,0,0,0,0,0,0,0,0,0,0,0,0,0,0,0,0,0,0,0,0,0,0,10,3,0,0,0,0,217440,0,0,0,0,0,217443,0,.99,TERRA INDUSTRIES INC,101123578
2001,79603CRWNC1900N,CROWN BEVERAGE PACKAGING,1900 CLACK ST,ABILENE,TAYLOR,TX,79603,32.47243,-99.77826,3411,,,,,,332431,,,,,,1301150249860,CERTAIN GLYCOL ETHERS,N230,YES,NON-PBT,NO,0,NO,R,Pounds,44000,68000,0,0,0,0,0,0,0,0,0,0,112000,0,0,0,0,0,0,0,0,0,0,0,0,0,0,0,0,0,0,0,0,0,0,0,0,0,0,0,0,0,0,0,0,0,0,0,0,0,112000,112000,0,0,0,0,0,0,0,0,0,0,112000,0,.99,CROWN CORK & SEAL CO (USA) INC,002282341
2001,78214CHMCN1107E,UNIVAR USA INC SAN ANTONIO SOUTHCROSS,1107 E SOUTHCROSS,SAN ANTONIO,BEXAR,TX,78214,29.373063,-98.481023,5169,,,,,,424690,,,,,,1301150259760,METHYL ETHYL KETONE,000078933,NO,NON-PBT,NO,0,NO,R,Pounds,5,250,0,0,0,0,0,0,0,0,0,0,255,0,0,0,0,0,0,0,0,0,0,0,0,0,0,0,0,0,0,0,0,0,0,0,0,0,0,0,0,0,0,0,0,0,0,0,0,0,255,310,0,0,0,0,0,0,0,0,0,0,310,0,.11,UNIVAR USA INC,102971785
2001,75062XXNCS1201E,EXXON MOBIL CORP IRVING TERMINAL,1201 E AIRPORT FWY,IRVING,DALLAS,TX,75062,32.83727,-96.93169,5171,,,,,,424710,,,,,,1301150209930,XYLENE (MIXED ISOMERS),001330207,YES,NON-PBT,NO,0,NO,R,Pounds,221,509,11,0,0,0,0,0,0,0,0,0,741,0,0,0,0,0,0,0,0,0,0,0,0,0,0,0,0,0,8,0,0,8,0,0,0,0,0,0,0,0,0,0,0,0,0,0,0,0,749,749,0,0,0,0,0,0,0,0,0,0,749,0,0,EXXON MOBIL CORP,001213214
2001,75020KWKST2600N,KWIKSET CORP,2600 N HWY 91,DENISON,GRAYSON,TX,75020,33.783889,-96.553333,3499,3429,,,,,332999,,,,,,1301150256790,NICKEL COMPOUNDS,N495,YES,NON-PBT,YES,1,NO,R,Pounds,0,0,0,0,0,0,0,0,0,0,0,0,0,44,0,44,0,2580,0,0,0,0,0,0,0,0,0,0,0,0,0,0,0,2580,0,0,0,0,0,0,0,0,0,0,0,0,0,0,0,0,2624,2624,0,0,0,0,0,0,0,0,0,0,2624,0,.88,STANLEY BLACK & DECKER,001152461
2001,75236HSTNS3636D,UNIVAR USA INC DALLAS DAN MORTON FACILITY,3636 DAN MORTON DR,DALLAS,DALLAS,TX,75236,32.700188,-96.918104,5169,,,,,,424690,,,,,,1301150260091,N-HEXANE,000110543,YES,NON-PBT,NO,0,NO,R,Pounds,250,3800,0,0,0,0,0,0,0,0,0,0,4050,0,0,0,0,0,0,0,0,0,0,0,0,0,0,0,0,0,0,0,0,0,0,0,0,0,0,0,250,0,250,0,0,0,0,0,0,0,4050,3800,0,0,0,0,0,250,0,0,0,0,4050,0,3.45,UNIVAR USA INC,102971785
2001,77041HSTNS11235,UNIVAR USA INC HOUSTON FM 529,11235 FM 529,HOUSTON,HARRIS,TX,77041,29.880272,-95.577232,5169,,,,,,424690,,,,,,1301150260166,ETHYLBENZENE,000100414,YES,NON-PBT,NO,0,NO,R,Pounds,5,250,0,0,0,0,0,0,0,0,0,0,255,0,0,0,0,0,0,0,0,0,0,0,0,0,0,0,0,0,0,0,0,0,0,0,0,0,0,0,1000,0,1000,0,0,0,0,0,0,0,255,160,0,0,0,0,0,1000,0,0,0,0,1160,0,0,UNIVAR USA INC,102971785
2001,77037XXNCS8700N,EXXONMOBIL CORP NORTH HOUSTON TERMINAL,8700 N FWY,HOUSTON,HARRIS,TX,77037,29.886053,-95.411628,5171,,,,,,424710,,,,,,1301150216719,POLYCYCLIC AROMATIC COMPOUNDS,N590,YES,PBT,NO,0,YES,R,Pounds,.02,.02,0,0,0,0,0,0,0,0,0,0,.04,0,0,0,0,0,0,0,0,0,0,0,0,0,0,0,0,0,0,0,0,0,0,0,0,0,0,0,0,0,0,0,0,0,0,0,0,0,.04,.04,0,0,0,0,0,0,0,0,0,0,.04,0,0,EXXON MOBIL CORP,001213214
2001,77051XXNCS10617,EXXON MOBIL CORP SOUTH HOUSTON TERMINAL,10617 E ALMEDA,HOUSTON,HARRIS,TX,77051,29.667793,-95.397433,5171,,,,,,424710,,,,,,1301150216810,METHYL TERT-BUTYL ETHER,001634044,YES,NON-PBT,NO,0,NO,R,Pounds,50,5781,0,0,0,0,0,0,0,0,0,0,5831,0,0,0,0,0,0,0,0,0,0,0,0,0,0,0,0,0,4,0,0,4,0,0,0,0,0,0,0,0,0,0,0,0,0,0,0,0,5835,5835,0,0,0,0,0,0,0,0,0,0,5835,0,0,EXXON MOBIL CORP,001213214
2001,76031TCHNC3327P,TECHNICAL CHEMICAL CO,3327 PIPELINE RD,CLEBURNE,JOHNSON,TX,76033,32.406995,-97.404793,2899,,,,,,325998,,,,,,1301150224640,XYLENE (MIXED ISOMERS),001330207,YES,NON-PBT,NO,0,NO,R,Pounds,250,0,0,0,0,0,0,0,0,0,0,0,250,0,0,0,0,0,0,0,0,0,0,0,0,0,0,0,0,0,0,0,0,0,0,0,0,0,0,0,0,0,0,0,0,0,0,0,0,0,250,72,0,0,0,0,0,0,0,0,0,0,72,0,.24,NA,NA
2001,77041HSTNS11235,UNIVAR USA INC HOUSTON FM 529,11235 FM 529,HOUSTON,HARRIS,TX,77041,29.880272,-95.577232,5169,,,,,,424690,,,,,,1301150260228,METHYL ISOBUTYL KETONE,000108101,YES,NON-PBT,NO,0,NO,R,Pounds,5,250,0,0,0,0,0,0,0,0,0,0,255,0,0,0,0,0,0,0,0,0,0,0,0,0,0,0,0,0,0,0,0,0,0,0,0,0,0,0,750,0,750,0,0,0,0,0,0,0,255,42,0,0,0,0,0,900,0,0,0,0,942,0,0,UNIVAR USA INC,102971785
2001,75212CHMCN2500V,CHEMCENTRAL DALLAS,2500 VINSON ST.,DALLAS,DALLAS,TX,75212,32.775056,-96.896301,5169,,,,,,424690,,,,,,1301150258200,XYLENE (MIXED ISOMERS),001330207,YES,NON-PBT,NO,0,NO,R,Pounds,250,750,0,0,0,0,0,0,0,0,0,0,1000,0,0,0,0,0,0,0,0,0,0,0,0,0,0,0,0,0,0,0,0,0,0,0,0,0,0,0,1105,0,1105,0,0,0,0,0,0,0,1000,910,0,0,0,0,0,1100,0,0,0,0,2010,0,1.64,CHEMCENTRAL CORP,006929095
2001,77535NSTLW500KE,INSTEEL WIRE PRODUCTS,500 KEMP RD PO BOX 1620,DAYTON,LIBERTY,TX,77535,30.037076,-94.908322,3315,,,,,,332618,,,,,,1301150255279,LEAD COMPOUNDS,N420,YES,PBT,YES,1,NO,R,Pounds,0,0,0,0,0,0,0,0,0,0,0,0,0,0,0,0,0,0,0,0,0,0,0,0,0,0,0,0,0,0,0,0,0,0,0,0,0,0,0,0,0,0,0,0,0,0,0,0,0,0,0,0,0,0,0,0,0,0,0,0,0,0,0,0,0,INSTEEL INDUSTRIES INC,003220225
2001,78744BCDWR4117C,APPLIED MATERIALS INC CPS AUSTIN SITE,4117 E COMMERCIAL CTR DR,AUSTIN,TRAVIS,TX,78744,30.209833,-97.742081,3479,,,,,,332812,,,,,,1301150241014,NITRIC ACID,007697372,NO,NON-PBT,NO,0,NO,R,Pounds,250,250,0,0,0,0,0,0,0,0,0,0,500,0,0,0,0,0,0,0,0,0,0,0,0,0,0,0,0,0,0,0,0,0,0,0,0,0,0,0,0,0,0,0,0,0,27509,0,0,27509,500,175,0,0,0,0,0,0,0,0,29556,27509,57240,0,0,APPLIED MATERIALS INC,042728840
2001,75239SHLND8201S,AIR PRODUCTS & CHEMICALS INC,8201 S CENTRAL EXPRESSWAY,DALLAS,DALLAS,TX,75241,32.706667,-96.751667,2819,,,,,,325188,,,,,,1301150276982,AMMONIA,007664417,NO,NON-PBT,NO,0,NO,R,Pounds,48,506,0,0,0,0,0,0,0,0,0,0,554,0,10393,10393,0,0,0,0,0,0,0,0,0,0,0,0,0,0,0,0,0,0,0,0,0,0,0,0,0,0,0,0,0,0,0,0,2789,2789,554,473,0,0,0,0,0,0,0,0,0,10182,10655,3081,.77,AIR PRODUCTS & CHEMICALS INC,121433569
2001,75041SHLND3101W,ASHLAND DISTRIBUTION,3101 WOOD DR,GARLAND,DALLAS,TX,75041,32.8875,-96.677222,5169,,,,,,424690,,,,,,1301150277174,STYRENE,000100425,YES,NON-PBT,NO,0,YES,R,Pounds,0,0,0,0,0,0,0,0,0,0,0,0,0,0,0,0,0,0,0,0,0,0,0,0,0,0,0,0,0,0,0,0,0,0,0,0,0,0,0,0,28823,0,28823,0,0,0,0,4,0,4,0,0,0,0,0,0,0,28823,0,0,0,4,28827,0,.61,ASHLAND INC,005003264
2001,75041SHLND3101W,ASHLAND DISTRIBUTION,3101 WOOD DR,GARLAND,DALLAS,TX,75041,32.8875,-96.677222,5169,,,,,,424690,,,,,,1301150277251,METHANOL,000067561,YES,NON-PBT,NO,0,NO,R,Pounds,26,27,0,0,0,0,0,0,0,0,0,0,53,0,0,0,0,0,0,0,0,0,0,0,0,0,0,0,0,0,0,0,0,0,0,0,0,0,0,0,612,0,612,0,0,0,0,0,0,0,53,52,0,0,0,0,0,612,0,0,0,0,664,0,.27,ASHLAND INC,005003264
2001,77034SHLND8901O,ASHLAND DISTRIBUTION CO,8901 OLD GALVESTON RD,HOUSTON,HARRIS,TX,77034,29.631897,-95.206294,5169,,,,,,424690,,,,,,1301150281804,STYRENE,000100425,YES,NON-PBT,NO,0,YES,R,Pounds,0,3,0,0,0,0,0,0,0,0,0,0,3,0,0,0,0,0,0,0,0,0,0,0,0,0,0,0,0,0,0,0,0,0,0,0,0,0,0,0,4308,1693,6001,0,0,0,0,0,0,0,3,4,0,0,0,0,0,6001,0,0,0,0,6005,0,.12,ASHLAND INC,005003264
2001,75212MTVNT3900S,MOTIVA ENTERPRISES LLC DALLAS TERMINAL,3900 SINGLETON,DALLAS,DALLAS,TX,75212,32.77884,-96.884307,5171,,,,,,424710,,,,,,1301150285373,N-HEXANE,000110543,YES,NON-PBT,NO,0,NO,R,Pounds,279,499,0,0,0,0,0,0,0,0,0,0,778,0,0,0,0,0,0,0,0,0,0,0,0,0,0,0,0,0,0,0,0,0,0,0,0,0,0,0,0,0,0,0,0,0,0,0,0,0,778,777,0,0,0,0,0,0,0,0,30045,0,30822,0,.89,MOTIVA ENTERPRISES LLC,023838670
2001,75041SHLND3101W,ASHLAND DISTRIBUTION,3101 WOOD DR,GARLAND,DALLAS,TX,75041,32.8875,-96.677222,5169,,,,,,424690,,,,,,1301150277325,DI(2-ETHYLHEXYL) PHTHALATE,000117817,YES,NON-PBT,NO,0,YES,R,Pounds,0,0,0,0,0,0,0,0,0,0,0,0,0,0,0,0,0,0,0,0,0,0,0,0,0,0,0,0,0,0,0,0,0,0,0,0,0,0,0,0,4,0,4,0,0,0,0,0,0,0,0,0,0,0,0,0,0,4,0,0,0,0,4,0,0,ASHLAND INC,005003264
2001,75647GNTRL1420N,GE SECURITY,1420 N MAIN ST,GLADEWATER,GREGG,TX,75647,32.547858,-94.935053,3699,,,,,,334000,,,,,,1301150277426,LEAD,007439921,YES,PBT,YES,1,YES,R,Pounds,.2,.37,0,0,0,0,0,0,0,0,0,0,.57,0,0,0,0,0,0,0,0,0,0,0,0,0,0,0,0,0,0,0,0,0,0,2516,0,0,0,2516,0,0,0,0,0,0,0,0,0,0,.57,.57,0,0,0,0,0,0,0,2516,0,0,2516.57,0,.98,GE CORP,001367960
2001,78219XXNCS3214N,EXXON MOBIL CORP SAN ANTONIO TERMINAL,3214 N PAN AM EXPRESSWAY,SAN ANTONIO,BEXAR,TX,78219,29.442099,-98.4369,5171,,,,,,424710,,,,,,1301150216113,BENZENE,000071432,YES,NON-PBT,NO,0,YES,R,Pounds,96,550,0,0,0,0,0,0,0,0,0,0,646,0,0,0,0,0,0,0,0,0,0,0,0,0,0,0,0,0,2,0,0,2,0,0,0,0,0,0,0,0,0,0,0,0,0,0,0,0,648,648,0,0,0,0,0,0,0,0,0,0,648,0,0,EXXON MOBIL CORP,001213214
2001,78219XXNCS3214N,EXXON MOBIL CORP SAN ANTONIO TERMINAL,3214 N PAN AM EXPRESSWAY,SAN ANTONIO,BEXAR,TX,78219,29.442099,-98.4369,5171,,,,,,424710,,,,,,1301150216164,POLYCYCLIC AROMATIC COMPOUNDS,N590,YES,PBT,NO,0,YES,R,Pounds,.02,.09,0,0,0,0,0,0,0,0,0,0,.11,0,0,0,0,0,0,0,0,0,0,0,0,0,0,0,0,0,0,0,0,0,0,0,0,0,0,0,0,0,0,0,0,0,0,0,0,0,.11,.11,0,0,0,0,0,0,0,0,0,0,.11,0,0,EXXON MOBIL CORP,001213214
2001,75963NTRNT2301S,NORBORD TEXAS (NACOGDOCHES) INC,2301 SE STALLINGS DR,NACOGDOCHES,NACOGDOCHES,TX,759611224,31.579578,-94.647309,2493,,,,,,321219,,,,,,1301150264719,ACETALDEHYDE,000075070,YES,NON-PBT,NO,0,YES,R,Pounds,1031,43282,0,0,0,0,0,0,0,0,0,0,44313,0,250,250,0,0,0,0,0,0,0,0,0,0,0,0,0,0,0,0,0,0,0,0,0,0,0,0,0,0,0,0,0,0,0,0,0,0,44313,43282,0,0,0,0,0,0,0,0,0,49,43331,0,1,NORBORD INDUSTRIES INC,247847148
2001,77017TXSPT8600P,TPC GROUP LLC,8600 PARK PL BLVD,HOUSTON,HARRIS,TX,77017,29.678783,-95.254961,2869,,,,,,325110,,,,,,1301150271563,PROPYLENE,000115071,NO,NON-PBT,NO,0,NO,R,Pounds,1387,14313,0,0,0,0,0,0,0,0,0,0,15700,0,0,0,0,0,0,0,0,0,0,0,0,0,0,0,0,0,0,0,0,0,0,0,0,0,0,0,0,0,0,0,0,0,0,0,0,0,15700,15700,0,0,0,0,35800000,0,0,0,715650,0,36531350,0,.96,NA,NA
2001,77511MNSNTFM291,MONSANTO CHOCOLATE BAYOU,FM 2917,ALVIN,BRAZORIA,TX,775110000,29.30242,-95.23441,2869,,,,,,325320,,,,,,1301150301998,FORMALDEHYDE,000050000,YES,NON-PBT,NO,0,YES,R,Pounds,34,0,0,180000,0,0,0,0,0,0,0,0,180034,0,0,0,0,0,0,0,0,0,0,0,0,0,0,0,0,0,0,0,0,0,0,0,0,0,0,0,0,0,0,0,0,0,0,0,0,0,180034,180000,0,0,0,0,0,0,0,0,1400000,0,1580000,0,1.45,MONSANTO CO,168428287
2001,77511SLTNCFM291,ASCEND PERFORMANCE MATERIALS - CHOCOLATE BAYOU FACILITY,FM 2917,ALVIN,BRAZORIA,TX,775120000,29.30242,-95.23441,2869,2819,,,,,325188,,,,,,1301150302065,ACRYLIC ACID,000079107,YES,NON-PBT,NO,0,NO,R,Pounds,0,760,0,3100000,0,0,0,0,0,0,0,0,3100760,0,0,0,0,0,0,0,0,0,0,0,0,0,0,0,0,0,0,0,0,0,0,0,0,0,0,0,0,0,0,0,0,0,0,0,0,0,3100760,3100000,0,0,0,0,0,0,0,0,590000,0,3690000,0,1.65,SK CAPITAL PARTNERS,NA
2001,75062XXNCS1201E,EXXON MOBIL CORP IRVING TERMINAL,1201 E AIRPORT FWY,IRVING,DALLAS,TX,75062,32.83727,-96.93169,5171,,,,,,424710,,,,,,1301150209904,METHYL TERT-BUTYL ETHER,001634044,YES,NON-PBT,NO,0,NO,R,Pounds,3241,4625,17,0,0,0,0,0,0,0,0,0,7883,0,0,0,0,0,0,0,0,0,0,0,0,0,0,0,0,0,13,0,0,13,0,0,0,0,0,0,0,0,0,0,0,0,0,0,0,0,7896,7896,0,0,0,0,0,0,0,0,0,0,7896,0,0,EXXON MOBIL CORP,001213214
2001,77592NTRCS159LE,INTERCOASTAL TERMINAL INC.,159 LEVEE RD.,TEXAS CITY,GALVESTON,TX,77592,29.3635,-94.911583,5171,,,,,,424710,,,,,,1301150236483,NAPHTHALENE,000091203,YES,NON-PBT,NO,0,NO,R,Pounds,22,4,0,0,0,0,0,0,0,0,0,0,26,0,0,0,0,0,0,0,0,0,280,0,0,0,0,0,0,0,0,0,0,280,0,0,0,0,0,0,0,0,0,0,0,0,0,0,0,0,306,306,0,0,0,0,0,0,0,0,0,280,586,0,0,NA,NA
2001,79912BRDRSVINTO,ARCELORMITTAL VINTON INC,I-10 & VINTON RD,VINTON,EL PASO,TX,79835,31.96534,-106.585052,3312,,,,,,331111,,,,,,1301150271854,COPPER,007440508,NO,NON-PBT,YES,1,NO,R,Pounds,0,175,0,0,0,0,0,0,0,0,0,0,175,0,0,0,0,0,0,0,0,0,0,0,0,0,0,0,0,0,0,0,0,0,0,26633,0,0,0,26633,0,0,0,0,0,0,0,0,0,0,175,175,0,0,0,0,0,0,0,26633,0,0,26808,0,1.05,ARCELORMITTAL USA INC,NA
2001,77511SLTNCFM291,ASCEND PERFORMANCE MATERIALS - CHOCOLATE BAYOU FACILITY,FM 2917,ALVIN,BRAZORIA,TX,775120000,29.30242,-95.23441,2869,2819,,,,,325188,,,,,,1301150302180,FORMIC ACID,000064186,NO,NON-PBT,NO,0,NO,R,Pounds,0,0,0,8,0,0,0,0,0,0,0,0,8,0,0,0,0,0,0,0,0,0,0,0,0,0,0,0,0,0,0,0,0,0,0,0,0,0,0,0,0,0,0,0,0,0,0,0,0,0,8,8,0,0,0,0,0,0,0,0,310000,0,310008,0,.81,SK CAPITAL PARTNERS,NA
2001,77511SLTNCFM291,ASCEND PERFORMANCE MATERIALS - CHOCOLATE BAYOU FACILITY,FM 2917,ALVIN,BRAZORIA,TX,775120000,29.30242,-95.23441,2869,2819,,,,,325188,,,,,,1301150302305,ANTIMONY COMPOUNDS,N010,YES,NON-PBT,YES,1,NO,R,Pounds,0,0,0,0,0,10000,0,0,0,0,0,0,10000,0,0,0,0,0,0,0,0,0,0,0,0,0,0,0,0,0,0,0,0,0,0,0,0,0,0,0,0,0,0,0,0,0,0,0,0,0,10000,10000,0,0,0,0,0,0,0,0,0,0,10000,0,1.65,SK CAPITAL PARTNERS,NA
2001,78752TXCCH7114N,HUNTSMAN PETROCHEMICAL CORPORATION,7114 N LAMAR BLVD,AUSTIN,TRAVIS,TX,78752,30.3394,-97.71784,2869,,,,,,324110,,,,,,1301150296022,TERT-BUTYL ALCOHOL,000075650,NO,NON-PBT,NO,0,NO,R,Pounds,1,1,0,0,0,0,0,0,0,0,0,0,2,0,0,0,0,0,0,0,0,0,0,0,0,0,0,0,0,0,0,0,0,0,0,0,0,0,0,0,0,0,0,0,0,36820,0,0,0,36820,2,2,0,0,0,0,0,0,0,0,0,36820,36822,0,.56,HUNTSMAN CORP,834697377
2001,77833BLBLL1101S,BLUE BELL CREAMERIES LP,1101 S BLUE BELL RD,BRENHAM,WASHINGTON,TX,778334413,30.163424,-96.377734,2024,,,,,,311520,,,,,,1301150240265,NITRIC ACID,007697372,NO,NON-PBT,NO,0,NO,R,Pounds,0,0,0,0,0,0,0,0,0,0,0,0,0,0,14019,14019,0,0,0,0,0,0,0,0,0,0,0,0,0,0,0,0,0,0,0,0,0,0,0,0,0,0,0,0,0,0,0,0,0,0,0,14019,0,0,0,0,0,0,0,0,0,0,14019,0,0,NA,NA
2001,77292NTRNT6001A,INTERNATIONAL PAINT LLC,6001 ANTOINE DR,HOUSTON,HARRIS,TX,77091,29.85448,-95.4734,2851,,,,,,325510,,,,,,1301150243309,NAPHTHALENE,000091203,YES,NON-PBT,NO,0,NO,R,Pounds,0,6,0,0,0,0,0,0,0,0,0,0,6,0,0,0,41,0,0,0,0,0,0,0,0,0,0,0,0,0,0,0,0,41,427,0,0,0,0,427,0,0,0,0,0,0,0,0,0,0,47,6,0,0,0,0,0,427,2040,0,0,0,2473,0,1,AKZO NOBEL NV,062999347
2001,77292NTRNT6001A,INTERNATIONAL PAINT LLC,6001 ANTOINE DR,HOUSTON,HARRIS,TX,77091,29.85448,-95.4734,2851,,,,,,325510,,,,,,1301150243350,TOLUENE,000108883,YES,NON-PBT,NO,0,NO,R,Pounds,2,37,0,0,0,0,0,0,0,0,0,0,39,0,0,0,57,0,0,0,0,0,0,0,0,0,0,0,0,0,0,0,0,57,600,0,0,0,0,600,0,0,0,0,0,0,0,0,0,0,96,39,0,0,0,0,0,600,2860,0,0,0,3499,0,1,AKZO NOBEL NV,062999347
2001,77292NTRNT6001A,INTERNATIONAL PAINT LLC,6001 ANTOINE DR,HOUSTON,HARRIS,TX,77091,29.85448,-95.4734,2851,,,,,,325510,,,,,,1301150243400,ANTIMONY COMPOUNDS,N010,YES,NON-PBT,YES,1,NO,R,Pounds,0,0,0,0,0,0,0,0,0,0,0,0,0,0,0,0,23,0,0,0,0,0,0,0,0,0,0,0,0,0,0,0,0,23,0,68,0,0,0,68,0,0,0,0,0,0,0,0,0,0,23,1,0,0,0,0,0,68,499,0,0,0,568,0,1,AKZO NOBEL NV,062999347
2001,75212CHMCN2500V,CHEMCENTRAL DALLAS,2500 VINSON ST.,DALLAS,DALLAS,TX,75212,32.775056,-96.896301,5169,,,,,,424690,,,,,,1301150258679,DIMETHYL PHTHALATE,000131113,YES,NON-PBT,NO,0,NO,R,Pounds,250,5,0,0,0,0,0,0,0,0,0,0,255,0,0,0,0,0,0,0,0,0,0,0,0,0,0,0,0,0,0,0,0,0,0,0,0,0,0,0,255,0,255,0,0,0,0,0,0,0,255,15,0,0,0,0,0,420,0,0,0,0,435,0,1.22,CHEMCENTRAL CORP,006929095
2001,75711THTRN6200T,TRANE US INC,6200 TROUP HWY,TYLER,SMITH,TX,75707,32.2902,-95.255566,3585,,,,,,333415,,,,,,1301150299511,CHLORODIFLUOROMETHANE,000075456,NO,NON-PBT,NO,0,NO,R,Pounds,155000,0,0,0,0,0,0,0,0,0,0,0,155000,0,0,0,0,0,0,0,0,0,0,0,0,0,0,0,0,0,0,0,0,0,0,0,42000,0,0,42000,0,0,0,0,0,0,0,0,0,0,155000,155000,0,0,0,0,0,0,0,42000,0,0,197000,0,.95,INGERSOLL-RAND CO,001344621
2001,77506RPRDC1423H,AIR PRODUCTS LLC,1423 HWY 225,PASADENA,HARRIS,TX,77506,29.716141,-95.195031,2869,2865,2873,,,,325199,,,,,,1301150361374,DIAMINOTOLUENE (MIXED ISOMERS),025376458,NO,NON-PBT,NO,0,YES,R,Pounds,0,70,0,0,0,0,0,0,0,0,0,0,70,0,120000,120000,0,0,0,0,0,0,0,0,0,0,0,0,0,0,0,0,0,0,0,0,0,0,0,0,11000,0,11000,0,685500,0,0,0,0,685500,70,70,0,0,0,0,0,11000,0,0,3400,800000,814470,0,.75,AIR PRODUCTS & CHEMICALS INC,003001070
2001,77506RPRDC1423H,AIR PRODUCTS LLC,1423 HWY 225,PASADENA,HARRIS,TX,77506,29.716141,-95.195031,2869,2865,2873,,,,325199,,,,,,1301150361412,NITRATE COMPOUNDS,N511,NO,NON-PBT,NO,0,NO,R,Pounds,0,0,0,0,0,0,0,0,0,0,0,0,0,0,11000000,11000000,0,0,0,0,0,0,0,0,0,0,0,0,0,0,0,0,0,0,0,0,0,0,0,0,0,0,0,0,0,0,0,0,0,0,0,0,0,0,0,0,0,0,0,0,0,11000000,11000000,0,.77,AIR PRODUCTS & CHEMICALS INC,003001070
2001,77506PSDNT1320W,PASADENA TERMINAL,1320 W SHAW,PASADENA,HARRIS,TX,775060000,29.71246,-95.22523,5171,,,,,,424710,,,,,,1301150351854,XYLENE (MIXED ISOMERS),001330207,YES,NON-PBT,NO,0,NO,R,Pounds,231,109,0,0,0,0,0,0,0,0,0,0,340,0,0,0,0,0,0,0,0,0,0,0,0,0,0,0,0,0,0,0,0,0,0,0,0,0,0,0,0,0,0,0,0,0,0,0,0,0,340,340,0,0,0,0,0,0,0,0,0,0,340,0,.98,MOTIVA ENTERPRISES LLC,023838670
2001,77662HRSHDOLDHW,HORSEHEAD CORP,OLD HWY 90,ROSE CITY,ORANGE,TX,77662,30.110774,-94.047495,2816,,,,,,331492,,,,,,1301150348047,ZINC COMPOUNDS,N982,NO,NON-PBT,YES,1,NO,R,Pounds,1,93,0,0,0,0,0,0,0,0,0,0,94,0,0,0,0,0,0,0,0,0,0,0,0,0,0,0,0,0,0,0,0,0,0,93000,0,0,0,93000,0,0,0,0,0,0,0,0,0,0,94,94,0,0,0,0,0,0,0,93000,0,0,93094,0,.21,HORSEHEAD HOLDING CORP,NA
2001,77507LPSPR9802F,SUNOCO CHEMICALS INC,9802 FAIRMONT PKWY,PASADENA,HARRIS,TX,77507,29.65101,-95.08707,2869,2821,,,,,325211,,,,,,1301150389017,AMMONIA,007664417,NO,NON-PBT,NO,0,NO,R,Pounds,250,250,0,0,0,0,0,0,0,0,0,0,500,0,0,0,0,0,0,0,0,0,0,0,0,0,0,0,0,0,0,0,0,0,0,0,0,0,0,0,0,0,0,0,0,0,0,0,0,0,500,620,0,0,0,0,0,0,0,0,0,0,620,0,.88,SUNOCO INC,057152217
2001,75844VLCRFHWY28,NUCOR VULCRAFT GROUP - GRAPELAND DIV,175 COUNTY RD 2345,GRAPELAND,HOUSTON,TX,75844,31.502222,-95.470833,3441,,,,,,332312,,,,,,1301150348896,MANGANESE,007439965,YES,NON-PBT,YES,1,NO,R,Pounds,0,250,0,0,0,0,0,0,0,0,0,0,250,0,0,0,0,0,0,0,0,0,250,0,0,0,0,0,0,0,0,0,0,250,0,0,0,0,0,0,0,0,0,0,0,0,0,0,0,0,500,394,0,0,0,0,0,0,0,0,0,0,394,0,1.05,NUCOR CORP,003446796
2001,77503MCCHM1500N,PURITY ISOBUTYLENE PLANT,1500 N S ST,PASADENA,HARRIS,TX,77508,29.739163,-95.171745,2869,,,,,,325110,,,,,,1301150352870,BIPHENYL,000092524,YES,NON-PBT,NO,0,NO,R,Pounds,3042,1,0,0,0,0,0,0,0,0,0,0,3043,0,0,0,0,0,0,0,0,0,0,0,0,0,0,0,0,0,0,0,0,0,0,0,59627,0,0,59627,0,0,0,0,0,0,0,0,0,0,3043,3043,0,0,0,0,0,0,0,0,0,0,3043,0,1,ENTERPRISE PRODUCTS OPERATING LLC,048210686
2001,75601MRTHN2400S,LETOURNEAU TECHNOLOGIES INC,2400 S MCARTHUR BLVD,LONGVIEW,GREGG,TX,75601,32.452278,-94.746278,3531,,,,,,333120,,,,,,1301150356374,ZINC COMPOUNDS,N982,NO,NON-PBT,YES,1,NO,R,Pounds,3170,1429,250,0,0,0,0,0,0,0,0,0,4849,0,0,0,0,0,0,0,0,0,0,0,0,0,0,0,0,0,0,0,0,0,0,27014,0,0,796,27810,0,0,0,0,0,0,0,0,0,0,4849,4683,0,0,0,0,0,0,0,27810,0,0,32493,0,.84,ROWAN COS,007930050
2001,76063MRCHM1300F,AMERICHEM INC MTX,1300 FT WORTH ST,MANSFIELD,TARRANT,TX,76063,32.55782,-97.12448,3087,,,,,,325991,,,,,,1301150392619,CHROMIUM COMPOUNDS(EXCEPT CHROMITE ORE MINED IN THE TRANSVAAL REGION),N090,YES,NON-PBT,YES,1,NO,R,Pounds,0,5,0,0,0,0,0,0,0,0,0,0,5,5,0,5,0,0,0,0,0,0,1765,0,0,0,0,0,0,0,0,0,0,1765,0,0,0,0,0,0,0,0,0,0,0,0,0,0,0,0,1775,1770,0,0,0,0,0,0,0,0,0,0,1770,0,1.2,AMERICHEM INC,NA
2001,77507CLGNC9640B,ONDEO-NALCO,9640 BAYPORT BLVD.,PASADENA,HARRIS,TX,775071404,29.620929,-95.062713,2899,,,,,,325199,,,,,,1301150305908,ETHYLENE GLYCOL,000107211,YES,NON-PBT,NO,0,NO,R,Pounds,0,0,0,0,0,0,0,0,0,0,0,0,0,0,250,250,0,0,0,0,0,0,0,0,0,0,0,0,0,0,0,0,0,0,0,0,0,0,0,0,0,0,0,0,0,0,0,0,0,0,0,0,0,0,0,0,0,0,0,0,0,468,468,0,0,DEGREMONT AMERICA HOLDINGS INC,NA
2001,75041NNCRB2326L,ONA POLYMERS LLC,2326 LONNECKER DR,GARLAND,DALLAS,TX,75041,32.891667,-96.67277,2821,,,,,,325211,,,,,,1301150312876,ACRYLIC ACID,000079107,YES,NON-PBT,NO,0,NO,R,Pounds,36,1,0,0,0,0,0,0,0,0,0,0,37,0,518,518,0,0,0,0,0,0,0,0,0,0,0,0,0,0,0,0,0,0,0,0,0,0,0,0,0,0,0,0,0,0,0,0,0,0,37,37,0,0,0,0,0,0,0,0,35,518,590,0,1,NA,NA
2001,75041NNCRB2326L,ONA POLYMERS LLC,2326 LONNECKER DR,GARLAND,DALLAS,TX,75041,32.891667,-96.67277,2821,,,,,,325211,,,,,,1301150312938,N-METHYLOLACRYLAMIDE,000924425,NO,NON-PBT,NO,0,NO,R,Pounds,46,0,0,0,0,0,0,0,0,0,0,0,46,0,0,0,0,0,0,0,0,0,0,0,0,0,0,0,0,0,0,0,0,0,0,0,0,0,0,0,0,0,0,0,0,0,0,0,0,0,46,46,0,0,0,0,0,0,0,0,0,0,46,0,1,NA,NA
2001,76092MSCMT400NK,MESCO METAL BUILDINGS,400 N. KIMBALL AVE.,SOUTHLAKE,TARRANT,TX,76092,32.94424,-97.11672,3448,,,,,,332311,,,,,,1301150309918,COPPER,007440508,NO,NON-PBT,YES,1,NO,R,Pounds,0,2,0,0,0,0,0,0,0,0,0,0,2,0,0,0,0,0,0,0,0,0,0,0,0,0,0,0,0,0,0,0,0,0,0,0,0,0,0,0,0,0,0,0,0,0,0,0,0,0,2,2,0,0,0,0,0,0,0,0,0,0,2,0,1.1,NCI BUILDING SYS INC,130234529
2001,77978FRMSPPOBOX,FORMOSA PLASTICS CORP TEXAS,201 FORMOSA DR,POINT COMFORT,CALHOUN,TX,77978,28.688028,-96.552778,2821,2869,,,,,325211,,,,,,1301150389791,CHLORINE,007782505,YES,NON-PBT,NO,0,NO,R,Pounds,568,11064,290,0,0,0,0,0,0,0,0,0,11922,0,0,0,0,0,0,0,0,0,0,0,0,0,0,0,0,0,0,0,0,0,0,0,0,0,0,0,0,0,0,0,0,0,0,0,0,0,11922,11922,0,0,0,0,0,0,0,0,1045377,0,1057299,0,1,FORMOSA PLASTICS CORP USA,039944004
2001,77978FRMSPPOBOX,FORMOSA PLASTICS CORP TEXAS,201 FORMOSA DR,POINT COMFORT,CALHOUN,TX,77978,28.688028,-96.552778,2821,2869,,,,,325211,,,,,,1301150389854,CYCLOHEXANE,000110827,NO,NON-PBT,NO,0,NO,R,Pounds,105,1618,0,0,0,0,0,0,0,0,0,0,1723,0,0,0,0,0,0,0,0,0,0,0,0,0,0,0,0,0,0,0,0,0,0,0,0,0,0,0,0,0,0,0,0,0,0,0,0,0,1723,1723,0,0,0,0,0,0,0,0,0,0,1723,0,1,FORMOSA PLASTICS CORP USA,039944004
2001,77978FRMSPPOBOX,FORMOSA PLASTICS CORP TEXAS,201 FORMOSA DR,POINT COMFORT,CALHOUN,TX,77978,28.688028,-96.552778,2821,2869,,,,,325211,,,,,,1301150390060,HEXACHLOROBENZENE,000118741,YES,PBT,NO,0,YES,R,Pounds,2,1,0,0,0,0,0,0,0,0,0,0,3,0,0,0,0,0,0,0,0,0,0,0,0,0,0,0,0,0,0,0,0,0,0,0,0,0,0,0,0,0,0,0,0,0,0,0,0,0,3,3,0,0,0,0,0,0,0,0,14971,0,14974,0,0,FORMOSA PLASTICS CORP USA,039944004
2001,77507QSTRC5761U,EQUISTAR CHEMICALS BAYPORT CHEMICALS PLANT,5761 UNDERWOOD RD,PASADENA,HARRIS,TX,77507,29.627167,-95.080194,2869,,,,,,325199,,,,,,1301150390413,CHLORINE,007782505,YES,NON-PBT,NO,0,NO,R,Pounds,7400,0,0,0,0,0,0,0,0,0,0,0,7400,0,0,0,0,0,0,0,0,0,0,0,0,0,0,0,0,0,0,0,0,0,0,0,0,0,0,0,0,0,0,0,0,0,0,0,0,0,7400,7400,0,0,0,0,0,0,0,0,0,0,7400,0,1.25,LYONDELL CHEMICAL COMPLANY,194123154
2001,77507QSTRC5761U,EQUISTAR CHEMICALS BAYPORT CHEMICALS PLANT,5761 UNDERWOOD RD,PASADENA,HARRIS,TX,77507,29.627167,-95.080194,2869,,,,,,325199,,,,,,1301150390476,ETHYLENE OXIDE,000075218,YES,NON-PBT,NO,0,YES,R,Pounds,7300,3000,0,0,0,0,0,0,0,0,0,0,10300,0,15000,15000,0,0,0,0,0,0,0,0,0,0,0,0,0,0,0,0,0,0,0,0,0,0,0,0,0,0,0,0,0,0,0,0,0,0,10300,10000,0,0,0,0,0,0,0,0,0,15000,25000,0,.81,LYONDELL CHEMICAL COMPLANY,194123154
2001,77704NCHSRGULFS,LNVA - NORTH REGIONAL TREATMENT PLANT,2655 GULF STATES RD,BEAUMONT,JEFFERSON,TX,77701,30.055917,-94.067167,2911,2869,,,,,324110,,,,,,1301150306835,METHYL ETHYL KETONE,000078933,NO,NON-PBT,NO,0,NO,R,Pounds,250,0,250,0,0,0,0,0,0,0,0,0,500,0,0,0,0,0,0,0,0,0,0,0,0,0,0,0,0,0,0,0,0,0,0,0,0,0,0,0,0,0,0,0,0,0,0,0,0,0,500,704,0,0,0,0,0,0,0,0,4730,0,5434,0,.27,EXXON MOBIL CORP,038799474
2001,77571DPNTL12501,DUPONT LA PORTE PLANT,12501 STRANG RD,LA PORTE,HARRIS,TX,775710347,29.700806,-95.029806,2869,2819,2879,2821,,,325320,,,,,,1301150310528,METHANOL,000067561,YES,NON-PBT,NO,0,NO,R,Pounds,67655,88418,0,899280,0,0,0,0,0,0,0,0,1055353,0,0,0,0,0,0,0,0,0,0,0,0,0,0,0,0,0,0,0,0,0,0,0,259,0,0,259,0,0,0,0,23938,0,0,0,0,23938,1055353,1055353,0,0,0,0,0,0,0,259,4593452,23938,5673002,0,.95,E I DU PONT DE NEMOURS & CO INC,001315704
2001,77571DPNTL12501,DUPONT LA PORTE PLANT,12501 STRANG RD,LA PORTE,HARRIS,TX,775710347,29.700806,-95.029806,2869,2819,2879,2821,,,325320,,,,,,1301150310605,QUINONE,000106514,YES,NON-PBT,NO,0,NO,R,Pounds,0,0,0,0,0,0,0,0,0,0,0,0,0,0,0,0,0,0,0,0,0,0,30,0,0,0,0,0,0,0,0,0,0,30,0,0,0,0,0,0,0,0,0,0,408100,0,0,0,0,408100,30,30,0,0,0,0,0,0,0,0,0,408100,408130,0,1.06,E I DU PONT DE NEMOURS & CO INC,001315704
2001,75006SGSTH1310E,ST MICROELECTRONICS INC,1310 ELECTRONICS DR,CARROLLTON,DALLAS,TX,750065039,32.943889,-96.915556,3674,,,,,,334413,,,,,,1301150339606,"HYDROCHLORIC ACID (1995 AND AFTER ""ACID AEROSOLS"" ONLY)",007647010,YES,NON-PBT,NO,0,NO,R,Pounds,5,606,0,0,0,0,0,0,0,0,0,0,611,0,0,0,0,0,0,0,0,0,0,0,0,0,0,0,0,0,0,0,0,0,0,0,0,0,0,0,0,0,0,0,0,0,0,0,0,0,611,606,0,0,0,0,0,0,0,0,59613,0,60219,0,.78,ST MICROELECTRONICS NV,NA
2001,79066HCHSTFIVEM,CELANESE LTD,US HWY 60 5 MILES W OF PAMPA,PAMPA,GRAY,TX,79065,35.483889,-101.04888,2869,,,,,,325110,,,,,,1301150380513,ACETALDEHYDE,000075070,YES,NON-PBT,NO,0,YES,R,Pounds,2665,11967,0,0,0,0,0,0,0,0,0,0,14632,0,0,0,0,0,0,0,0,0,0,0,0,0,0,0,0,0,0,0,0,0,0,0,0,0,0,0,0,0,0,0,0,0,0,0,0,0,14632,15000,0,0,0,0,391000,0,0,0,283000,0,689000,0,.96,CELANESE CORP,NA
2001,79066HCHSTFIVEM,CELANESE LTD,US HWY 60 5 MILES W OF PAMPA,PAMPA,GRAY,TX,79065,35.483889,-101.04888,2869,,,,,,325110,,,,,,1301150380576,BUTYRALDEHYDE,000123728,NO,NON-PBT,NO,0,NO,R,Pounds,7,50,0,0,0,0,0,0,0,0,0,0,57,0,0,0,0,0,0,0,0,0,0,0,0,0,0,0,0,0,0,0,0,0,0,0,0,0,0,0,0,0,0,0,0,0,0,0,0,0,57,57,0,0,0,0,505000,0,0,0,0,0,505057,0,.99,CELANESE CORP,NA
2001,79066HCHSTFIVEM,CELANESE LTD,US HWY 60 5 MILES W OF PAMPA,PAMPA,GRAY,TX,79065,35.483889,-101.04888,2869,,,,,,325110,,,,,,1301150380626,CYCLOHEXANE,000110827,NO,NON-PBT,NO,0,NO,R,Pounds,5468,1262,0,0,0,0,0,0,0,0,0,0,6730,0,0,0,0,0,0,0,0,0,300,0,0,0,0,0,0,0,0,0,0,300,0,0,0,0,0,0,0,0,0,0,0,0,0,0,0,0,7030,7000,0,0,0,0,1622700,0,0,0,0,0,1629700,0,1.03,CELANESE CORP,NA
2001,79066HCHSTFIVEM,CELANESE LTD,US HWY 60 5 MILES W OF PAMPA,PAMPA,GRAY,TX,79065,35.483889,-101.04888,2869,,,,,,325110,,,,,,1301150380727,MERCURY,007439976,YES,PBT,YES,1,NO,R,Pounds,0,0,0,0,0,0,0,0,0,0,0,35,35,0,0,0,0,0,0,0,0,0,0,0,0,0,0,0,0,0,0,0,0,0,0,0,0,0,0,0,0,0,0,0,0,0,0,0,0,0,35,35,0,0,0,0,0,0,0,0,0,0,35,0,1,CELANESE CORP,NA
2001,79066HCHSTFIVEM,CELANESE LTD,US HWY 60 5 MILES W OF PAMPA,PAMPA,GRAY,TX,79065,35.483889,-101.04888,2869,,,,,,325188,,,,,,1301150380778,METHYL ETHYL KETONE,000078933,NO,NON-PBT,NO,0,NO,R,Pounds,65313,5491,0,0,0,0,0,0,0,0,0,0,70804,0,0,0,0,0,0,0,0,0,60,0,0,0,0,0,0,0,0,0,0,60,0,0,0,0,0,0,0,0,0,0,0,0,0,0,0,0,70864,71000,0,0,0,0,8200000,0,0,0,105000,0,8376000,0,.99,CELANESE CORP,NA
2001,79066HCHSTFIVEM,CELANESE LTD,US HWY 60 5 MILES W OF PAMPA,PAMPA,GRAY,TX,79065,35.483889,-101.04888,2869,,,,,,325110,,,,,,1301150380816,NITRIC ACID,007697372,NO,NON-PBT,NO,0,NO,R,Pounds,134,25,0,0,0,0,0,0,0,0,0,0,159,0,0,0,0,0,0,0,0,0,0,0,0,0,0,0,0,0,0,0,0,0,0,0,0,0,0,0,0,0,0,0,0,0,0,0,0,0,159,160,0,0,0,0,0,0,0,0,0,0,160,0,.9,CELANESE CORP,NA
2001,77541MCCHMFM523,INEOS USA LLC STRATTON RIDGE,5 MI S OF INTERSECTION OF FM2004 & FM 523,CLUTE,BRAZORIA,TX,77541,29.119,-95.38086,5171,,,,,,424710,,,,,,1301150366553,PROPYLENE,000115071,NO,NON-PBT,NO,0,NO,R,Pounds,3860,3550,0,0,0,0,0,0,0,0,0,0,7410,0,0,0,0,0,0,0,0,0,0,0,0,0,0,0,0,0,0,0,0,0,0,0,0,0,0,0,0,0,0,0,0,0,0,0,0,0,7410,7410,0,0,0,0,0,0,0,0,351550,0,358960,0,1,INEOS USA LLC,NA
2001,77044CHMPN11611,ABITIBI-CONSOLIDATED CORP,18511 BEAUMONT HWY,HOUSTON,HARRIS,TX,77049,29.875833,-95.094833,2621,2611,,,,,322121,,,,,,1301150336612,MANGANESE COMPOUNDS,N450,YES,NON-PBT,YES,1,NO,R,Pounds,0,56,15099,0,0,0,22542,0,0,0,0,0,37697,0,0,0,0,0,0,0,0,0,0,0,0,0,0,0,0,0,0,0,0,0,0,0,0,0,0,0,0,0,0,0,0,0,0,0,0,0,37697,37697,0,0,0,0,0,0,0,0,0,0,37697,0,.61,NA,NA
2001,77522XXNCH5000B,EXXONMOBIL BAYTOWN CHEMICAL PLANT,5000 BAYWAY DR,BAYTOWN,HARRIS,TX,775224004,29.741944,-95.026667,2869,2821,2822,,,,325110,,,,,,1301150402889,ANTHRACENE,000120127,NO,NON-PBT,NO,0,NO,R,Pounds,1,1,0,0,0,0,0,2,0,0,0,0,4,0,0,0,0,0,0,0,0,0,0,0,0,0,0,0,0,0,0,0,0,0,0,0,0,0,0,0,0,0,0,0,0,0,0,0,0,0,4,4,0,0,0,0,0,0,0,0,71,0,75,0,7.75,EXXON MOBIL CORP,001213214
2001,77503GNC004402P,POLYONE CORP,4403A PASADENA FWY,PASADENA,HARRIS,TX,77503,29.711335,-95.145473,3087,,,,,,325991,,,,,,1301150406357,VINYL CHLORIDE,000075014,YES,NON-PBT,NO,0,YES,R,Pounds,0,0,0,0,0,0,0,0,0,0,0,0,0,0,0,0,0,0,0,0,0,0,0,0,0,0,0,0,0,0,0,0,0,0,0,0,0,0,0,0,0,0,0,0,0,0,0,0,0,0,0,0,0,0,0,0,0,0,0,0,0,0,0,0,.01,POLYONE CORP,800967705
2001,78218HBGRC4710N,SAN ANTONIO RETAIL SUPPORT CENTER,4710 PAN AM EXPRESSWAY,SAN ANTONIO,BEXAR,TX,78218,29.476112,-98.400002,2024,2051,2026,2015,,,311511,,,,,,1301150377289,NITRATE COMPOUNDS,N511,NO,NON-PBT,NO,0,NO,R,Pounds,0,0,0,0,0,0,0,0,0,0,0,0,0,0,71172,71172,0,0,0,0,0,0,0,0,0,0,0,0,0,0,0,0,0,0,0,0,0,0,0,0,0,0,0,0,0,0,0,0,0,0,0,0,0,0,0,0,0,0,0,0,0,71172,71172,0,.99,HEB GROCERY CO LP,007924756
2001,77501THYLC1000N,ETHYL CORP,1000 N S AVE,PASADENA,HARRIS,TX,77503,29.734056,-95.17,2869,,,,,,325199,,,,,,1301150410482,"1,2-DIBROMOETHANE",000106934,YES,NON-PBT,NO,0,YES,R,Pounds,250,250,0,0,0,0,0,0,0,0,0,0,500,0,0,0,0,0,0,0,0,0,0,0,0,0,0,0,0,0,0,0,0,0,0,0,0,0,0,0,0,0,0,0,431,0,0,0,0,431,500,309,0,0,0,0,0,0,0,0,3148,431,3888,0,1.21,ETHYL CORP,003132222
2001,77501THYLC1000N,ETHYL CORP,1000 N S AVE,PASADENA,HARRIS,TX,77503,29.734056,-95.17,2869,,,,,,325199,,,,,,1301150410583,"HYDROCHLORIC ACID (1995 AND AFTER ""ACID AEROSOLS"" ONLY)",007647010,YES,NON-PBT,NO,0,NO,R,Pounds,250,250,0,0,0,0,0,0,0,0,0,0,500,0,0,0,0,0,0,0,0,0,0,0,0,0,0,0,0,0,0,0,0,0,0,0,0,0,0,0,0,0,0,0,0,0,0,0,0,0,500,237,0,0,0,0,0,0,0,0,348653,0,348890,0,.54,ETHYL CORP,003132222
2001,77522XXNCH5000B,EXXONMOBIL BAYTOWN CHEMICAL PLANT,5000 BAYWAY DR,BAYTOWN,HARRIS,TX,775224004,29.741944,-95.026667,2869,2821,2822,,,,325000,,,,,,1301150403107,METHYL ETHYL KETONE,000078933,NO,NON-PBT,NO,0,NO,R,Pounds,131,17,0,0,0,0,0,0,0,0,0,0,148,0,0,0,0,0,0,0,0,0,0,0,0,0,0,0,0,0,0,0,0,0,0,0,0,0,0,0,7033,0,7033,0,1751,0,0,0,0,1751,148,148,0,0,0,0,0,7033,0,0,0,1751,8932,0,.5,EXXON MOBIL CORP,001213214
2001,77501PHLLP100JE,CONOCOPHILLIPS CO PIPELINE  PASADENA TERMINAL,100 JEFFERSON AT HWY 225,PASADENA,HARRIS,TX,77506,29.716667,-95.178333,5171,,,,,,424710,,,,,,1301150374256,MERCURY COMPOUNDS,N458,YES,PBT,YES,1,NO,R,Pounds,0,0,0,0,0,0,0,0,0,0,0,0,0,0,0,0,0,0,0,0,0,0,0,0,0,0,0,0,0,0,0,0,0,0,0,94,0,0,0,94,0,0,0,0,0,0,0,0,0,0,0,0,0,0,0,0,0,0,0,94,0,0,94,0,0,CONOCOPHILLIPS,001368265
2001,77501PHLLP100JE,CONOCOPHILLIPS CO PIPELINE  PASADENA TERMINAL,100 JEFFERSON AT HWY 225,PASADENA,HARRIS,TX,77506,29.716667,-95.178333,5171,,,,,,424710,,,,,,1301150374318,LEAD COMPOUNDS,N420,YES,PBT,YES,1,NO,R,Pounds,3,0,17,0,0,0,0,0,0,0,0,1,21,0,0,0,0,.2,0,0,0,0,0,0,0,0,0,0,0,0,0,0,0,.2,0,29.8,0,0,0,29.8,0,0,0,0,0,0,0,0,0,0,21.2,21,0,0,0,0,0,0,2,30,0,0,53,0,0,CONOCOPHILLIPS,001368265
2001,77520FRSTC8480W,FIRST CHEMICAL TEXAS LP,8480 W BAY RD,BAYTOWN,CHAMBERS,TX,775238727,29.723327,-94.916968,2865,,,,,,325110,,,,,,1301150367530,NITRIC ACID,007697372,NO,NON-PBT,NO,0,NO,R,Pounds,0,0,0,0,0,0,0,0,0,0,0,0,0,0,0,0,0,0,0,0,0,0,0,0,0,0,0,0,0,0,0,0,0,0,0,0,0,0,0,0,0,0,0,0,0,0,0,0,0,0,0,0,0,0,0,0,0,0,0,0,0,0,0,0,1,E I DU PONT DE NEMOURS & CO INC,008966418
