Year,TRI Facility ID,Facility Name,Street Address,City,County,ST,ZIP,Latitude,Longitude,Primary SIC,SIC 2,SIC 3,SIC 4,SIC 5,SIC 6,Primary NAICS,NAICS 2,NAICS 3,NAICS 4,NAICS 5,NAICS 6,Doc_Ctrl_Num,Chemical,CAS #/Compound ID,Clean Air Act Chemical,Classification,Metal,Metal Category,Carcinogen,Form Type,Unit of Measure,5.1 Fugitive Air,5.2 Stack Air,5.3 Water,5.4.1 Underground Class I,5.4.2 Underground Class II-V,5.5.1A RCRA C Landfills,5.5.1B Other Landfills,5.5.2 Land Treatment,5.5.3 Surface Impoundment,5.5.3A RCRA C Surface Impoundment,5.5.3B Other Surface Impoundment,5.5.4 Other Disposal,On-site Release Total,6.1 POTW - Metals and Metal Compounds,6.1 POTW - Non-Metals,6.1 POTW - Total Transfers,6.2 M10,6.2 M41,6.2 M62,6.2 M71,6.2 M81,6.2 M82,6.2 M72,6.2 M63,6.2 M66,6.2 M67,6.2 M64,6.2 M65,6.2 M73,6.2 M79,6.2 M90,6.2 M94,6.2 M99,Off-Site Release Total,6.2 M20,6.2 M24,6.2 M26,6.2 M28,6.2 M93,Off-Site Recycled Total,6.2 M56,6.2 M92,Off-Site Recovery Total,6.2 M40,6.2 M50,6.2 M54,6.2 M61,6.2 M69,6.2 M95,Off-Site Treated Total,Total Releases,8.1 Releases,8.1a On-site Contained Releases,8.1b On-site Other Releases,8.1c Off-site Contained Releases,8.1d Off-site Other Releases,8.2 Energy Recovery On-site,8.3 Energy Recovery Off-site,8.4 Recycling On-Site,8.5 Recycling Off-Site,8.6 Treatment On-site,8.7 Treatement Off-site,Production Waste (8.1 thru 8.7),8.8 One-time Release,8.9 Production Ratio,Parent Company Name,Parent Company DB Number,3/3/2012 v10
2001,92718MLTKN16HAM,MULTILAYER TECHNOLOGY INC,16 HAMMOND 24 HAMMOND,IRVINE,ORANGE,CA,92618,33.660656,-117.702064,3672,,,,,,334412,,,,,,1301150094530,LEAD,007439921,YES,PBT,YES,1,YES,R,Pounds,0,0,0,0,0,0,0,0,0,0,0,0,0,36,0,36,0,0,0,0,0,0,0,0,0,0,0,0,0,0,0,0,0,0,0,0,0,0,5496,5496,0,0,0,0,0,0,0,0,0,0,36,36,0,0,0,0,0,0,0,5496,0,0,5532,0,.8,NA,NA
2001,92718MLTKN16HAM,MULTILAYER TECHNOLOGY INC,16 HAMMOND 24 HAMMOND,IRVINE,ORANGE,CA,92618,33.660656,-117.702064,3672,,,,,,334412,,,,,,1301150094581,SODIUM DIMETHYLDITHIOCARBAMATE,000128041,NO,NON-PBT,NO,0,NO,R,Pounds,0,0,0,0,0,0,0,0,0,0,0,0,0,0,0,0,0,0,0,0,0,0,0,0,0,0,0,0,0,0,0,0,0,0,0,0,0,0,0,0,0,0,0,0,0,0,0,0,120138,120138,0,0,0,0,0,0,0,0,0,0,0,120138,120138,0,.68,NA,NA
2001,94520SMNSM4040N,SIEMENS MEDICAL SOLUTIONS USA,4040 NELSON AVE,CONCORD,CONTRA COSTA,CA,94520,38.008333,-122.043799,3844,,,,,,334517,,,,,,1301150084717,COPPER,007440508,NO,NON-PBT,YES,1,NO,R,Pounds,0,0,0,0,0,0,0,0,0,0,0,0,0,0,0,0,0,5,0,0,0,0,0,0,0,0,0,0,0,0,0,0,0,5,0,7500,0,0,0,7500,0,0,0,0,0,0,0,0,0,0,5,0,0,0,0,0,0,0,0,7500,0,0,7500,0,0,SIEMENS AG,103231817
2001,90810WSTRN2001E,WESTERN TUBE & CONDUIT CORP,2001 E DOMINGUEZ ST,LONG BEACH,LOS ANGELES,CA,90810,33.839215,-118.234452,3317,,,,,,331210,,,,,,1301150032819,TOLUENE,000108883,YES,NON-PBT,NO,0,NO,R,Pounds,7994,15653,0,0,0,0,0,0,0,0,0,0,23647,0,0,0,0,0,0,0,0,0,0,0,0,0,0,0,0,0,0,0,0,0,0,0,0,0,0,0,1800,0,1800,0,0,0,0,0,0,0,23647,24267,0,0,0,0,0,1800,0,0,112959,0,139026,0,.96,NA,NA
2001,90023MVCCH4100E,AMVAC CHEMICAL CORP,4100 E WASHINGTON BLVD,LOS ANGELES,LOS ANGELES,CA,90023,34.009444,-118.188056,2879,2869,,,,,325320,,,,,,1301150036313,"HYDROCHLORIC ACID (1995 AND AFTER ""ACID AEROSOLS"" ONLY)",007647010,YES,NON-PBT,NO,0,NO,R,Pounds,1341,4485,0,0,0,0,0,0,0,0,0,0,5826,0,0,0,0,0,0,0,0,0,0,0,0,0,0,0,0,0,0,0,0,0,0,0,0,0,0,0,0,0,0,0,0,0,0,0,0,0,5826,5826,0,0,0,0,0,0,0,0,0,0,5826,0,1,AMERICAN VANGUARD CORP,049343924
2001,91719M    8500M,3M CO - CORONA,18750 MINNESOTA RD,CORONA,RIVERSIDE,CA,92881,33.845949,-117.511312,3295,,,,,,327992,,,,,,1301150036390,MANGANESE COMPOUNDS,N450,YES,NON-PBT,YES,1,NO,R,Pounds,290,59,0,0,0,0,240,0,14,0,0,0,603,0,0,0,0,0,0,0,0,0,180,0,0,0,0,0,0,0,0,0,0,180,0,7300,0,0,0,7300,0,0,0,0,0,0,0,0,0,0,783,780,0,0,0,0,0,0,0,7300,0,0,8080,0,1.03,3M CO,006173082
2001,93657GNRLC1075N,GENERAL CABLE INDUSTRIES LLC,1075 N. AVE.,SANGER,FRESNO,CA,936573539,36.692177,-119.55166,3357,,,,,,335929,,,,,,1301150059020,COPPER,007440508,NO,NON-PBT,YES,1,NO,R,Pounds,330,0,0,0,0,0,0,0,0,0,0,0,330,0,0,0,0,2114,0,0,0,0,323,0,0,0,0,0,0,0,0,0,0,2437,0,1179310,0,0,692,1180002,0,0,0,0,0,0,0,0,0,0,2767,2767,0,0,0,0,0,0,0,1180002,0,0,1182769,0,.87,GENERAL CABLE CORP,793463209
2001,92355BNNZL11711,SIERRA ALUMINUM CO,11711 PACIFIC AVE,FONTANA,SAN BERNARDINO,CA,92337,34.04065,-117.51828,3354,,,,,,331316,,,,,,1301150066746,METHYL ETHYL KETONE,000078933,NO,NON-PBT,NO,0,NO,R,Pounds,0,85,0,0,0,0,0,0,0,0,0,0,85,0,0,0,0,0,0,0,0,0,0,0,0,0,0,0,0,0,0,0,0,0,0,0,0,0,0,0,182,0,182,0,0,0,0,0,0,0,85,85,0,0,0,0,0,182,0,0,0,0,267,0,1.25,NA,NA
2001,91016M    1601S,3M CO - MONROVIA TAPE,1601 S SHAMROCK AVE,MONROVIA,LOS ANGELES,CA,910164248,34.134168,-117.990764,3069,3497,2295,,,,313000,,,,,,1301150088692,METHYL ETHYL KETONE,000078933,NO,NON-PBT,NO,0,NO,R,Pounds,2000,1000,0,0,0,0,0,0,0,0,0,0,3000,0,0,0,0,0,0,0,0,0,0,0,0,0,0,0,0,0,0,0,0,0,400,0,0,0,0,400,0,0,0,0,500,0,0,0,0,500,3000,3100,0,0,0,0,0,0,0,400,21000,500,25000,0,1.03,3M CO,006173082
2001,90023HCKRY4542E,HICKORY SPRINGS OF CALIFORNIA INC,4542 E DUNHAM ST,LOS ANGELES,LOS ANGELES,CA,90040,34.01288,-118.174383,3086,,,,,,326150,,,,,,1301150025854,TOLUENE DIISOCYANATE (MIXED ISOMERS),026471625,NO,NON-PBT,NO,0,YES,R,Pounds,0,143,0,0,0,0,0,0,0,0,0,0,143,0,0,0,0,0,0,0,0,0,0,0,0,0,0,0,0,0,0,0,0,0,0,0,0,0,0,0,0,0,0,0,861,0,0,0,0,861,143,143,0,0,0,0,0,0,0,0,0,861,1004,0,.86,HICKORY SPRINGS MANUFACTURING CO,003216850
2001,92703DTLCT410NN,DATA ELECTRONICS SERVICES,410 N NANTUCKET,SANTA ANA,ORANGE,CA,927033345,33.748581,-117.901432,3672,,,,,,334412,,,,,,1301150026110,COPPER,007440508,NO,NON-PBT,YES,1,NO,R,Pounds,0,0,0,0,0,0,0,0,0,0,0,0,0,250,0,250,0,0,0,0,0,0,0,0,0,0,0,0,0,0,0,0,0,0,0,13077,0,0,0,13077,0,0,0,0,0,0,0,0,0,0,250,0,0,0,0,0,0,0,0,13077,0,0,13077,0,.39,NA,NA
2001,95023TLDYN3601U,PACIFIC SCIENTIFIC ENERGETICS MATERIALS CO CALIFORNIA,3601 UNION RD,HOLLISTER,SAN BENITO,CA,95023,36.837869,-121.452615,2892,,,,,,325920,,,,,,1301150012728,LEAD COMPOUNDS,N420,YES,PBT,YES,1,NO,R,Pounds,0,10.57,0,0,0,0,0,0,0,0,0,0,10.57,0,0,0,0,0,0,0,0,0,1503.26,0,0,0,0,0,0,0,0,0,0,1503.26,0,0,0,0,0,0,0,0,0,0,0,0,0,0,0,0,1513.83,1513.86,0,0,0,0,0,0,0,0,0,0,1513.86,0,.99,DANAHER CORP,NA
2001,90670BRNNT10747,BRENNTAG PACIFIC INC,10747 PATTERSON PL,SANTA FE SPRINGS,LOS ANGELES,CA,906704043,33.937333,-118.060278,5169,,,,,,424690,,,,,,1301150081735,DICHLOROMETHANE,000075092,YES,NON-PBT,NO,0,YES,R,Pounds,627,2376,0,0,0,0,0,0,0,0,0,0,3003,0,0,0,0,0,0,0,0,0,0,0,0,0,0,0,0,0,0,0,0,0,0,0,0,0,0,0,0,0,0,0,0,0,0,0,0,0,3003,3003,0,0,0,0,0,0,0,0,0,0,3003,0,1,BRENNTAG NA INC,092963644
2001,91503RBNKM210SV,AVIBANK MANUFACTURING INC,210 S VICTORY BLVD,BURBANK,LOS ANGELES,CA,915030391,34.172158,-118.315855,3452,,,,,,332722,,,,,,1301150012817,CHROMIUM,007440473,YES,NON-PBT,YES,1,YES,R,Pounds,0,0,0,0,0,0,0,0,0,0,0,0,0,0,0,0,0,0,0,0,0,0,0,0,0,0,0,0,0,0,0,0,0,0,0,0,0,0,0,0,0,0,0,0,0,0,0,0,0,0,0,0,0,0,0,0,0,0,0,0,2829,0,2829,0,0,SPS TECHNOLOGIES INC,008299257
2001,90040SHLND6608E,ASHLAND SPECIALTY CHEMICAL CO,6608 E 26TH ST,COMMERCE,LOS ANGELES,CA,90040,33.983333,-118.133333,2821,,,,,,325211,,,,,,1301150013249,STYRENE,000100425,YES,NON-PBT,NO,0,YES,R,Pounds,516,2756,0,0,0,0,0,0,0,0,0,0,3272,0,0,0,0,0,0,0,0,0,0,0,0,0,0,0,0,0,0,0,0,0,0,0,0,0,0,0,7560,0,7560,0,0,0,0,0,0,0,3272,3272,0,0,0,0,1600,7560,0,0,0,0,12432,0,.83,ASHLAND INC,005003264
2001,90065VLLYP2701S,VALLEY PLATING WORKS INC,2701 N SAN FERNANDO RD,LOS ANGELES,LOS ANGELES,CA,90065,34.10953,-118.242193,3471,,,,,,332813,,,,,,1301150052013,LEAD COMPOUNDS,N420,YES,PBT,YES,1,NO,R,Pounds,0,0,0,0,0,0,0,0,0,0,0,0,0,0,0,0,0,0,0,0,0,0,0,0,0,0,0,0,0,0,0,0,0,0,0,684,0,0,0,684,0,0,0,0,0,0,0,0,0,0,0,0,0,0,0,0,0,0,0,684,0,0,684,0,0,VALLEY PLATING WORKS INC,NA
2001,92311SDDSMB505B,US MARINE CORPS LOGISTICS BASE,B570 BOX 110570,BARSTOW,SAN BERNARDINO,CA,923115000,34.87833,-116.9389,9711,,,,,,928110,,,,,,1301150016525,ETHYLENE GLYCOL,000107211,YES,NON-PBT,NO,0,NO,R,Pounds,133,0,0,0,0,0,0,0,0,0,0,0,133,0,0,0,0,0,0,0,0,0,0,0,0,0,0,0,0,0,0,0,0,0,34704,0,0,0,0,34704,0,0,0,0,0,0,0,0,0,0,133,133,0,0,0,0,0,0,0,34704,0,0,34837,0,.93,US DEPARTMENT OF DEFENSE,NA
2001,90638RHMHS14445,ROHM & HAAS CHEMICALS LLC,14445 ALONDRA BLVD,LA MIRADA,LOS ANGELES,CA,906385209,33.890756,-118.024416,2821,,,,,,325211,,,,,,1301150013175,ACRYLIC ACID,000079107,YES,NON-PBT,NO,0,NO,R,Pounds,0,0,0,0,0,0,0,0,0,0,0,0,0,0,0,0,0,0,0,0,0,0,0,0,0,0,0,0,0,0,0,0,0,0,0,0,0,0,0,0,0,0,0,0,0,0,0,808,0,808,0,0,0,0,0,0,0,0,0,0,0,807,807,0,.9,THE DOW CHEMICAL CO,001381581
2001,90505BCHMN3132K,BACHEM INC,3132 KASHIWA ST,TORRANCE,LOS ANGELES,CA,90505,33.814785,-118.339093,2834,,,,,,325412,,,,,,1301150024141,"N,N-DIMETHYLFORMAMIDE",000068122,YES,NON-PBT,NO,0,YES,R,Pounds,250,250,0,0,0,0,0,0,0,0,0,0,500,0,5,5,0,0,0,0,0,0,0,0,0,0,0,0,0,0,0,0,0,0,0,0,0,0,0,0,31367,0,31367,0,0,0,0,0,0,0,500,15,0,0,0,0,0,31367,0,0,0,0,31382,1,1.01,BACHEM HOLDING,NA
2001,92704MDTRR2500S,MEDITERRANEAN YACHTS,2500 S SUSAN ST,SANTA ANA,ORANGE,CA,92704,33.713727,-117.91279,3732,,,,,,336000,,,,,,1301150069565,STYRENE,000100425,YES,NON-PBT,NO,0,YES,R,Pounds,12910,9739,0,0,0,0,0,0,0,0,0,0,22649,0,0,0,0,0,0,0,0,0,0,0,0,0,0,0,0,0,0,0,0,0,0,0,0,0,0,0,0,0,0,0,0,0,0,0,0,0,22649,22649,0,0,0,0,0,0,0,0,0,0,22649,0,.59,NA,NA
2001,94804BRDLB3300R,BIO-RAD LABORATORIES INC,3300 REGATTA BLVD,RICHMOND,CONTRA COSTA,CA,94804,37.91732,-122.338491,3826,,,,,,334516,,,,,,1301150009746,DIISOCYANATES,N120,YES,NON-PBT,NO,0,NO,R,Pounds,0,0,0,0,0,0,0,0,0,0,0,0,0,0,0,0,0,0,0,0,0,0,0,0,0,0,0,0,0,0,0,0,0,0,0,0,0,0,0,0,0,0,0,0,0,458,0,0,0,458,0,0,0,0,0,0,0,0,0,0,0,468,468,0,1,BIO-RAD LABORATORIES INC,009127663
2001,94804BRDLB803WR,BIO-RAD LABORATORIES INC,803 WRIGHT AVE,RICHMOND,CONTRA COSTA,CA,94804,37.92121,-122.361822,2869,,,,,,334516,,,,,,1301150009797,ACRYLAMIDE,000079061,YES,NON-PBT,NO,0,YES,R,Pounds,0,3,0,0,0,0,0,0,0,0,0,0,3,0,0,0,0,0,0,0,0,0,0,0,0,0,0,0,0,0,0,0,0,0,0,0,0,0,0,0,2250,0,2250,0,0,103,0,0,0,103,3,3,0,0,0,0,0,2250,0,0,575,103,2931,0,1,BIO-RAD LABORATORIES INC,009127663
2001,93308BKRSF4937S,CORNERSTONE COAST ENERGY GROUP DIV BAKERSFIELD LPG TERMINAL,4937 STANDARD ST,BAKERSFIELD,KERN,CA,933084531,35.403039,-119.047854,5171,,,,,,424710,,,,,,1301150021208,BENZENE,000071432,YES,NON-PBT,NO,0,YES,R,Pounds,250,0,0,0,0,0,0,0,0,0,0,0,250,0,0,0,0,0,0,0,0,0,0,0,0,0,0,0,0,0,0,0,0,0,0,0,0,0,0,0,0,0,0,0,0,0,0,0,0,0,250,13,0,0,0,0,0,0,0,0,0,0,13,0,0,CORNERSTONE PROPANE LP,029626256
2001,90805DGNGT2400E,EDGINGTON OIL CO,2400 E ARTESIA BLVD,LONG BEACH,LOS ANGELES,CA,90805,33.874612,-118.164017,2911,,,,,,324110,,,,,,1301150050490,PHENOL,000108952,YES,NON-PBT,NO,0,NO,R,Pounds,0,0,0,0,0,0,0,0,0,0,0,0,0,0,750,750,0,0,0,0,0,0,0,0,0,0,0,0,0,0,0,0,0,0,0,0,0,0,0,0,0,0,0,0,0,0,0,0,0,0,0,617,0,0,0,0,0,0,0,0,0,0,617,0,0,ALON USA LP,072784523
2001,94533MRCNN2433C,REXAM BEVERAGE CAN CO RE: FAIRFIELD PLANT,2433 CROCKER CIR,FAIRFIELD,SOLANO,CA,94533,38.273324,-121.986514,3411,,,,,,332431,,,,,,1301150076661,N-BUTYL ALCOHOL,000071363,NO,NON-PBT,NO,0,NO,R,Pounds,10316,6263,0,0,0,0,0,0,0,0,0,0,16579,0,0,0,0,0,0,0,0,0,0,0,0,0,0,0,0,0,0,0,0,0,0,0,0,0,0,0,173,0,173,0,0,0,0,0,0,0,16579,16579,0,0,0,0,0,173,0,0,118838,0,135590,0,1.15,REXAM BEVERAGE CAN CO,005105366
2001,93650THVND7209N,VENDO CO,7209 N INGRAM AVE,FRESNO,FRESNO,CA,93650,36.841183,-119.801836,3581,,,,,,333311,,,,,,1301150054005,CHLORODIFLUOROMETHANE,000075456,NO,NON-PBT,NO,0,NO,R,Pounds,5182,103,0,0,0,0,0,0,0,0,0,0,5285,0,0,0,0,0,0,0,0,0,187,0,0,0,0,0,0,0,0,0,0,187,0,0,161,0,0,161,0,0,0,0,0,0,0,0,0,0,5472,5285,0,0,0,0,0,0,0,161,0,0,5446,0,.73,SANDEN OF AMERICA INC,NA
2001,92649CTNGS15541,LAIRD COATINGS CORP,15541 COMMERCE LN,HUNTINGTON BEACH,ORANGE,CA,926491601,33.736586,-118.031186,2851,,,,,,325510,,,,,,1301150070225,CERTAIN GLYCOL ETHERS,N230,YES,NON-PBT,NO,0,NO,R,Pounds,1009,0,0,0,0,0,0,0,0,0,0,0,1009,0,0,0,0,0,0,0,0,0,0,0,0,0,0,0,0,0,0,0,750,750,0,0,0,0,0,0,0,0,0,0,0,0,0,0,0,0,1759,1009,0,0,0,0,0,0,0,0,0,3865,4874,0,.81,NA,NA
2001,90301RHCHM425IS,RHO-CHEM LLC,425 ISIS AVE,INGLEWOOD,LOS ANGELES,CA,90301,33.958398,-118.375332,4953,,,,,,562000,,,,,,1301150073688,"1,1,1-TRICHLOROETHANE",000071556,YES,NON-PBT,NO,0,NO,R,Pounds,5,5,0,0,0,0,0,0,0,0,0,0,10,0,5,5,0,0,0,0,0,0,0,0,0,0,0,0,0,0,0,0,0,0,0,0,0,0,0,0,0,0,0,0,0,10940,0,0,0,10940,10,10,0,0,0,0,0,0,52697,0,0,10939,63646,0,0,"PSC,LLC",248622813
2001,91311MRCNN20730,REXAM BEVERAGE CAN CO RE: CHATSWORTH FACILITY,20730 PRAIRIE ST,CHATSWORTH,LOS ANGELES,CA,91311,34.240892,-118.584837,3411,,,,,,332431,,,,,,1301150076949,NITRATE COMPOUNDS,N511,NO,NON-PBT,NO,0,NO,R,Pounds,0,0,0,0,0,0,0,0,0,0,0,0,0,0,32971,32971,0,0,0,0,0,0,0,0,0,0,0,0,0,0,0,0,0,0,0,0,0,0,0,0,0,0,0,0,0,0,0,0,0,0,0,0,0,0,0,0,0,0,0,0,0,32971,32971,0,.77,REXAM BEVERAGE CAN CO,005105366
2001,94560JNSHM8400E,JONES-HAMILTON CO.,8400 ENTERPRISE DR.,NEWARK,ALAMEDA,CA,945603310,37.522757,-122.04792,2819,,,,,,325188,,,,,,1301150007262,"SULFURIC ACID (1994 AND AFTER ""ACID AEROSOLS"" ONLY)",007664939,NO,NON-PBT,NO,0,NO,R,Pounds,0,2,0,0,0,0,0,0,0,0,0,0,2,0,0,0,0,0,0,0,0,0,0,0,0,0,0,0,0,0,0,0,0,0,0,0,0,0,0,0,0,0,0,0,0,0,0,0,0,0,2,2,0,0,0,0,0,0,0,0,108,0,110,0,.81,NA,NA
2001,90248MCHNC15220,MECHANICAL METAL FINISHING,15220 S BROADWAY,GARDENA,LOS ANGELES,CA,90248,33.893548,-118.277637,3471,,,,,,332813,,,,,,1301150051326,NITRATE COMPOUNDS,N511,NO,NON-PBT,NO,0,NO,R,Pounds,0,0,0,0,0,0,0,0,0,0,0,0,0,0,60800,60800,0,0,0,0,0,0,0,0,0,0,0,0,0,0,0,0,0,0,0,0,0,0,0,0,0,0,0,0,0,0,0,0,0,0,0,0,0,0,0,0,0,0,0,0,0,60800,60800,0,.98,NA,NA
2001,91730RLNLC9433H,ARLON MATERIALS FOR ELECTRONI CS DIV,9433 HYSSOP DR,RANCHO CUCAMONGA,SAN BERNARDINO,CA,91730,34.083629,-117.54396,3083,,,,,,334412,,,,,,1301150044749,N-METHYL-2-PYRROLIDONE,000872504,NO,NON-PBT,NO,0,NO,R,Pounds,332,556,0,0,0,0,0,0,0,0,0,0,888,0,0,0,0,0,0,0,0,0,0,0,0,0,0,0,0,0,0,0,0,0,0,0,0,0,0,0,0,22115,22115,0,0,0,0,0,0,0,888,888,0,0,0,0,0,22115,0,0,21216,0,44219,0,.79,WHX CORP,NA
2001,92064HLLMR13500,HALLMARK CIRCUITS INC,13500 DANIELSON ST,POWAY,SAN DIEGO,CA,92064,32.939875,-117.037451,3672,,,,,,334412,,,,,,1301150081230,AMMONIA,007664417,NO,NON-PBT,NO,0,NO,R,Pounds,250,5,0,0,0,0,0,0,0,0,0,0,255,0,250,250,0,0,0,0,0,0,0,0,0,0,0,0,0,0,0,0,0,0,0,13500,0,0,0,13500,0,0,0,0,0,0,0,0,0,0,255,4,0,0,0,0,0,0,0,13500,130,13500,27134,0,0,NA,NA
2001,90723CRRMT14900,CERRO METAL PRODUCTS CO,14900 GARFIELD AVE,PARAMOUNT,LOS ANGELES,CA,90723,33.89821,-118.16885,3351,,,,,,331421,,,,,,1301150004354,COPPER,007440508,NO,NON-PBT,YES,1,NO,R,Pounds,250,250,0,0,0,0,75,0,0,0,0,0,575,5,0,5,0,0,0,0,0,0,75,0,0,0,0,0,0,0,0,0,0,75,0,309441,0,0,0,309441,0,0,0,0,0,0,0,0,0,0,655,30,0,0,0,0,0,0,0,309441,0,2,309473,0,1.43,MARMON GROUP INC,151849957
2001,95060SLCNS2300D,TEXAS INSTRUMENTS INC,2300 DELAWARE AVE,SANTA CRUZ,SANTA CRUZ,CA,95060,36.954764,-122.057087,3674,,,,,,334413,,,,,,1301150007831,NITRIC ACID,007697372,NO,NON-PBT,NO,0,NO,R,Pounds,5,250,0,0,0,0,0,0,0,0,0,0,255,0,5,5,0,0,0,0,0,0,0,0,0,0,0,0,0,0,0,0,0,0,0,0,0,0,0,0,0,0,0,0,5,0,0,0,0,5,255,25,0,0,0,0,0,0,0,0,14000,10,14035,0,.51,NA,NA
2001,92127SNYMN16450,SONY ELECTRONICS INC. SAN DIEGO,16450 W BERNARDO DR,SAN DIEGO,SAN DIEGO,CA,921271804,33.013034,-117.087915,3671,3571,,,,,334411,,,,,,1301150008946,AMMONIA,007664417,NO,NON-PBT,NO,0,NO,R,Pounds,16131,8970,0,0,0,64,0,0,0,0,0,0,25165,0,10714,10714,0,0,0,0,0,0,64,0,0,0,0,0,0,0,0,0,0,64,0,0,0,0,0,0,0,0,0,0,0,0,0,0,0,0,25229,35879,0,0,0,0,0,0,0,0,132335,0,168214,0,.65,SONY ELECTRONICS INC,005902150
2001,91761NNVTV301SD,INNOVATIVE POLYMER SYSTEMS INC,301 S DOUBLEDAY AVE,ONTARIO,SAN BERNARDINO,CA,91761,34.06128,-117.56546,2821,,,,,,325211,,,,,,1301150031488,MERCURY COMPOUNDS,N458,YES,PBT,YES,1,NO,R,Pounds,0,0,0,0,0,0,0,0,0,0,0,0,0,0,0,0,0,0,0,0,0,0,0,0,0,0,0,0,0,0,0,0,0,0,0,0,0,0,0,0,0,0,0,0,0,0,0,0,0,0,0,0,0,0,0,0,0,0,0,0,0,0,0,0,1.25,NA,NA
2001,91311HFFMN20701,FADAL MACHINING CENTERS LLC,20701 PLUMMER ST,CHATSWORTH,LOS ANGELES,CA,91311,34.24271,-118.58418,3541,,,,,,333512,,,,,,1301150004950,MANGANESE COMPOUNDS,N450,YES,NON-PBT,YES,1,NO,R,Pounds,0,0,0,0,0,0,0,0,0,0,0,0,0,0,0,0,0,0,0,0,0,0,0,0,0,0,0,0,0,0,0,0,0,0,0,0,0,0,13896,13896,0,0,0,0,0,0,0,0,0,0,0,0,0,0,0,0,0,0,20560,13896,0,0,34456,0,.71,MAG DOMESTIC HOLDINGS,NA
2001,90248CSTRT515EA,CAST-RITE CORP,515 E AIRLINE WAY,GARDENA,LOS ANGELES,CA,90248,33.887471,-118.268023,3363,,,,,,331521,,,,,,1301150028520,COPPER,007440508,NO,NON-PBT,YES,1,NO,R,Pounds,0,0,0,0,0,0,0,0,0,0,0,0,0,0,0,0,0,0,0,0,0,0,0,0,0,0,0,0,0,0,0,0,0,0,0,253232,0,0,0,253232,0,0,0,0,0,0,0,0,0,0,0,0,0,0,0,0,0,0,0,253232,0,0,253232,0,1.08,NA,NA
2001,95624GRGPC10399,GEORGIA-PACIFIC CHEMICALS LLC,10399 E STOCKTON BLVD,ELK GROVE,SACRAMENTO,CA,95624,38.382164,-121.360489,2821,,,,,,325211,,,,,,1301150061113,N-BUTYL ALCOHOL,000071363,NO,NON-PBT,NO,0,NO,R,Pounds,197,23,0,0,0,0,0,0,0,0,0,0,220,0,0,0,0,0,0,0,0,0,0,0,0,0,0,0,0,0,0,0,0,0,0,0,0,0,0,0,0,0,0,0,16441,0,0,0,0,16441,220,220,0,0,0,0,0,0,0,0,0,0,220,0,.96,KOCH INDUSTRIES INC,006944334
2001,94063BYRCR91WIN,BAY AREA CIRCUITS INC,91 WINSLOW ST,REDWOOD CITY,SAN MATEO,CA,94063,37.492047,-122.233757,3672,3471,,,,,334412,,,,,,1301150064739,LEAD,007439921,YES,PBT,YES,1,YES,R,Pounds,0,0,0,0,0,0,0,0,0,0,0,0,0,0,0,0,0,0,0,0,0,0,0,0,0,0,0,0,0,0,0,0,0,0,0,5846,0,0,0,5846,0,0,0,0,0,0,0,0,0,0,0,0,0,0,0,0,0,0,0,6000,0,0,6000,0,0,NA,NA
2001,90220CNTNN2225E,PLASKOLITE WEST INC,2225 E DEL AMO BLVD,COMPTON,LOS ANGELES,CA,902206303,33.846717,-118.22671,2821,,,,,,325211,,,,,,1301150009280,ETHYL ACRYLATE,000140885,YES,NON-PBT,NO,0,YES,R,Pounds,40,10,0,0,0,0,0,0,0,0,0,0,50,0,0,0,0,0,0,0,0,0,0,0,0,0,0,0,0,0,0,0,0,0,0,0,0,0,0,0,0,37,37,0,0,0,0,0,0,0,50,50,0,0,0,0,331,37,0,0,0,0,418,0,.61,PLASKOLITE INC,130972347
2001,93902CHMCL11771,CHEMICAL LIME NATIVADAD PLANT,11771 OLD STAGE RD,SALINAS,MONTEREY,CA,93902,36.744352,-121.603852,3274,3299,,,,,327410,,,,,,1301150093983,"BENZO(G,H,I)PERYLENE",000191242,YES,PBT,NO,0,YES,R,Pounds,0,.016,0,0,0,0,0,0,0,0,0,0,.016,0,0,0,0,0,0,0,0,0,0,0,0,0,0,0,0,0,0,0,0,0,0,0,0,0,0,0,0,0,0,0,0,0,0,0,0,0,.016,.016,0,0,0,0,0,0,0,0,0,0,.016,0,.61,NA,NA
2001,92011PTRSL1888N,BRENNTAG PACIFIC,1888 NIRVANA AVE,CHULA VISTA,SAN DIEGO,CA,91911,32.593863,-117.017253,5169,,,,,,424690,,,,,,1301150094391,METHANOL,000067561,YES,NON-PBT,NO,0,NO,R,Pounds,242,352,0,0,0,0,0,0,0,0,0,0,594,0,0,0,0,0,0,0,0,0,0,0,0,0,0,0,0,0,0,0,0,0,0,0,0,0,0,0,0,0,0,0,0,0,0,0,0,0,594,594,0,0,0,0,0,0,0,0,0,0,594,0,.9,BRENNTAG NA INC,092963644
2001,93001PPLDS320WE,BLUESTAR SILICONES USA CORP,320 W STANLEY AVE,VENTURA,VENTURA,CA,93001,34.30065,-119.30049,2821,2869,,,,,325199,,,,,,1301150157257,XYLENE (MIXED ISOMERS),001330207,YES,NON-PBT,NO,0,NO,R,Pounds,496,0,0,0,0,0,0,0,0,0,0,0,496,0,0,0,0,0,0,0,0,0,0,0,0,0,0,0,0,0,0,0,0,0,0,0,0,0,0,0,0,0,0,0,0,0,0,0,0,0,496,496,0,0,0,0,0,0,0,0,0,0,496,0,.95,BLUESTAR SILICONES USA CORP,791498962
2001,94550SDSND7011E,US DOE SANDIA NATIONAL LABORATORIES/CALIFORNIA,7011 E AVE,LIVERMORE,ALAMEDA,CA,94550,37.679743,-121.698088,8733,,,,,,541720,,,,,,1301150170886,LEAD,007439921,YES,PBT,YES,1,YES,R,Pounds,.5,0,2,0,0,0,0,0,0,0,0,665,667.5,4,0,4,0,0,0,0,0,0,0,0,0,0,0,0,0,0,0,0,0,0,0,0,0,0,0,0,0,0,0,0,0,0,0,0,0,0,671.5,665,0,0,0,0,0,0,0,0,0,0,665,0,0,US DEPARTMENT OF ENERGY,NA
2001,94533BLLPC2400H,BALL METAL BEVERAGE CONTAINER CORP,2400 HUNTINGTON DR,FAIRFIELD,SOLANO,CA,94533,38.27718,-121.97536,3411,,,,,,332431,,,,,,1301150193757,"SULFURIC ACID (1994 AND AFTER ""ACID AEROSOLS"" ONLY)",007664939,NO,NON-PBT,NO,0,NO,R,Pounds,5,152,0,0,0,0,0,0,0,0,0,0,157,0,0,0,0,0,0,0,0,0,0,0,0,0,0,0,0,0,0,0,0,0,0,0,0,0,0,0,0,0,0,0,0,0,0,0,0,0,157,157,0,0,0,0,0,0,0,0,690000,0,690157,0,.99,BALL CORP,006419147
2001,94538BRDNN41100,MOMENTIVE SPECIALTY CHEMICALS INC,41100 BOYCE RD,FREMONT,ALAMEDA,CA,94538,37.51194,-121.992052,2821,,,,,,325199,,,,,,1301150143788,FORMALDEHYDE,000050000,YES,NON-PBT,NO,0,YES,R,Pounds,306,3239,0,0,0,0,0,0,0,0,0,0,3545,0,98,98,0,0,0,0,0,0,0,0,0,0,0,0,0,0,0,0,0,0,0,0,0,0,0,0,0,0,0,0,0,0,0,0,0,0,3545,3545,0,0,0,0,32990,0,0,0,0,98,36633,0,.98,MOMENTIVE PERFORMANCE MATERIALS HOLDINGS LLC,965214146
2001,95131VNWTR2256J,UNIVAR USA INC - SAN JOSE,2256 JUNCTION AVE,SAN JOSE,SANTA CLARA,CA,95131,37.387778,-121.915556,5169,,,,,,424690,,,,,,1301150161406,TETRACHLOROETHYLENE,000127184,YES,NON-PBT,NO,0,YES,R,Pounds,1,4,0,0,0,0,0,0,0,0,0,0,5,0,0,0,0,0,0,0,0,0,0,0,0,0,0,0,0,0,0,0,0,0,679,0,0,0,0,679,0,0,0,0,0,0,0,0,0,0,5,5,0,0,0,0,0,0,0,679,0,0,684,0,0,UNIVAR USA INC,102971785
2001,95131VNWTR2256J,UNIVAR USA INC - SAN JOSE,2256 JUNCTION AVE,SAN JOSE,SANTA CLARA,CA,95131,37.387778,-121.915556,5169,,,,,,424690,,,,,,1301150161457,METHANOL,000067561,YES,NON-PBT,NO,0,NO,R,Pounds,25,71,0,0,0,0,0,0,0,0,0,0,96,0,0,0,0,0,0,0,0,0,0,0,0,0,0,0,0,0,0,0,0,0,0,0,0,0,0,0,3337,0,3337,0,0,0,0,0,0,0,96,96,0,0,0,0,0,3337,0,0,0,0,3433,0,0,UNIVAR USA INC,102971785
2001,90221LFLXC20250,ALFLEX CORP  DISTRIBUTION CENTER,20250 S ALAMEDA ST,RANCHO DOMINGUEZ,LOS ANGELES,CA,90221,33.847776,-118.219795,3643,,,,,,335931,,,,,,1301150190825,COPPER,007440508,NO,NON-PBT,YES,1,NO,R,Pounds,0,0,0,0,0,0,0,0,0,0,0,0,0,0,0,0,0,0,0,0,0,0,0,0,0,0,0,0,0,0,0,0,0,0,0,0,0,0,0,0,0,0,0,0,0,0,0,0,0,0,0,0,0,0,0,0,0,0,0,0,0,0,0,0,0,COMMONWEALTH INDUSTRIES INC,133245741
2001,95050WSTRN780RE,WESTERN FORGE & FLANGE CO.,780 REED ST,SANTA CLARA,SANTA CLARA,CA,95050,37.359217,-121.945997,3462,3463,,,,,332812,,,,,,1301150200956,CHROMIUM,007440473,YES,NON-PBT,YES,1,YES,R,Pounds,0,0,0,0,0,0,0,0,0,0,0,0,0,0,0,0,0,0,0,0,0,0,0,0,0,0,0,0,0,0,0,0,0,0,0,2910,0,0,0,2910,0,0,0,0,0,0,0,0,0,0,0,0,0,0,0,0,0,0,0,2910,0,0,2910,0,.76,NA,NA
2001,91406STNLM7800H,EASTON SPORTS INC,7800 HASKELL,VAN NUYS,LOS ANGELES,CA,91406,34.21208,-118.47493,3949,,,,,,339920,,,,,,1301150191233,NITRATE COMPOUNDS,N511,NO,NON-PBT,NO,0,NO,R,Pounds,0,0,0,0,0,0,0,0,0,0,0,0,0,0,169000,169000,0,0,0,0,0,0,0,0,0,0,0,0,0,0,0,0,0,0,0,0,0,0,0,0,0,0,0,0,0,0,0,0,0,0,0,0,0,0,0,0,0,0,0,0,0,169000,169000,0,0,EASTON-BELL SPORTS INC,NA
2001,95206DNCRP1550I,METALSA STRUCTURAL PRODUCTS INC,1550 INDUSTRIAL DR,STOCKTON,SAN JOAQUIN,CA,95206,37.911539,-121.255566,3714,,,,,,336112,,,,,,1301150154401,MANGANESE,007439965,YES,NON-PBT,YES,1,NO,R,Pounds,0,0,0,0,0,0,0,0,0,0,0,0,0,0,0,0,0,0,0,0,0,0,0,0,0,0,0,0,0,0,0,0,0,0,0,0,0,0,0,0,0,0,0,0,0,0,0,0,0,0,0,0,0,0,0,0,0,0,0,0,0,0,0,0,1.11,NA,NA
2001,95564LSNPCLPDRI,EVERGREEN PULP ENTERPRISES,1 TCF DR,SAMOA,HUMBOLDT,CA,95564,40.80636,-124.19347,2611,,,,,,322110,,,,,,1301150173538,ACETALDEHYDE,000075070,YES,NON-PBT,NO,0,YES,R,Pounds,5,16000,17000,0,0,0,0,0,0,0,0,0,33005,0,0,0,0,0,0,0,0,0,0,0,0,0,0,0,0,0,0,0,0,0,0,0,0,0,0,0,0,0,0,0,0,0,0,0,0,0,33005,34000,0,0,0,0,0,0,0,0,71000,0,105000,0,.81,NA,NA
2001,95360FDRYF691IN,SAPUTO CHEESE USA INC,691 INYO ST,NEWMAN,STANISLAUS,CA,95360,37.311077,-121.015853,2022,,,,,,311513,,,,,,1301150122986,NITRIC ACID,007697372,NO,NON-PBT,NO,0,NO,R,Pounds,0,0,0,0,0,0,0,150000,0,0,0,0,150000,0,150000,150000,0,0,0,0,0,0,0,0,0,0,0,0,0,0,0,0,0,0,0,0,0,0,0,0,0,0,0,0,0,0,0,0,0,0,150000,0,0,0,0,0,0,0,0,0,0,299857,299857,0,1,SAPUTO ACQUISITION INC,796426286
2001,92634KYNRM800SS,ALCOA GLOBAL FASTENERS INC,800 S STATE COLLEGE BLVD,FULLERTON,ORANGE,CA,92831,33.863254,-117.88945,3452,,,,,,332722,,,,,,1301150151948,NITRIC ACID,007697372,NO,NON-PBT,NO,0,NO,R,Pounds,0,0,0,0,0,0,0,0,0,0,0,0,0,0,0,0,0,0,0,0,0,0,0,0,0,0,0,0,0,0,0,0,0,0,0,0,0,0,0,0,0,0,0,0,0,0,0,0,0,0,0,0,0,0,0,0,0,0,0,0,65105,0,65105,0,1,ALCOA INC,001339472
2001,92806MFLX 1301N,M-FLEX,1301 N DYNAMICS ST,ANAHEIM,ORANGE,CA,92806,33.86004,-117.85199,3672,,,,,,334412,,,,,,1301150148854,COPPER,007440508,NO,NON-PBT,YES,1,NO,R,Pounds,0,0,0,0,0,0,0,0,0,0,0,0,0,250,0,250,0,0,0,0,0,0,0,0,0,0,0,0,0,0,0,0,0,0,0,17634,0,0,0,17634,0,0,0,0,0,0,0,0,0,0,250,104,0,0,0,0,0,0,734,16900,0,0,17738,0,.78,M-FLEX,131844185
2001,92634KYNRM800SS,ALCOA GLOBAL FASTENERS INC,800 S STATE COLLEGE BLVD,FULLERTON,ORANGE,CA,92831,33.863254,-117.88945,3452,,,,,,332722,,,,,,1301150151999,CHROMIUM,007440473,YES,NON-PBT,YES,1,YES,R,Pounds,0,0,0,0,0,0,0,0,0,0,0,0,0,67,0,67,0,0,0,0,0,0,0,0,0,0,0,0,0,0,0,0,0,0,0,63680,0,0,0,63680,0,0,0,0,0,0,0,0,0,0,67,67,0,0,0,0,0,0,0,63680,1086,0,64833,0,1,ALCOA INC,001339472
2001,92806DTLSN1231S,DYNAMIC DETAILS INC,1231 SIMON CIRCLE,ANAHEIM,ORANGE,CA,92806,33.854199,-117.861612,3672,,,,,,334412,,,,,,1301150155315,NITRATE COMPOUNDS,N511,NO,NON-PBT,NO,0,NO,R,Pounds,0,0,0,0,0,0,0,0,0,0,0,0,0,0,11910,11910,0,0,0,0,0,0,0,0,0,0,0,0,0,0,0,0,2968,2968,0,0,0,0,0,0,0,0,0,0,0,0,0,0,0,0,2968,2968,0,0,0,0,0,0,0,0,0,11910,14878,0,.5,DDI CORP,125125448
2001,90801CRTFD3245C,CERTIFIED ALLOY PRODUCTS INC,3245 CHERRY AVE,LONG BEACH,LOS ANGELES,CA,90807,33.816069,-118.167634,3341,,,,,,331492,,,,,,1301150183960,CHROMIUM,007440473,YES,NON-PBT,YES,1,YES,R,Pounds,0,0,0,0,0,0,0,0,0,0,0,0,0,0,0,0,0,0,0,0,0,0,250,0,0,0,0,0,0,0,0,0,0,250,0,0,0,0,0,0,0,0,0,0,0,0,0,0,0,0,250,18,0,0,0,0,0,0,0,0,0,0,18,0,1.31,NA,NA
2001,95203CRGLLPORTO,WESTWAY FEED PRODUCTS LLC,2130 W WASHINGTON ST,STOCKTON,SAN JOAQUIN,CA,952032919,37.945356,-121.320855,2048,,,,,,311119,,,,,,1301150134803,AMMONIA,007664417,NO,NON-PBT,NO,0,NO,R,Pounds,2277,50,0,0,0,0,0,0,0,0,0,0,2327,0,0,0,0,0,0,0,0,0,0,0,0,0,0,0,0,0,0,0,0,0,0,0,0,0,0,0,0,0,0,0,0,0,0,0,0,0,2327,2327,0,0,0,0,0,0,0,0,0,0,2327,0,1,WESTWAY GROUP INC,101388395
2001,93610CRTNT17775,CERTAINTEED CORP,17775 AVE 23 1/2,CHOWCHILLA,MADERA,CA,93610,37.093231,-120.223999,3296,,,,,,327993,,,,,,1301150184380,FORMALDEHYDE,000050000,YES,NON-PBT,NO,0,YES,R,Pounds,995,59731,0,0,0,0,0,0,0,0,0,0,60726,0,0,0,0,0,0,0,0,0,250,0,0,0,0,0,0,0,0,0,0,250,0,0,0,0,0,0,0,0,0,0,0,0,0,0,0,0,60976,350,0,0,0,0,0,0,2050,0,0,0,2400,0,0,SAINT-GOBAIN CORP,879321644
2001,95131VNWTR2256J,UNIVAR USA INC - SAN JOSE,2256 JUNCTION AVE,SAN JOSE,SANTA CLARA,CA,95131,37.387778,-121.915556,5169,,,,,,424690,,,,,,1301150161483,CERTAIN GLYCOL ETHERS,N230,YES,NON-PBT,NO,0,NO,R,Pounds,11,10,0,0,0,0,0,0,0,0,0,0,21,0,0,0,0,0,0,0,0,0,0,0,0,0,0,0,0,0,0,0,0,0,3944,0,0,0,0,3944,3944,0,3944,0,0,0,0,0,0,0,21,21,0,0,0,0,0,3944,0,3944,0,0,7909,0,0,UNIVAR USA INC,102971785
2001,95678NCLCT7501F,RENESAS ELECTRONICS AMERICA INC,7501 FOOTHILLS BLVD,ROSEVILLE,PLACER,CA,95747,38.772954,-121.312853,3674,,,,,,334413,,,,,,1301150178426,AMMONIA,007664417,NO,NON-PBT,NO,0,NO,R,Pounds,5,360,0,0,0,0,0,0,0,0,0,0,365,0,95000,95000,0,0,0,0,0,0,0,0,0,0,0,0,0,0,0,0,0,0,0,0,140,0,0,140,0,0,0,0,0,0,0,0,0,0,365,370,0,0,0,0,0,0,0,140,0,95000,95510,0,.71,RENESAS ELECTRONICS AMERICA INC,315147624
2001,95131FLXTR2243L,FLEXTRONICS,2243 LUNDY AVE,SAN JOSE,SANTA CLARA,CA,95131,37.400735,-121.891187,3672,,,,,,334412,,,,,,1301150175139,LEAD,007439921,YES,PBT,YES,1,YES,R,Pounds,0,0,0,0,0,0,0,0,0,0,0,0,0,0,0,0,0,0,353,0,0,0,0,0,0,0,0,0,0,0,0,0,2355,2708,0,0,0,0,37986,37986,0,0,0,0,0,0,0,0,0,0,2708,2708,0,0,0,0,0,0,0,37986,0,0,40694,0,0,NA,NA
2001,92590SLDST42250,SOLID STATE STAMPING INC.,42580 RIO NEDO,TEMECULA,RIVERSIDE,CA,92590,33.507901,-117.175573,3469,,,,,,332116,,,,,,1301150164857,COPPER,007440508,NO,NON-PBT,YES,1,NO,R,Pounds,0,0,0,0,0,0,0,0,0,0,0,0,0,0,0,0,0,0,0,0,0,0,0,0,0,0,0,0,0,0,0,0,0,0,0,0,0,0,26525,26525,0,0,0,0,0,0,0,0,0,0,0,0,0,0,0,0,0,0,0,26525,0,0,26525,0,.3,NA,NA
2001,91324MRKR 19901,3M DRUG DELIVERY SYSTEMS,19901 NORDHOFF ST,NORTHRIDGE,LOS ANGELES,CA,91324,34.23181,-118.56673,2834,,,,,,325412,,,,,,1301150185484,METHANOL,000067561,YES,NON-PBT,NO,0,NO,R,Pounds,335,1201,0,0,0,0,0,0,0,0,0,0,1536,0,0,0,0,0,0,0,0,0,0,0,0,0,0,0,0,0,0,0,0,0,2391,0,0,0,0,2391,0,0,0,0,0,117,0,0,0,117,1536,1536,0,0,0,0,0,0,0,2391,33507,117,37551,0,1.05,3M CO,006173082
2001,90503RCCGR2535D,LINDE LLC,2535 DEL AMO BLVD,TORRANCE,LOS ANGELES,CA,90503,33.847034,-118.329716,2813,,,,,,325120,,,,,,1301150139172,AMMONIA,007664417,NO,NON-PBT,NO,0,NO,R,Pounds,32988,0,0,0,0,0,0,0,0,0,0,0,32988,0,0,0,0,0,0,0,0,0,0,0,0,0,0,0,0,0,0,0,0,0,0,0,0,0,0,0,0,0,0,0,0,0,0,0,0,0,32988,32988,0,0,0,0,0,0,0,0,0,0,32988,32988,82,LINDE LLC,001368141
2001,93010MMGNT30035,IMATION CORP CAMARILLO,350 LEWIS RD,CAMARILLO,VENTURA,CA,93012,34.204753,-119.03438,3695,,,,,,334613,,,,,,1301150129500,METHYL ISOBUTYL KETONE,000108101,YES,NON-PBT,NO,0,NO,R,Pounds,45,1,0,0,0,0,0,0,0,0,0,0,46,0,0,0,0,0,0,0,0,0,0,0,0,0,0,0,0,0,0,0,0,0,1480,0,0,0,0,1480,160000,0,160000,0,294,0,0,0,0,294,46,46,0,0,0,0,0,160000,0,1500,0,300,161846,0,1.13,IMATION CORP,933588691
2001,90023BCHTN1500S,PACIFIC MANUFACTURING DBA GRENEKER SOLUTIONS,3110 E 12TH ST,LOS ANGELES,LOS ANGELES,CA,90023,34.018842,-118.212803,3999,,,,,,339999,,,,,,1301150139285,STYRENE,000100425,YES,NON-PBT,NO,0,YES,R,Pounds,3987,3987,0,0,0,0,0,0,0,0,0,0,7974,0,0,0,0,0,0,0,0,0,0,0,0,0,0,0,0,0,0,0,0,0,0,0,0,0,0,0,0,0,0,0,0,0,0,0,0,0,7974,7974,0,0,0,0,0,0,0,0,0,0,7974,0,0,PACIFIC MANUFACTURING,NA
2001,92376LPPRT168SS,LIPPERT COMPONENTS INC PLANT 29,168 S SPRUCE,RIALTO,SAN BERNARDINO,CA,92376,34.098326,-117.388063,3792,,,,,,333999,,,,,,1301150185991,MANGANESE,007439965,YES,NON-PBT,YES,1,NO,R,Pounds,20,0,0,0,0,0,0,0,0,0,0,0,20,0,0,0,0,0,0,0,0,0,0,0,0,0,0,0,0,0,0,0,0,0,0,9559,0,0,0,9559,0,0,0,0,0,0,0,0,0,0,20,9580,0,0,0,0,0,0,0,9580,0,0,19160,0,0,LIPPERT COMPONENTS MANUFACTURING INC,043222470
2001,90001LLYSC1960E,ALLOYS CLEANING INC,1960 E GAGE AVE,LOS ANGELES,LOS ANGELES,CA,90001,33.981389,-118.238056,3471,,,,,,332813,,,,,,1301150136505,NICKEL COMPOUNDS,N495,YES,NON-PBT,YES,1,NO,R,Pounds,0,0,0,0,0,0,0,0,0,0,0,0,0,5,0,5,0,0,0,0,0,0,1322,0,0,0,0,0,0,0,0,0,0,1322,0,0,0,0,0,0,0,0,0,0,0,0,0,0,0,0,1327,1326,0,0,0,0,0,0,0,0,0,0,1326,0,.29,NA,NA
2001,92590SLDST43350,SOLID STATE STAMPING,43350 BUSINESS PARK DR,TEMECULA,RIVERSIDE,CA,92590,33.500995,-117.160831,3469,,,,,,332116,,,,,,1301150159109,LEAD,007439921,YES,PBT,YES,1,YES,R,Pounds,0,0,0,0,0,0,0,0,0,0,0,0,0,0,0,0,0,0,0,0,0,0,0,0,0,0,0,0,0,0,0,0,0,0,0,79,0,0,0,79,0,0,0,0,0,0,0,0,0,0,0,0,0,0,0,0,0,0,0,79,0,0,79,0,0,NA,NA
2001,95050WNSCR960CE,OWENS CORNING SANTA CLARA PLANT,960 CENTRAL EXPRESSWAY,SANTA CLARA,SANTA CLARA,CA,95050,37.37431,-121.952999,3296,,,,,,327993,,,,,,1301150159465,LEAD COMPOUNDS,N420,YES,PBT,YES,1,NO,R,Pounds,0,49,0,0,0,0,0,0,0,0,0,0,49,0,0,0,0,0,0,0,0,0,115,0,0,0,0,0,0,0,0,0,0,115,0,0,0,0,0,0,0,0,0,0,0,0,0,0,0,0,164,164,0,0,0,0,0,0,0,0,0,0,164,0,1.02,OWENS CORNING,001317452
2001,91731MCGLL4056E,MC GILL CORP,4056 EASY ST,EL MONTE,LOS ANGELES,CA,91731,34.08316,-118.061364,3728,,,,,,336413,,,,,,1301150203279,PHENOL,000108952,YES,NON-PBT,NO,0,NO,R,Pounds,0,2606,0,0,0,0,0,0,0,0,0,0,2606,0,0,0,0,0,0,0,0,0,0,0,0,0,0,0,0,0,0,0,0,0,0,0,0,0,0,0,0,0,0,0,0,0,0,0,0,0,2606,2606,0,0,0,0,0,0,0,0,257454,0,260060,0,1.05,NA,NA
2001,90058FLTRL3305E,FILTROL CORP,3305 E BANDINI BLVD,LOS ANGELES,LOS ANGELES,CA,900234222,34.008789,-118.208717,2819,,,,,,325188,,,,,,1301150140477,AMMONIA,007664417,NO,NON-PBT,NO,0,NO,R,Pounds,0,20000,250,0,0,0,0,0,0,0,0,0,20250,0,1400,1400,0,0,0,0,0,0,0,0,0,0,0,0,0,0,0,0,0,0,0,0,0,0,0,0,0,0,0,0,0,0,0,0,0,0,20250,20000,0,0,0,0,0,0,0,0,0,1400,21400,0,.49,AKZO NOBEL CHEMICALS INC,062999347
2001,95330RCRPN17100,CARPENTER CO,17100 S HARLAN RD,LATHROP,SAN JOAQUIN,CA,95330,37.808451,-121.296155,3086,2297,,,,,326150,,,,,,1301150169605,TOLUENE DIISOCYANATE (MIXED ISOMERS),026471625,NO,NON-PBT,NO,0,YES,R,Pounds,5,750,0,0,0,0,0,0,0,0,0,0,755,0,0,0,0,0,0,0,0,0,0,0,0,0,0,0,0,0,0,0,0,0,0,0,0,0,0,0,0,0,0,0,0,0,0,0,0,0,755,720,0,0,0,0,0,0,0,0,0,0,720,0,0,CARPENTER CO,NA
2001,93308MTPSC36157,MT POSO COGENERATION,36157 FAMOSO HWY,BAKERSFIELD,KERN,CA,93308,35.620723,-119.025991,4911,,,,,,221122,,,,,,1301150188744,MERCURY,007439976,YES,PBT,YES,1,NO,R,Pounds,0,1.28,0,0,0,0,0,0,0,0,0,0,1.28,0,0,0,0,0,0,0,0,0,0,0,0,0,0,0,0,0,0,0,0,0,0,0,26,0,0,26,0,0,0,0,0,0,0,0,0,0,1.28,1.28,0,0,0,0,0,0,0,0,0,0,1.28,0,.99,NA,NA
2001,94565GWFPW895E3,GWF POWER SYSTEMS LP,895 E THIRD ST,PITTSBURG,CONTRA COSTA,CA,94565,38.030104,-121.869677,4911,,,,,,221112,,,,,,1301150114116,AMMONIA,007664417,NO,NON-PBT,NO,0,NO,R,Pounds,250,29335,250,0,0,0,0,0,0,0,0,0,29835,0,250,250,0,0,0,0,0,0,0,0,0,0,0,0,0,0,0,0,0,0,0,0,0,0,0,0,0,0,0,0,0,0,0,0,0,0,29835,29384,0,0,0,0,0,0,0,0,0,34,29418,0,1.08,GWF POWER SYSTEMS LP,068135144
2001,93561CLVRS13573,LEHIGH SOUTHWEST CEMENT CO,13573 TEHACHAPI BLVD,TEHACHAPI,KERN,CA,935618156,35.121031,-118.367775,3241,,,,,,327310,,,,,,1301150164212,CHROMIUM COMPOUNDS(EXCEPT CHROMITE ORE MINED IN THE TRANSVAAL REGION),N090,YES,NON-PBT,YES,1,NO,R,Pounds,5,5,0,0,0,0,0,0,0,0,0,0,10,0,0,0,0,0,0,0,0,0,0,0,0,0,0,0,0,0,0,0,0,0,0,0,0,0,0,0,0,0,0,0,0,0,0,0,0,0,10,1,0,0,0,0,0,0,0,2000,0,0,2001,0,1,LEHIGH HANSON,001316355
2001,92336PCFCD6183S,PACIFIC DIAZO PRODUCTS INC,6183 SIERRA AVE BUILDINGS 7 & 8,FONTANA,SAN BERNARDINO,CA,92336,34.142276,-117.435991,5169,,,,,,424690,,,,,,1301150296729,AMMONIA,007664417,NO,NON-PBT,NO,0,NO,R,Pounds,500,0,0,0,0,0,0,0,0,0,0,0,500,0,0,0,0,0,0,0,0,0,0,0,0,0,0,0,0,0,0,0,0,0,0,0,0,0,0,0,0,0,0,0,0,0,0,0,0,0,500,99,0,0,0,0,0,0,50000,0,0,0,50099,0,0,NA,NA
2001,91744SMCNT475SW,SEMCO ENTERPRISES INC,475 S WILSON WAY,CITY OF INDUSTRY,LOS ANGELES,CA,91744,34.01641,-117.956565,3341,,,,,,331492,,,,,,1301150218980,LEAD,007439921,YES,PBT,YES,1,YES,R,Pounds,0,0,0,0,0,0,0,0,0,0,0,0,0,0,0,0,0,0,0,0,0,0,0,0,0,0,0,0,0,0,0,0,0,0,0,0,12,0,0,12,0,0,0,0,0,0,0,0,0,0,0,0,0,0,0,0,0,0,0,12,0,0,12,0,.9,SEMCO INC,NA
2001,93275LSRCH10800,KRAFT FOODS GLOBAL INC,10800 AVE 184,TULARE,TULARE,CA,93274,36.123684,-119.328705,2022,,,,,,311513,,,,,,1301150262614,NITRATE COMPOUNDS,N511,NO,NON-PBT,NO,0,NO,R,Pounds,0,0,0,0,0,0,0,0,0,0,0,0,0,0,378755,378755,0,0,0,0,0,0,0,0,0,0,0,0,0,0,0,0,0,0,0,0,0,0,0,0,0,0,0,0,0,0,0,0,0,0,0,0,0,0,0,0,0,0,0,0,0,378755,378755,0,1.1,KRAFT FOODS INC,191446921
2001,95457JMJNS16445,JIM JONAS INC.,16445 MAIN ST,LOWER LAKE,LAKE,CA,95457,38.910332,-122.60505,5171,,,,,,424710,,,,,,1301150315354,N-HEXANE,000110543,YES,NON-PBT,NO,0,NO,R,Pounds,0,89,0,0,0,0,0,0,0,0,0,0,89,0,0,0,0,0,0,0,0,0,0,0,0,0,0,0,0,0,0,0,0,0,0,0,0,0,0,0,0,0,0,0,0,0,0,0,0,0,89,89,0,0,0,0,0,0,0,0,0,0,89,0,0,NA,NA
2001,94025RYCHM300CO,TYCO ELECTRONICS CORP,300 CONSTITUTION DR,MENLO PARK,SAN MATEO,CA,94025,37.482391,-122.168575,3089,,,,,,326199,,,,,,1301150263756,DECABROMODIPHENYL OXIDE,001163195,NO,NON-PBT,NO,0,NO,R,Pounds,250,250,0,0,0,0,0,0,0,0,0,0,500,0,0,0,0,0,0,0,0,0,36933,0,0,0,0,0,0,0,0,0,0,36933,0,0,0,0,0,0,0,0,0,0,0,0,0,0,0,0,37433,36958,0,0,0,0,0,0,0,0,0,0,36958,0,.33,TYCO ELECTRONICS,003012549
2001,90744HNTWY1651A,VALERO WILMINGTON ASPHALT PLANT,1651 ALAMEDA ST,WILMINGTON,LOS ANGELES,CA,90744,33.79535,-118.23936,2911,,,,,,324110,,,,,,1301150266702,BENZENE,000071432,YES,NON-PBT,NO,0,YES,R,Pounds,5,55,0,0,0,0,0,0,0,0,0,0,60,0,140,140,0,0,0,0,0,0,0,0,0,0,0,0,0,0,0,0,0,0,0,0,5,0,0,5,0,0,0,0,0,0,0,0,0,0,60,65,0,0,0,0,2670,0,20,10,1250,140,4155,0,0,VALERO ENERGY CORP,082686916
2001,91752MTLCN10980,METAL CONTAINER CORP - MIRA LOMA CAN PLANT,10980 INLAND AVE,MIRA LOMA,RIVERSIDE,CA,91752,34.03032,-117.52226,3411,,,,,,332431,,,,,,1301150319008,MANGANESE,007439965,YES,NON-PBT,YES,1,NO,R,Pounds,0,0,0,0,0,0,0,0,0,0,0,0,0,250,0,250,0,0,0,0,0,0,250,0,0,0,0,0,0,0,0,0,0,250,0,0,0,0,0,0,0,0,0,0,0,0,0,0,0,0,500,446,0,0,0,0,0,0,0,0,0,0,446,0,1.01,ANHEUSER-BUSCH INBEV,098630254
2001,92707LNXFR2400G,LINE-X FRANCHISE DEVELOPMENT CORP,2400 GARNSEY,SANTA ANA,ORANGE,CA,92707,33.714827,-117.874695,5169,,,,,,424690,,,,,,1301150319150,DIISOCYANATES,N120,YES,NON-PBT,NO,0,NO,R,Pounds,0,0,0,0,0,0,0,0,0,0,0,0,0,0,0,0,0,0,0,0,0,0,0,0,0,0,0,0,0,0,0,0,0,0,0,0,0,0,0,0,0,0,0,0,0,0,0,0,0,0,0,0,0,0,0,0,0,0,0,0,0,0,0,0,0,NA,NA
2001,94086FFYMT1145S,AFFYMETRIX INC,1145 SONORA CT,SUNNYVALE,SANTA CLARA,CA,94086,37.371534,-121.99979,3826,,,,,,334516,,,,,,1301150223636,ACETONITRILE,000075058,YES,NON-PBT,NO,0,NO,R,Pounds,0,388,0,0,0,0,0,0,0,0,0,0,388,0,0,0,0,0,0,0,0,0,0,0,0,0,0,0,0,0,0,0,0,0,0,0,0,0,0,0,55928,0,55928,0,0,0,0,0,0,0,388,390,0,0,0,0,0,56000,0,0,0,0,56390,0,1.16,NA,NA
2001,90670CHMCN13900,UNIVAR USA INC SANTA FE SPRINGS,13900 CARMENITA RD,SANTA FE SPRINGS,LOS ANGELES,CA,90670,33.905028,-118.045722,5169,,,,,,424690,,,,,,1301150259137,XYLENE (MIXED ISOMERS),001330207,YES,NON-PBT,NO,0,NO,R,Pounds,250,1600,0,0,0,0,0,0,0,0,0,0,1850,0,0,0,0,0,0,0,0,0,0,0,0,0,0,0,0,0,0,0,0,0,0,0,0,0,0,0,0,0,0,0,0,0,0,0,0,0,1850,1700,0,0,0,0,0,0,0,0,0,0,1700,0,.97,UNIVAR USA INC,102971785
2001,93291KNDSN715DI,KRAFT FOODS GLOBAL INC,715 N DIVIADERO AVE,VISALIA,TULARE,CA,93279,36.33689,-119.31195,2021,2022,2023,,,,311512,,,,,,1301150256485,NITRATE COMPOUNDS,N511,NO,NON-PBT,NO,0,NO,R,Pounds,0,0,0,0,0,0,0,0,0,0,0,0,0,0,92893,92893,0,0,0,0,0,0,0,0,0,0,0,0,0,0,0,0,0,0,0,0,0,0,0,0,0,0,0,0,0,0,0,0,0,0,0,0,0,0,0,0,0,0,0,0,0,92893,92893,0,.93,KRAFT FOODS GLOBAL INC,039010590
2001,92020CHMTR1150W,GKN AEROSPACE CHEM-TRONICS INC,1150 W BRADLEY AVE,EL CAJON,SAN DIEGO,CA,920201504,32.816944,-116.977222,3724,,,,,,336412,,,,,,1301150206706,"HYDROCHLORIC ACID (1995 AND AFTER ""ACID AEROSOLS"" ONLY)",007647010,YES,NON-PBT,NO,0,NO,R,Pounds,383,3447,0,0,0,0,0,0,0,0,0,0,3830,0,0,0,0,0,0,0,0,0,0,0,0,0,0,0,0,0,0,0,0,0,0,0,0,0,0,0,0,0,0,0,0,0,0,0,0,0,3830,3830,0,0,0,0,0,0,0,0,0,0,3830,0,1.14,GKN NA INC,071754337
2001,94509CMMNC1200W,COMMUNICATION BUILDINGS OF AME RICA INC.,1200 W 4TH ST,ANTIOCH,CONTRA COSTA,CA,945090076,38.01549,-121.8209,3448,2452,,,,,332311,,,,,,1301150206807,STYRENE,000100425,YES,NON-PBT,NO,0,YES,R,Pounds,1787,921,0,0,0,0,0,0,0,0,0,0,2708,0,0,0,0,0,0,0,0,0,0,0,0,0,0,0,0,0,0,0,0,0,0,0,0,0,0,0,0,0,0,0,0,0,0,0,0,0,2708,2708,0,0,0,0,0,0,0,0,0,0,2708,0,1.42,NA,NA
2001,95367SLGNC3250P,SILGAN CONTAINER MANUFACTURING CORP,3250 PATTERSON RD,RIVERBANK,STANISLAUS,CA,95367,37.73271,-120.936945,3411,,,,,,332431,,,,,,1301150206946,METHYL ETHYL KETONE,000078933,NO,NON-PBT,NO,0,NO,R,Pounds,960,2072,0,0,0,0,0,0,0,0,0,0,3032,0,0,0,0,0,0,0,0,0,0,0,0,0,0,0,0,0,0,0,0,0,0,0,0,0,0,0,112498,0,112498,0,0,0,0,0,0,0,3032,3032,0,0,0,0,40331,112498,0,0,40331,0,196192,1,1.04,SILGAN HOLDINGS INC,178277497
2001,93206SFTYK2500W,CLEAN HARBORS BUTTONWILLOW LLC,2500 W LOKERN RD,BUTTONWILLOW,KERN,CA,932060787,35.397777,-119.608151,4953,,,,,,562211,,,,,,1301150210197,CHROMIUM COMPOUNDS(EXCEPT CHROMITE ORE MINED IN THE TRANSVAAL REGION),N090,YES,NON-PBT,YES,1,NO,R,Pounds,5,0,0,0,0,74151,22220,0,250,0,0,0,96626,0,0,0,0,0,0,0,0,0,0,0,0,0,0,0,0,0,0,0,0,0,0,0,0,0,0,0,0,0,0,0,0,0,0,0,0,0,96626,96402,0,0,0,0,0,0,0,0,0,0,96402,0,0,CLEAN HARBORS INC,157793639
2001,93206SFTYK2500W,CLEAN HARBORS BUTTONWILLOW LLC,2500 W LOKERN RD,BUTTONWILLOW,KERN,CA,932060787,35.397777,-119.608151,4953,,,,,,562211,,,,,,1301150210274,VANADIUM (EXCEPT WHEN CONTAINED IN AN ALLOY),007440622,NO,NON-PBT,YES,4,NO,R,Pounds,5,0,0,0,0,67841,33557,0,250,0,0,0,101653,0,0,0,0,0,0,0,0,0,0,0,0,0,0,0,0,0,0,0,0,0,0,0,0,0,0,0,0,0,0,0,0,0,0,0,0,0,101653,101434,0,0,0,0,0,0,0,0,0,0,101434,0,0,CLEAN HARBORS INC,157793639
2001,90638CRWNC14501,CROWN CORK & SEAL CO (USA) INC,14501 E ARTESIA BLVD,LA MIRADA,LOS ANGELES,CA,90637,33.873366,-118.022741,3411,,,,,,332431,,,,,,1301150250342,XYLENE (MIXED ISOMERS),001330207,YES,NON-PBT,NO,0,NO,R,Pounds,2400,860,0,0,0,0,0,0,0,0,0,0,3260,0,0,0,0,0,0,0,0,0,0,0,0,0,0,0,0,0,0,0,0,0,0,0,0,0,0,0,0,0,0,0,470,0,0,0,0,470,3260,3300,0,0,0,0,0,470,0,0,19000,0,22770,0,.55,CROWN CORK & SEAL CO (USA) INC,002282341
2001,90749RCPRD1801A,INEOS POLYPROPYLENE LLC,2384 E 223RD ST,CARSON,LOS ANGELES,CA,908101615,33.818528,-118.2355,2911,5171,2821,,,,325000,,,,,,1301150254074,ZINC COMPOUNDS,N982,NO,NON-PBT,YES,1,NO,R,Pounds,0,0,0,0,0,0,0,0,0,0,0,0,0,0,0,0,0,0,0,0,0,0,0,0,0,0,0,0,0,0,0,0,0,0,0,0,0,0,0,0,0,0,0,0,0,0,0,0,0,0,0,0,0,0,0,0,0,0,0,0,0,0,0,0,.94,INEOS USA LLC,081782583
2001,90749RCPRD1801A,INEOS POLYPROPYLENE LLC,2384 E 223RD ST,CARSON,LOS ANGELES,CA,908101615,33.818528,-118.2355,2911,5171,2821,,,,325000,,,,,,1301150254148,"1,3-BUTADIENE",000106990,YES,NON-PBT,NO,0,YES,R,Pounds,1,0,0,0,0,0,0,0,0,0,0,0,1,0,0,0,0,0,0,0,0,0,0,0,0,0,0,0,0,0,0,0,0,0,0,0,0,0,0,0,0,0,0,0,0,0,0,0,0,0,1,1,0,0,0,0,0,0,0,0,0,0,1,0,.94,INEOS USA LLC,081782583
2001,94587NTDST1295W,UNITED STATES PIPE & FOUNDRY CO LLC,1295 WHIPPLE RD,UNION CITY,ALAMEDA,CA,945872025,37.605972,-122.039892,3321,3498,,,,,331511,,,,,,1301150286678,LEAD COMPOUNDS,N420,YES,PBT,YES,1,NO,R,Pounds,0,.00044,21,0,0,0,0,0,0,0,0,0,21.00044,20,0,20,0,7477,0,0,0,0,6172,0,0,0,0,0,0,0,0,0,0,13649,0,0,0,0,0,0,0,0,0,0,0,0,0,0,0,0,13690.00044,14000,0,0,0,0,0,0,0,0,0,0,14000,0,.81,MUELLER WATER PRODUCTS INC,003501079
2001,94533SHLND2461C,ASHLAND DISTRIBUTION CO,2461 CROCKER CIR,FAIRFIELD,SOLANO,CA,94533,38.27377,-121.985718,5169,,,,,,424690,,,,,,1301150280220,TOLUENE,000108883,YES,NON-PBT,NO,0,NO,R,Pounds,189,74,0,0,0,0,0,0,0,0,0,0,263,0,0,0,0,0,0,0,0,0,0,0,0,0,0,0,0,0,0,0,0,0,0,0,0,0,0,0,1405,0,1405,0,0,0,0,0,0,0,263,263,0,0,0,0,0,1405,0,0,675,0,2343,0,3.35,ASHLAND INC,005003264
2001,95367SLGNC3250P,SILGAN CONTAINER MANUFACTURING CORP,3250 PATTERSON RD,RIVERBANK,STANISLAUS,CA,95367,37.73271,-120.936945,3411,,,,,,332431,,,,,,1301150207052,N-BUTYL ALCOHOL,000071363,NO,NON-PBT,NO,0,NO,R,Pounds,518,4308,0,0,0,0,0,0,0,0,0,0,4826,0,0,0,0,0,0,0,0,0,0,0,0,0,0,0,0,0,0,0,0,0,0,0,0,0,0,0,4936,0,4936,0,0,0,0,0,0,0,4826,4826,0,0,0,0,62418,4936,0,0,62418,0,134598,1,1.04,SILGAN HOLDINGS INC,178277497
2001,90058GRFFT4801E,STERIGENICS US LLC,4801 E 50TH ST,LOS ANGELES,LOS ANGELES,CA,90058,33.99624,-118.19096,7389,,,,,,562112,,,,,,1301150228409,ETHYLENE OXIDE,000075218,YES,NON-PBT,NO,0,YES,R,Pounds,59,213,0,0,0,0,0,0,0,0,0,0,272,0,0,0,0,0,0,0,0,0,0,0,0,0,0,0,0,0,0,0,0,0,0,0,0,0,0,0,0,0,0,0,0,0,0,0,0,0,272,272,0,0,0,0,0,0,0,0,117549,0,117821,0,.6,STERIGENICS HOLDING CO,372078154
2001,95054SLCNX2201L,SILICONIX INC,2201 LAURELWOOD RD,SANTA CLARA,SANTA CLARA,CA,95054,37.38436,-121.96322,3674,,,,,,334413,,,,,,1301150287086,NITRIC ACID,007697372,NO,NON-PBT,NO,0,NO,R,Pounds,5,5,0,0,0,0,0,0,0,0,0,0,10,0,5,5,0,0,0,0,0,0,0,0,0,0,0,0,0,0,0,0,0,0,0,0,0,0,0,0,0,0,0,0,0,0,0,0,0,0,10,0,0,0,0,0,0,0,0,0,52165,0,52165,0,.8,VISHAY INTERTECHNOLOGY INC,002327484
2001,92704LMNMP2621S,ALUMINUM PRECISION PRODUCTS INC,2621 S SUSAN ST,SANTA ANA,ORANGE,CA,92704,33.712573,-117.912768,3463,,,,,,332112,,,,,,1301150257968,NITRATE COMPOUNDS,N511,NO,NON-PBT,NO,0,NO,R,Pounds,0,0,0,0,0,0,0,0,0,0,0,0,0,0,79501,79501,0,0,0,0,0,0,0,0,0,0,0,0,0,0,0,0,0,0,0,0,0,0,0,0,0,0,0,0,0,0,0,0,0,0,0,0,0,0,0,0,0,0,0,0,0,79501,79501,0,1.2,ALUMINUM PRECISION PRODUCTS INC,NA
2001,92707LMNMF502EA,ALUMINUM PRECISION PRODUCTS ALTON ST FACILITY DIV,502 E ALTON ST,SANTA ANA,ORANGE,CA,92707,33.705015,-117.861902,3463,,,,,,332112,,,,,,1301150258008,NITRATE COMPOUNDS,N511,NO,NON-PBT,NO,0,NO,R,Pounds,0,0,0,0,0,0,0,0,0,0,0,0,0,0,24091,24091,0,0,0,0,0,0,0,0,0,0,0,0,0,0,0,0,0,0,0,0,0,0,0,0,0,0,0,0,0,0,0,0,0,0,0,0,0,0,0,0,0,0,0,0,0,24091,24091,0,1.2,ALUMINUM PRECISION PRODUCTS INC,NA
2001,93308RBRVJ11258,RIO BRAVO JASMIN,11258 PORTERVILLE HWY,BAKERSFIELD,KERN,CA,93308,35.74242,-119.0518,4911,,,,,,221112,,,,,,1301150255002,"HYDROCHLORIC ACID (1995 AND AFTER ""ACID AEROSOLS"" ONLY)",007647010,YES,NON-PBT,NO,0,NO,R,Pounds,0,3812,0,0,0,0,0,0,0,0,0,0,3812,0,0,0,0,0,0,0,0,0,0,0,0,0,0,0,0,0,0,0,0,0,0,0,0,0,0,0,0,0,0,0,0,0,0,0,0,0,3812,3812,0,0,0,0,0,0,0,0,0,0,3812,0,.91,RIO BRAVO,NA
2001,92507LLGNC1660I,CAREFUSION,1660 IOWA AVE SUITE 100,RIVERSIDE,RIVERSIDE,CA,92507,33.997011,-117.33984,3841,,,,,,339112,,,,,,1301150211769,DI(2-ETHYLHEXYL) PHTHALATE,000117817,YES,NON-PBT,NO,0,YES,R,Pounds,0,0,0,0,0,0,0,0,0,0,0,0,0,0,0,0,0,0,0,0,0,0,0,0,0,0,0,0,0,0,0,0,0,0,0,0,0,0,16613,16613,0,0,0,0,0,0,0,0,0,0,0,0,0,0,0,0,0,0,0,16613,0,0,16613,0,1.05,CARDINAL HEALTH INC,961027315
2001,90509LLDSG2525W,HONEYWELL AEROSPACE,2525 W 190TH ST,TORRANCE,LOS ANGELES,CA,90504,33.85831,-118.320949,3728,,,,,,336413,,,,,,1301150247500,NICKEL,007440020,YES,NON-PBT,YES,1,YES,R,Pounds,0,0,20,0,0,0,0,0,0,0,0,0,20,1,0,1,0,31,0,0,0,0,0,0,0,0,0,0,0,0,0,0,0,31,0,0,0,0,0,0,0,0,0,0,0,0,0,0,0,0,52,52,0,0,0,0,0,0,0,0,0,0,52,0,.81,HONEYWELL INTERNATIONAL INC,139691877
2001,92236RMTCD85901,ARMTEC DEFENSE PRODUCTS CO,85-901 AVE  53,COACHELLA,RIVERSIDE,CA,92236,33.660621,-116.166513,3489,,,,,,332995,,,,,,1301150247789,N-HEXANE,000110543,YES,NON-PBT,NO,0,NO,R,Pounds,0,1465,0,0,0,0,0,0,0,0,0,0,1465,0,0,0,0,0,0,0,0,0,0,0,0,0,0,0,0,0,0,0,0,0,0,0,0,0,0,0,0,0,0,0,3472,0,0,0,0,3472,1465,4937,0,0,0,0,0,0,0,0,16435,0,21372,0,.66,ESTERLINE TECHNOLOGIES,009258005
2001,93308RBRVP16608,RIO BRAVO POSO,16608 PORTERVILLE HWY,BAKERSFIELD,KERN,CA,93308,35.559459,-119.088037,4911,,,,,,221112,,,,,,1301150255077,"HYDROCHLORIC ACID (1995 AND AFTER ""ACID AEROSOLS"" ONLY)",007647010,YES,NON-PBT,NO,0,NO,R,Pounds,0,2593,0,0,0,0,0,0,0,0,0,0,2593,0,0,0,0,0,0,0,0,0,0,0,0,0,0,0,0,0,0,0,0,0,0,0,0,0,0,0,0,0,0,0,0,0,0,0,0,0,2593,2593,0,0,0,0,0,0,0,0,0,0,2593,0,.98,RIO BRAVO,NA
2001,93501PRDCT11601,PRC-DESOTO INTERNATIONAL INC,11601 UNITED ST,MOJAVE,KERN,CA,93501,34.989932,-118.15004,2891,,,,,,325520,,,,,,1301150287795,TOLUENE,000108883,YES,NON-PBT,NO,0,NO,R,Pounds,250,250,0,0,0,0,0,0,0,0,0,0,500,0,0,0,0,0,0,0,0,0,0,0,0,0,0,0,0,0,0,0,0,0,0,0,0,0,0,0,21671,0,21671,0,0,0,0,0,0,0,500,364,0,0,0,0,0,21285,0,0,0,0,21649,0,1.19,PPG INDUSTRIES INC,001344803
2001,94558NPPPC1025K,NAPA PIPE CORP,1025 KAISER RD,NAPA,NAPA,CA,94558,38.25,-122.28333,3443,,,,,,332313,,,,,,1301150244364,MANGANESE COMPOUNDS,N450,YES,NON-PBT,YES,1,NO,R,Pounds,5,0,0,0,0,0,0,0,0,0,0,0,5,0,0,0,0,0,0,0,0,0,30736,0,0,0,0,0,0,0,0,0,0,30736,0,0,0,0,0,0,0,0,0,0,0,0,0,0,0,0,30741,30736,0,0,0,0,0,0,0,0,0,0,30736,0,4.3,OREGON STEEL MILLS INC,878358118
2001,94128CHVRNCHEVR,CHEVRON SAN FRANCISCO TERMINAL,904 N ACCESS RD,SAN FRANCISCO,SAN FRANCISCO,CA,94128,37.75,-122.434998,5171,,,,,,424710,,,,,,1301150238069,XYLENE (MIXED ISOMERS),001330207,YES,NON-PBT,NO,0,NO,R,Pounds,9,380,10,0,0,0,0,0,0,0,0,0,399,0,4,4,0,0,0,0,0,0,0,0,0,0,0,0,0,0,0,0,0,0,0,0,0,0,0,0,1,0,1,0,0,0,0,0,0,0,399,400,0,0,0,0,0,0,0,0,0,4,404,0,.95,CHEVRON CORP,001382555
2001,94128CHVRNCHEVR,CHEVRON SAN FRANCISCO TERMINAL,904 N ACCESS RD,SAN FRANCISCO,SAN FRANCISCO,CA,94128,37.75,-122.434998,5171,,,,,,424710,,,,,,1301150238121,ETHYLBENZENE,000100414,YES,NON-PBT,NO,0,NO,R,Pounds,2,90,0,0,0,0,0,0,0,0,0,0,92,0,0,0,0,0,0,0,0,0,0,0,0,0,0,0,0,0,0,0,0,0,0,0,0,0,0,0,0,0,0,0,0,0,0,0,0,0,92,92,0,0,0,0,0,0,0,0,0,0,92,0,.95,CHEVRON CORP,001382555
2001,90810SHLND20915,ASHLAND DISTRIBUTION CO,20915 S WILMINGTON AVE,CARSON,LOS ANGELES,CA,90810,33.839636,-118.236633,5169,,,,,,424690,,,,,,1301150278505,XYLENE (MIXED ISOMERS),001330207,YES,NON-PBT,NO,0,NO,R,Pounds,21,10,0,0,0,0,0,0,0,0,0,0,31,0,0,0,0,0,0,0,0,0,0,0,0,0,0,0,0,0,0,0,0,0,0,0,0,0,0,0,33289,0,33289,0,0,0,0,0,0,0,31,31,0,0,0,0,0,33289,0,0,236,0,33556,0,.91,ASHLAND INC,005003264
2001,90221CSTCS3025V,FS PRECISION TECHNOLOGY LLC,3025 E VICTORIA ST,RANCHO DOMINGUEZ,LOS ANGELES,CA,90221,33.864897,-118.208266,3324,3369,3365,,,,331512,,,,,,1301150297051,COPPER,007440508,NO,NON-PBT,YES,1,NO,R,Pounds,0,0,0,0,0,0,0,0,0,0,0,0,0,0,0,0,0,0,0,0,0,0,0,0,0,0,0,0,0,0,0,0,0,0,0,6812,0,0,0,6812,0,0,0,0,0,0,0,0,0,0,0,0,0,0,0,0,0,0,0,6812,0,0,6812,0,.16,FHU SHENG INDUSTRIAL LTG,NA
2001,90058MBLLV2619E,EXXONMOBIL OIL CORP,2709 E 37TH ST,VERNON,LOS ANGELES,CA,90058,34.008933,-118.222513,5171,,,,,,424710,,,,,,1301150216238,ETHYLBENZENE,000100414,YES,NON-PBT,NO,0,NO,R,Pounds,24,73,0,0,0,0,0,0,0,0,0,0,97,0,0,0,0,0,0,0,0,0,0,0,0,0,0,0,0,0,36,0,0,36,0,0,0,0,0,0,0,0,0,0,0,0,0,0,0,0,133,133,0,0,0,0,0,0,0,0,0,0,133,0,0,EXXONMOBIL CORP,001213214
2001,92807MBLLT1477J,EXXONMOBIL OIL CORP ATWOOD TERMINAL,1477 JEFFERSON ST,ANAHEIM,ORANGE,CA,928071615,33.866019,-117.83708,5171,,,,,,424710,,,,,,1301150221897,"1,2,4-TRIMETHYLBENZENE",000095636,NO,NON-PBT,NO,0,NO,R,Pounds,1,4,0,0,0,0,0,0,0,0,0,0,5,0,0,0,0,0,0,0,0,0,0,0,0,0,0,0,0,0,0,0,0,0,0,0,0,0,0,0,0,0,0,0,0,0,0,0,0,0,5,5,0,0,0,0,0,0,0,0,0,0,5,0,0,EXXON MOBIL CORP,001213214
2001,90063DRGLD1474N,HUMBOLDT CREAMERY,1474 N INDIANA ST,LOS ANGELES,LOS ANGELES,CA,90063,34.057628,-118.19262,2024,,,,,,311520,,,,,,1301150239263,AMMONIA,007664417,NO,NON-PBT,NO,0,NO,R,Pounds,9932,0,0,0,0,0,0,0,0,0,0,0,9932,0,9933,9933,0,0,0,0,0,0,0,0,0,0,0,0,0,0,0,0,0,0,0,0,0,0,0,0,0,0,0,0,0,0,0,0,0,0,9932,9932,0,0,0,0,0,0,0,0,0,9933,19865,0,.97,NA,NA
2001,91340PHRMV1150A,PHARMAVITE LLC,1150 AVIATION PL,SAN FERNANDO,LOS ANGELES,CA,913401460,34.291216,-118.420989,2834,,,,,,325412,,,,,,1301150271423,ZINC COMPOUNDS,N982,NO,NON-PBT,YES,1,NO,R,Pounds,0,250,0,0,0,0,0,0,0,0,0,0,250,250,0,250,0,0,5,0,0,0,0,0,0,0,0,0,0,2364,0,0,0,2369,0,0,0,0,0,0,0,0,0,0,0,0,0,0,0,0,2869,2406,0,0,0,0,0,0,0,0,0,0,2406,0,.88,OTSUKA AMERICA INC,607111846
2001,94083DJSMP111SO,SIMPSON COATINGS GROUP INC,111 S MAPLE AVE,SOUTH SAN FRANCISCO,SAN MATEO,CA,94080,37.650139,-122.414197,2851,,,,,,325510,,,,,,1301150268504,CERTAIN GLYCOL ETHERS,N230,YES,NON-PBT,NO,0,NO,R,Pounds,35,101,0,0,0,0,0,0,0,0,0,0,136,0,0,0,0,0,0,0,0,0,0,0,0,0,0,0,0,0,0,0,0,0,0,0,0,0,0,0,839,0,839,0,0,0,0,0,0,0,136,136,0,0,0,0,0,839,0,0,0,0,975,0,.69,DJ SIMPSON CO INC,009159781
2001,92108MBLLM9950S,EXXONMOBIL OIL CORP MISSION VALLEY TERMINAL,9950 SAN DIEGO MISSION RD,SAN DIEGO,SAN DIEGO,CA,92108,32.786928,-117.117597,5171,,,,,,424710,,,,,,1301150209815,LEAD COMPOUNDS,N420,YES,PBT,YES,1,NO,R,Pounds,0,0,0,0,0,0,0,0,0,0,0,0,0,0,0,0,0,0,0,0,0,0,0,0,0,0,0,0,0,0,0,0,0,0,0,0,0,0,0,0,0,0,0,0,0,0,0,0,0,0,0,0,0,0,0,0,0,0,0,0,0,0,0,0,0,EXXONMOBIL CORP,001213214
2001,90670TCHMP9028D,KIK-SOCAL INC,9028 DICE RD,SANTA FE SPRINGS,LOS ANGELES,CA,906702520,33.956881,-118.066448,2841,,,,,,325611,,,,,,1301150245722,CHLORINE,007782505,YES,NON-PBT,NO,0,NO,R,Pounds,1,0,0,0,0,0,0,0,0,0,0,0,1,0,0,0,0,0,0,0,0,0,0,0,0,0,0,0,0,0,0,0,0,0,0,0,0,0,0,0,0,0,0,0,0,0,0,0,0,0,1,1,0,0,0,0,0,0,0,0,0,0,1,0,.91,KIK CUSTOM PRODUCTS,NA
2001,90701FMCRF11110,FOAM SPECIALTIES,11110 BUSINESS CIRCLE,CERRITOS,LOS ANGELES,CA,90701,33.871487,-118.09799,3086,,,,,,326150,,,,,,1301150239820,XYLENE (MIXED ISOMERS),001330207,YES,NON-PBT,NO,0,NO,R,Pounds,0,10782,0,0,0,0,0,0,0,0,0,0,10782,0,0,0,0,0,0,0,0,0,0,0,0,0,0,0,0,0,0,0,0,0,0,0,0,0,0,0,0,0,0,0,0,0,0,0,0,0,10782,10782,0,0,0,0,0,0,0,0,0,0,10782,0,0,NA,NA
2001,90501BRMTL2303J,COMMONWEALTH ALUMINUM - TORRANCE COIL COATING,2303 JEFFERSON ST,TORRANCE,LOS ANGELES,CA,90501,33.827623,-118.324671,3479,,,,,,332812,,,,,,1301150236204,LEAD COMPOUNDS,N420,YES,PBT,YES,1,NO,R,Pounds,0,0,0,0,0,0,0,0,0,0,0,0,0,0,0,0,0,0,0,0,0,0,11,0,0,0,0,0,0,0,0,0,0,11,0,0,0,0,0,0,0,0,0,0,0,0,0,0,0,0,11,0,0,0,0,0,0,0,0,0,0,11,11,0,1,COMMOWEALTH INDUSTRIES INC,120836853
2001,92807QNTCM4950E,NELCO PRODS. INC.,4950 E. LA PALMA AVE.,ANAHEIM,ORANGE,CA,92807,33.859468,-117.810392,3672,,,,,,334412,,,,,,1301150272072,COPPER,007440508,NO,NON-PBT,YES,1,NO,R,Pounds,0,0,0,0,0,0,0,0,0,0,0,0,0,0,0,0,0,0,0,0,0,0,0,0,0,0,0,0,0,0,0,0,0,0,0,2603,0,0,0,2603,0,0,0,0,0,0,0,0,0,0,0,0,0,0,0,0,0,0,0,2603,0,0,2603,0,.1,PARK ELECTROCHEMICAL,044476224
2001,95330FRSMP16777,J R SIMPLOT CO LATHROP,16777 HOWLAND RD,LATHROP,SAN JOAQUIN,CA,953300198,37.805832,-121.276115,2874,2873,,,,,325312,,,,,,1301150269114,LEAD COMPOUNDS,N420,YES,PBT,YES,1,NO,R,Pounds,0,.03893,0,0,0,0,0,0,0,0,0,0,.03893,0,0,0,0,0,0,0,0,0,0,0,0,0,0,0,0,0,0,0,0,0,0,0,0,0,0,0,0,0,0,0,0,0,0,0,0,0,.03893,.03893,0,0,0,0,0,0,0,0,389,0,389.03893,0,.87,J R SIMPLOT CO,009073503
2001,94608SHRWN1450S,SHERWIN-WILLIAMS CO.,1450 SHERWIN AVE,EMERYVILLE,ALAMEDA,CA,94608,37.831822,-122.288931,2851,,,,,,325510,,,,,,1301150425231,ZINC COMPOUNDS,N982,NO,NON-PBT,YES,1,NO,R,Pounds,0,60,0,0,0,0,0,0,0,0,0,0,60,2,0,2,0,0,0,0,0,0,1844,0,0,0,0,0,0,0,0,0,0,1844,0,0,0,0,0,0,0,0,0,0,0,0,0,0,0,0,1906,1906,0,0,0,0,0,0,24157,0,0,0,26063,0,.88,SHERWIN-WILLIAMS CO,004206397
2001,94553RPRDS110WA,AIR PRODUCTS & CHEMICALS INC (MARTINEZ-WATERFRONT ROAD),110 WATERFRONT RD GATE 75,MARTINEZ,CONTRA COSTA,CA,945531466,38.021111,-122.106667,2813,,,,,,325120,,,,,,1301150361261,ETHYLENE,000074851,NO,NON-PBT,NO,0,NO,R,Pounds,848,0,0,0,0,0,0,0,0,0,0,0,848,0,0,0,0,0,0,0,0,0,0,0,0,0,0,0,0,0,0,0,0,0,0,0,0,0,0,0,0,0,0,0,0,0,0,0,0,0,848,848,0,0,0,0,0,0,0,0,0,0,848,0,.85,AIR PRODUCTS & CHEMICALS INC,003001070
2001,94553RPRDS110WA,AIR PRODUCTS & CHEMICALS INC (MARTINEZ-WATERFRONT ROAD),110 WATERFRONT RD GATE 75,MARTINEZ,CONTRA COSTA,CA,945531466,38.021111,-122.106667,2813,,,,,,325120,,,,,,1301150361463,NICKEL COMPOUNDS,N495,YES,NON-PBT,YES,1,NO,R,Pounds,0,0,0,0,0,0,0,0,0,0,0,0,0,0,0,0,0,0,0,0,0,0,0,0,0,0,0,0,0,0,0,0,0,0,0,31500,0,0,0,31500,0,0,0,0,0,0,0,0,0,0,0,0,0,0,0,0,0,0,0,31500,0,0,31500,0,.85,AIR PRODUCTS & CHEMICALS INC,003001070
2001,95928LTRNT311OT,AKZONOBEL COATINGS,311 OTTERSON DR,CHICO,BUTTE,CA,95928,39.704929,-121.816228,2851,,,,,,325510,,,,,,1301150355156,METHYL ISOBUTYL KETONE,000108101,YES,NON-PBT,NO,0,NO,R,Pounds,23,17,0,0,0,0,0,0,0,0,0,0,40,0,0,0,0,0,0,0,0,0,0,0,0,0,0,0,0,0,0,0,0,0,0,0,0,0,0,0,625,0,625,0,0,0,0,0,0,0,40,40,0,0,0,0,0,625,0,0,0,0,665,0,.73,AKZONOBEL COATINGS,062999347
2001,90745SHLLL20945,EQUILON CARSON TERMINAL,20945 S WILMINGTON AVE,CARSON,LOS ANGELES,CA,908101039,33.83922,-118.23679,5171,,,,,,424710,,,,,,1301150381693,N-BUTYL ALCOHOL,000071363,NO,NON-PBT,NO,0,NO,R,Pounds,250,250,0,0,0,0,0,0,0,0,0,0,500,0,0,0,0,0,0,0,0,0,0,0,0,0,0,0,0,0,0,0,0,0,0,0,0,0,0,0,0,0,0,0,0,0,0,0,0,0,500,290,0,0,0,0,0,0,0,0,21,0,311,0,2.38,NA,NA
2001,90745SHLLL20945,EQUILON CARSON TERMINAL,20945 S WILMINGTON AVE,CARSON,LOS ANGELES,CA,908101039,33.83922,-118.23679,5171,,,,,,424710,,,,,,1301150381768,METHYL ISOBUTYL KETONE,000108101,YES,NON-PBT,NO,0,NO,R,Pounds,250,750,0,0,0,0,0,0,0,0,0,0,1000,0,0,0,0,0,0,0,0,0,0,0,0,0,0,0,0,0,0,0,0,0,0,0,0,0,0,0,0,250,250,0,0,0,0,0,0,0,1000,730,0,0,0,0,0,37,0,0,150,0,917,0,.74,NA,NA
2001,92680CHRKN2841D,LINEAGE POWER (GE ENERGY),2841 DOW AVE,TUSTIN,ORANGE,CA,92780,33.711456,-117.808036,3671,,,,,,334411,,,,,,1301150421410,LEAD COMPOUNDS,N420,YES,PBT,YES,1,NO,R,Pounds,0,0,0,0,0,0,0,0,0,0,0,0,0,0,0,0,0,0,0,0,0,0,0,0,0,0,0,0,0,0,0,0,0,0,0,2886,0,0,0,2886,0,0,0,0,0,0,0,0,0,0,0,0,0,0,0,0,0,0,0,2886,0,0,2886,0,.3,GENERAL ELECTRIC CO (GE CO),001367960
2001,90280PCFCL5900E,PACIFIC ALLOY CASTINGS,5900 E FIRESTONE BLVD,SOUTH GATE,LOS ANGELES,CA,902803797,33.948735,-118.161076,3321,,,,,,331511,,,,,,1301150325571,NICKEL,007440020,YES,NON-PBT,YES,1,YES,R,Pounds,5,5,0,0,0,0,0,0,0,0,0,0,10,0,0,0,0,0,0,0,0,0,1021,0,0,0,0,0,0,0,0,0,0,1021,0,0,0,0,0,0,0,0,0,0,0,0,0,0,0,0,1031,0,0,0,0,0,0,0,0,1020,0,0,1020,0,.85,NA,NA
2001,90503NNCRB19206,ARKEMA EMULSION SYSTEMS PLANT,19206 HAWTHORNE BLVD,TORRANCE,LOS ANGELES,CA,90503,33.855583,-118.34908,2821,,,,,,325211,,,,,,1301150355523,ACRYLONITRILE,000107131,YES,NON-PBT,NO,0,YES,R,Pounds,606,6,0,0,0,0,0,0,0,0,0,0,612,0,0,0,0,0,0,0,0,0,0,0,0,0,0,0,0,0,0,0,0,0,0,0,0,0,0,0,0,0,0,0,0,0,0,0,0,0,612,613,0,0,0,0,0,0,0,0,96,0,709,0,1,ARKEMA DELAWARE INC,001381581
2001,91406NHSRB15800,ANHEUSER-BUSCH INC,15800 ROSCOE BLVD,VAN NUYS,LOS ANGELES,CA,914061379,34.22134,-118.47863,2082,,,,,,312120,,,,,,1301150391720,AMMONIA,007664417,NO,NON-PBT,NO,0,NO,R,Pounds,28059,2640,0,0,0,0,0,0,0,0,0,0,30699,0,2596,2596,0,0,0,0,0,0,0,0,0,0,0,0,0,0,0,0,0,0,0,0,0,0,0,0,0,0,0,0,0,9,0,0,0,9,30699,30645,0,0,0,0,0,0,0,0,0,2605,33250,54,1.01,ANHEUSER-BUSCH INBEV,098630254
2001,90802DWCHM305HE,DOW CHEMICAL CO LONG BEACH TERMINAL,305 HENRY FORD AVE,LONG BEACH,LOS ANGELES,CA,90802,33.839966,-118.321075,5169,,,,,,425120,,,,,,1301150421509,CERTAIN GLYCOL ETHERS,N230,YES,NON-PBT,NO,0,NO,R,Pounds,0,3,0,0,0,0,0,0,0,0,0,0,3,0,0,0,0,0,0,0,0,0,0,0,0,0,0,0,0,0,0,0,0,0,0,0,0,0,0,0,0,0,0,0,80,10,0,0,0,90,3,3,0,0,0,0,0,0,0,0,270,90,363,0,.72,DOW CHEMICAL CO,001381581
2001,94553TSCCRAVONR,TESORO REFINING & MARKETING CO,150 SOLANO AVE,MARTINEZ,CONTRA COSTA,CA,945531487,38.030833,-122.075,2911,,,,,,324110,,,,,,1301150326508,PROPYLENE,000115071,NO,NON-PBT,NO,0,NO,R,Pounds,2700,13000,0,0,0,0,0,0,0,0,0,0,15700,0,0,0,0,0,0,0,0,0,0,0,0,0,0,0,0,0,0,0,0,0,0,0,0,0,0,0,0,0,0,0,0,0,0,0,0,0,15700,15700,0,0,0,0,0,0,0,0,1500000,0,1515700,0,1.3,TESORO CORP,008133480
2001,94553TSCCRAVONR,TESORO REFINING & MARKETING CO,150 SOLANO AVE,MARTINEZ,CONTRA COSTA,CA,945531487,38.030833,-122.075,2911,,,,,,324110,,,,,,1301150326546,NITRATE COMPOUNDS,N511,NO,NON-PBT,NO,0,NO,R,Pounds,0,0,42000,0,0,0,0,0,0,0,0,0,42000,0,0,0,0,0,0,0,0,0,0,0,0,0,0,0,0,0,0,0,0,0,0,0,0,0,0,0,0,0,0,0,0,0,0,0,0,0,42000,42000,0,0,0,0,0,0,0,0,0,0,42000,0,1.3,TESORO CORP,008133480
2001,94553TSCCRAVONR,TESORO REFINING & MARKETING CO,150 SOLANO AVE,MARTINEZ,CONTRA COSTA,CA,945531487,38.030833,-122.075,2911,,,,,,324110,,,,,,1301150326597,"SULFURIC ACID (1994 AND AFTER ""ACID AEROSOLS"" ONLY)",007664939,NO,NON-PBT,NO,0,NO,R,Pounds,0,160000,0,0,0,0,0,0,0,0,0,0,160000,0,0,0,0,0,0,0,0,0,0,0,0,0,0,0,0,0,0,0,0,0,0,0,0,0,0,0,0,0,0,0,0,0,0,0,0,0,160000,160000,0,0,0,0,0,0,0,0,28000,0,188000,0,1.3,TESORO CORP,008133480
2001,94553TSCCRAVONR,TESORO REFINING & MARKETING CO,150 SOLANO AVE,MARTINEZ,CONTRA COSTA,CA,945531487,38.030833,-122.075,2911,,,,,,324110,,,,,,1301150326698,CARBONYL SULFIDE,000463581,YES,NON-PBT,NO,0,NO,R,Pounds,0,0,0,0,0,0,0,0,0,0,0,0,0,0,0,0,0,0,0,0,0,0,0,0,0,0,0,0,0,0,0,0,0,0,0,0,0,0,0,0,0,0,0,0,0,0,0,0,0,0,0,0,0,0,0,0,0,0,0,0,0,0,0,0,1.3,TESORO CORP,008133480
2001,92377MNRLF3511N,MONIERLIFETILE LLC,3511 N RIVERSIDE AVE,RIALTO,SAN BERNARDINO,CA,92377,34.159444,-117.404767,3272,,,,,,327390,,,,,,1301150348757,LEAD,007439921,YES,PBT,YES,1,YES,R,Pounds,0,13,0,0,0,0,0,0,0,0,0,0,13,0,0,0,0,0,0,0,0,0,0,0,0,0,0,0,0,0,0,0,0,0,0,0,0,0,0,0,0,0,0,0,0,0,0,0,0,0,13,15,0,0,0,0,0,0,0,0,0,0,15,0,1.11,MONIERLIFETILE LLC,002228711
2001,93274STLLF901LE,SAPUTO CHEESE USA INC,901 E LEVIN AVE,TULARE,TULARE,CA,932746525,36.18931,-119.33988,2022,,,,,,311513,,,,,,1301150349607,NITRIC ACID,007697372,NO,NON-PBT,NO,0,NO,R,Pounds,0,0,0,0,0,0,0,0,0,0,0,0,0,0,0,0,0,0,0,0,0,0,0,0,0,0,0,0,0,0,0,0,0,0,0,0,0,0,0,0,0,0,0,0,0,0,0,0,0,0,0,0,0,0,0,0,0,0,0,0,177358,0,177358,0,94.86,SAPUTO ACQUISITION INC,796426286
2001,91331BRBNK13561,BURBANK PLATING SERVICE CORP,13561  DESMOND  ST,PACOIMA,LOS ANGELES,CA,913312316,34.275858,-118.426928,3471,,,,,,332813,,,,,,1301150349746,CYANIDE COMPOUNDS,N106,YES,NON-PBT,NO,0,NO,R,Pounds,0,0,0,0,0,0,0,0,0,0,0,0,0,0,250,250,0,0,0,0,0,0,0,0,0,0,0,0,0,0,0,0,250,250,0,0,0,0,0,0,0,0,0,0,0,0,0,0,0,0,250,0,0,0,0,0,0,0,0,0,5000,0,5000,0,1.1,NA,NA
2001,94572NCLSNOLDHI,CONOCOPHILLIPS SAN FRANCISCO R EFINERY,1380 SAN PABLO AVE,RODEO,CONTRA COSTA,CA,94572,38.044722,-122.261388,2911,,,,,,324110,,,,,,1301150316230,NITRATE COMPOUNDS,N511,NO,NON-PBT,NO,0,NO,R,Pounds,0,0,210000,0,0,0,0,0,0,0,0,0,210000,0,0,0,0,0,0,0,0,0,0,0,0,0,0,0,0,0,0,0,0,0,0,0,0,0,0,0,0,0,0,0,0,0,0,0,0,0,210000,210000,0,0,0,0,0,0,0,0,0,0,210000,0,1.15,CONOCOPHILLIPS,118819478
2001,93562CCGNR12801,ACE COGENERATION FACILITY,12801 MARIPOSA ST,TRONA,SAN BERNARDINO,CA,93652,35.765515,-117.383606,4911,,,,,,221112,,,,,,1301150306278,"HYDROCHLORIC ACID (1995 AND AFTER ""ACID AEROSOLS"" ONLY)",007647010,YES,NON-PBT,NO,0,NO,R,Pounds,0,4131,0,0,0,0,0,0,0,0,0,0,4131,0,0,0,0,0,0,0,0,0,0,0,0,0,0,0,0,0,0,0,0,0,0,0,0,0,0,0,0,0,0,0,0,0,0,0,0,0,4131,4131,0,0,0,0,0,0,0,0,0,0,4131,0,.9,CONSTELLATION POWER INC & ARCLITE,621610385
2001,92101SLRTR2200P,SOLAR TURBINES INC HARBOR DRIVE,2200 PACIFIC HWY MZ T-2,SAN DIEGO,SAN DIEGO,CA,92101,32.7269,-117.17267,3511,,,,,,333611,,,,,,1301150342273,LEAD,007439921,YES,PBT,YES,1,YES,R,Pounds,0,0,0,0,0,0,0,0,0,0,0,0,0,1,0,1,0,0,0,0,0,0,2015,0,0,0,0,0,0,0,0,0,0,2015,0,0,0,0,0,0,0,0,0,0,0,0,0,0,0,0,2016,670,0,0,0,0,0,0,0,1346,0,0,2016,0,1.32,CATERPILLAR INC,005070479
2001,91745LPRNF490FS,LEPRINO FOODS CO,490 F ST,LEMOORE,KINGS,CA,93245,36.30389,-119.789169,2022,2023,,,,,311513,,,,,,1301150379459,NITRATE COMPOUNDS,N511,NO,NON-PBT,NO,0,NO,R,Pounds,0,0,0,0,0,0,0,0,0,0,0,0,0,0,715010,715010,0,0,0,0,0,0,0,0,0,0,0,0,0,0,0,0,0,0,0,0,0,0,0,0,0,0,0,0,0,0,0,0,0,0,0,0,0,0,0,0,0,0,0,0,0,715010,715010,0,1.08,LEPRINO FOODS CO,007076664
2001,92504PCHPR6942E,EAGLE POLYISO CORP.,6942 ED PERKIC ST.,RIVERSIDE,RIVERSIDE,CA,92504,33.96263,-117.446136,3086,,,,,,327993,,,,,,1301150313068,DIISOCYANATES,N120,YES,NON-PBT,NO,0,NO,R,Pounds,5,5,0,0,0,0,0,0,0,0,0,0,10,0,0,0,0,0,0,0,0,0,0,0,0,0,0,0,0,0,0,0,0,0,0,0,0,0,0,0,0,0,0,0,0,0,0,0,0,0,10,3,0,0,0,0,0,0,0,0,0,0,3,0,1.19,JOHNS MANVILLE CORP,045426558
2001,94572NCLSNOLDHI,CONOCOPHILLIPS SAN FRANCISCO R EFINERY,1380 SAN PABLO AVE,RODEO,CONTRA COSTA,CA,94572,38.044722,-122.261388,2911,,,,,,324110,,,,,,1301150316331,DIETHANOLAMINE,000111422,YES,NON-PBT,NO,0,NO,R,Pounds,0,0,5,0,0,0,0,0,0,0,0,0,5,0,0,0,0,0,0,0,0,0,0,0,0,0,0,0,0,0,0,0,0,0,0,0,0,0,0,0,44560,0,44560,0,0,0,0,0,0,0,5,0,0,0,0,0,0,45000,0,0,0,0,45000,0,1.15,CONOCOPHILLIPS,118819478
2001,94089PRFRM610EW,ANALOG DEVICES SUNNYVALE SITE,610 E WEDDELL DR,SUNNYVALE,SANTA CLARA,CA,94089,37.398568,-122.011572,3674,,,,,,334413,,,,,,1301150342739,"HYDROCHLORIC ACID (1995 AND AFTER ""ACID AEROSOLS"" ONLY)",007647010,YES,NON-PBT,NO,0,NO,R,Pounds,3,60,0,0,0,0,0,0,0,0,0,0,63,0,0,0,0,0,0,0,0,0,0,0,0,0,0,0,0,0,0,0,0,0,0,0,0,0,0,0,0,0,0,0,0,0,0,0,0,0,63,63,0,0,0,0,0,0,0,0,5918,0,5981,0,.73,ANALOG DEVICES INC,001418417
2001,90631SHPRD503SC,SHEPARD BROS INC,503 S CYPRESS ST,LA HABRA,ORANGE,CA,90631,33.92687,-117.94174,2842,,,,,,325612,,,,,,1301150307039,NITRIC ACID,007697372,NO,NON-PBT,NO,0,NO,R,Pounds,0,0,0,0,0,0,0,0,0,0,0,0,0,0,0,0,0,0,0,0,0,0,0,0,0,0,0,0,0,0,0,0,0,0,0,0,0,0,0,0,0,0,0,0,0,0,0,0,0,0,0,0,0,0,0,0,0,0,0,0,0,0,0,0,0,NA,NA
2001,95301NCBLD550IN,NCI BUILDING SYSTEMS LP,550 INDUSTRY WAY,ATWATER,MERCED,CA,95301,37.33659,-120.6052,3448,,,,,,332312,,,,,,1301150310290,MANGANESE,007439965,YES,NON-PBT,YES,1,NO,R,Pounds,0,0,0,0,0,0,0,0,0,0,0,0,0,0,0,0,0,0,0,0,0,0,0,0,0,0,0,0,0,0,0,0,0,0,0,0,0,0,0,0,0,0,0,0,0,0,0,0,0,0,0,0,0,0,0,0,0,0,0,0,0,0,0,0,1.1,NCI BUILDING SYSTEMS INC,130234529
2001,95826PRCTR8201F,PROCTER & GAMBLE MFG CO,8201 FRUITRIDGE RD,SACRAMENTO,SACRAMENTO,CA,95826,38.52509,-121.40757,2869,,,,,,325199,,,,,,1301150310670,COPPER COMPOUNDS,N100,NO,NON-PBT,YES,1,NO,R,Pounds,0,6,0,0,0,0,0,0,0,0,0,0,6,217,0,217,0,0,0,0,0,0,23539,0,0,0,0,0,0,0,0,0,0,23539,0,0,122595,0,0,122595,0,0,0,0,0,0,0,0,0,0,23762,23762,0,0,0,0,0,0,0,122595,0,0,146357,0,1.14,THE PROCTER & GAMBLE CO,001316827
2001,91311NWHMP9730I,NEW HAMPSHIRE BALL BEARINGS INC,9700 INDEPENDENCE AVE,CHATSWORTH,LOS ANGELES,CA,91311,34.246844,-118.590756,3562,,,,,,332991,,,,,,1301150311114,CHROMIUM,007440473,YES,NON-PBT,YES,1,YES,R,Pounds,0,0,0,0,0,0,0,0,0,0,0,0,0,5,0,5,0,0,0,0,0,0,0,0,0,0,0,0,0,0,0,30,0,30,0,34753,0,0,0,34753,0,0,0,0,0,0,0,0,0,0,35,32,0,0,0,0,0,0,0,34753,0,0,34785,0,1.1,NMB USA INC,117495838
2001,95407CL   2789N,OPTICAL COATING LABORATORY INC.,2789 NORTHPOINT PKY.,SANTA ROSA,SONOMA,CA,95407,38.415119,-122.761322,3827,,,,,,333314,,,,,,1301150314298,LEAD,007439921,YES,PBT,YES,1,YES,R,Pounds,0,0,0,0,0,0,0,0,0,0,0,0,0,0,0,0,0,898,0,0,0,0,0,0,0,0,0,0,0,0,0,0,0,898,0,0,0,0,0,0,0,0,0,0,0,0,0,0,0,0,898,898,0,0,0,0,0,0,0,0,0,0,898,0,.62,JDS UNIPHASE,022810311
2001,94545THRMN3118D,THERMIONICS METAL PROCESSING INC,3118 DEPOT RD,HAYWARD,ALAMEDA,CA,94545,37.638546,-122.121194,3471,,,,,,332813,,,,,,1301150376820,NITRATE COMPOUNDS,N511,NO,NON-PBT,NO,0,NO,R,Pounds,0,0,0,0,0,0,0,0,0,0,0,0,0,0,106164,106164,0,0,0,0,0,0,0,0,0,0,0,0,0,0,0,0,0,0,0,0,0,0,0,0,0,0,0,0,0,0,0,0,0,0,0,106164,0,0,0,0,0,0,0,0,0,0,106164,0,.8,THERMIONICS LABORATORY INC,NA
2001,92631FRTRF2451C,FUTURE FOAM INC,2451 CYPRESS WAY,FULLERTON,ORANGE,CA,92831,33.861944,-117.885833,3086,,,,,,326150,,,,,,1301150399778,TOLUENE DIISOCYANATE (MIXED ISOMERS),026471625,NO,NON-PBT,NO,0,YES,R,Pounds,186,207,0,0,0,0,0,0,0,0,0,0,393,0,0,0,0,0,0,0,0,0,0,0,0,0,0,0,0,0,0,0,0,0,0,0,0,0,0,0,0,0,0,0,0,0,0,0,0,0,393,393,0,0,0,0,0,0,0,0,0,0,393,0,.97,FUTURE FOAM INC,NA
2001,92376HLLDY265SA,HOLLIDAY ROCK CO INC,265 SANTA ANA AVE,RIALTO,SAN BERNARDINO,CA,92376,34.055892,-117.373843,3273,2951,1442,,,,327320,,,,,,1301150410215,"BENZO(G,H,I)PERYLENE",000191242,YES,PBT,NO,0,YES,R,Pounds,0,0,0,0,0,0,0,0,0,0,0,0,0,0,0,0,0,0,0,0,0,0,0,0,0,0,0,0,0,0,0,0,0,0,0,0,0,0,0,0,0,0,0,0,0,0,0,0,0,0,0,0,0,0,0,0,0,0,0,0,0,0,0,0,0,HOLLIDAY ROCK CO INC,NA
2001,91750LVRNM900PA,PACIFIC PRECISION METALS INC LA VERNE,900 PALOMARES,LA VERNE,LOS ANGELES,CA,91750,34.10294,-117.78965,3499,,,,,,332116,,,,,,1301150308157,MANGANESE,007439965,YES,NON-PBT,YES,1,NO,R,Pounds,0,0,0,0,0,0,0,0,0,0,0,0,0,0,0,0,0,0,0,0,0,0,0,0,0,0,0,0,0,0,0,0,0,0,0,28783,0,0,0,28783,0,0,0,0,0,0,0,0,0,0,0,0,0,0,0,0,0,0,0,28783,0,0,28783,0,.37,PACIFIC PRECISION METALS INC,530800082
2001,90220BTCHR335WE,BUTCHER CO INC,355 W ARETESIA BLVD,COMPTON,LOS ANGELES,CA,90220,33.874417,-118.227105,2842,,,,,,325612,,,,,,1301150311809,DIBUTYL PHTHALATE,000084742,YES,NON-PBT,NO,0,NO,R,Pounds,2,0,0,0,0,0,0,0,0,0,0,0,2,0,0,0,0,0,0,0,0,0,0,0,0,0,0,0,0,0,0,0,0,0,0,0,0,0,0,0,0,2044,2044,0,0,0,0,0,0,0,2,2,0,0,0,0,0,0,0,0,0,2044,2046,0,.99,JOHNSONDIVERSEY INC,018240817
2001,90748NNPCF2402E,ULTRAMAR INC WILMINGTON REFINERY,2402 E ANAHEIM ST,WILMINGTON,LOS ANGELES,CA,90744,33.780556,-118.235833,2911,,,,,,324110,,,,,,1301150373924,"1,3-BUTADIENE",000106990,YES,NON-PBT,NO,0,YES,R,Pounds,12,0,0,0,0,0,0,0,0,0,0,0,12,0,0,0,0,0,0,0,0,0,0,0,0,0,0,0,0,0,0,0,0,0,0,0,0,0,0,0,0,0,0,0,0,0,0,0,0,0,12,12,0,0,0,0,0,0,0,0,0,0,12,0,.99,VALERO ENERGY CORP,082686916
2001,94544MDLND31500,ENGINEERED POLYMER SOLUTIONS INC. D/B/A VALSPAR COATINGS,31500 HAYMAN ST,HAYWARD,ALAMEDA,CA,94544,37.614258,-122.046805,2821,2851,,,,,325211,,,,,,1301150370753,METHYL ISOBUTYL KETONE,000108101,YES,NON-PBT,NO,0,NO,R,Pounds,0,250,0,0,0,0,0,0,0,0,0,0,250,0,0,0,0,0,0,0,0,0,0,0,0,0,0,0,0,0,0,0,0,0,0,0,0,0,0,0,250,0,250,0,0,0,0,1000,0,1000,250,88,0,0,0,0,0,137,110,0,0,799,1134,0,1,VALSPAR CORP,050736453
2001,90748NNPCF2402E,ULTRAMAR INC WILMINGTON REFINERY,2402 E ANAHEIM ST,WILMINGTON,LOS ANGELES,CA,90744,33.780556,-118.235833,2911,,,,,,324110,,,,,,1301150374142,CARBON DISULFIDE,000075150,YES,NON-PBT,NO,0,NO,R,Pounds,0,0,0,0,0,0,0,0,0,0,0,0,0,0,0,0,0,0,0,0,0,0,0,0,0,0,0,0,0,0,0,0,0,0,0,0,0,0,0,0,0,0,0,0,0,0,0,0,0,0,0,0,0,0,0,0,0,0,0,0,0,0,0,0,.99,VALERO ENERGY CORP,082686916
2001,90744LTRMR961LA,ULTRAMAR INC MARINE TERMINAL,961 LA PALOMA ST,WILMINGTON,LOS ANGELES,CA,90744,33.759295,-118.266041,5171,,,,,,424710,,,,,,1301150410874,MERCURY COMPOUNDS,N458,YES,PBT,YES,1,NO,R,Pounds,0,0,0,0,0,0,0,0,0,0,0,0,0,0,0,0,0,0,0,0,0,0,0,0,0,0,0,0,0,0,0,0,0,0,0,0,0,0,0,0,0,0,0,0,0,0,0,0,0,0,0,0,0,0,0,0,0,0,0,0,0,0,0,0,.93,VALERO ENERGY CORP,NA
2001,94510XXNCS3400E,VALERO REFINING CO - CALI FORNIA BENICIA REFINERY,3400 E SECOND ST,BENICIA,SOLANO,CA,945101005,38.074167,-122.145,2911,5171,,,,,324110,,,,,,1301150396529,PROPYLENE,000115071,NO,NON-PBT,NO,0,NO,R,Pounds,9260,19900,0,0,0,0,0,0,0,0,0,0,29160,0,0,0,0,0,0,0,0,0,0,0,0,0,0,0,0,0,0,0,0,0,0,0,0,0,0,0,0,0,0,0,0,0,0,0,0,0,29160,29000,0,0,0,0,3000000,0,0,0,0,0,3029000,0,.94,VALERO ENERGY CORP,082686916
2001,95376BNTTR22888,BANTA TERMINAL CHEVRON PRODUCTS CO,22888 S KASSON RD,TRACY,SAN JOAQUIN,CA,95304,37.751441,-121.348923,5171,,,,,,424710,,,,,,1301150344366,ETHYLBENZENE,000100414,YES,NON-PBT,NO,0,NO,R,Pounds,5,8,0,0,0,0,0,0,0,0,0,0,13,0,0,0,0,0,0,0,0,0,0,0,0,0,0,0,0,0,0,0,0,0,0,0,7,0,0,7,0,0,0,0,0,0,25,0,0,25,13,12,0,0,0,0,0,0,0,7,0,25,44,0,1.1,CHEVRON CORP,001382555
2001,92647HNTNG17881,CHEVRON HUNTINGTON BEACH TERMI NAL,17881 GOTHARD ST,HUNTINGTON BEACH,ORANGE,CA,92647,33.703267,-117.999916,5171,,,,,,424710,,,,,,1301150374369,ETHYLBENZENE,000100414,YES,NON-PBT,NO,0,NO,R,Pounds,94,6,0,0,0,0,0,0,0,0,0,0,100,0,0,0,0,0,0,0,0,0,0,0,0,0,0,0,0,0,0,0,0,0,0,0,0,0,0,0,8,0,8,0,0,0,0,0,0,0,100,100,0,0,0,0,0,8,0,0,4,0,112,0,1.04,CHEVRON CORP,001382555
2001,90640LLLYN901WE,ENGINEERED POLYMER SOLUTIONS INC D/B/A VALSPAR COATINGS,901 W UNION ST,MONTEBELLO,LOS ANGELES,CA,90640,33.980416,-118.125353,2851,,,,,,325510,,,,,,1301150371336,CERTAIN GLYCOL ETHERS,N230,YES,NON-PBT,NO,0,NO,R,Pounds,250,5,0,0,0,0,0,0,0,0,0,0,255,0,0,0,0,0,0,0,0,0,0,0,0,0,0,0,0,0,0,0,0,0,0,0,0,0,0,0,14426,0,14426,0,0,0,0,0,0,0,255,469,0,0,0,0,0,14426,4136,0,0,0,19031,0,.94,THE VALSPAR CORP,050736453
2001,90640LLLYN901WE,ENGINEERED POLYMER SOLUTIONS INC D/B/A VALSPAR COATINGS,901 W UNION ST,MONTEBELLO,LOS ANGELES,CA,90640,33.980416,-118.125353,2851,,,,,,325510,,,,,,1301150371399,TOLUENE,000108883,YES,NON-PBT,NO,0,NO,R,Pounds,250,8497,0,0,0,0,0,0,0,0,0,0,8747,0,0,0,0,0,0,0,0,0,0,0,0,0,0,0,0,0,0,0,0,0,14688,0,0,0,0,14688,33570,0,33570,0,0,0,0,0,0,0,8747,8622,0,0,0,0,0,33570,14009,14688,0,0,70889,0,.94,THE VALSPAR CORP,050736453
2001,90040THMCC5501E,ENGINEERED POLYMER SOLUTIONS INC,5501 E SLAUSON AVE,CITY OF COMMERCE,LOS ANGELES,CA,90040,33.987111,-118.165944,2821,,,,,,325510,,,,,,1301150371870,TOLUENE,000108883,YES,NON-PBT,NO,0,NO,R,Pounds,250,250,0,0,0,0,0,0,0,0,0,0,500,0,250,250,0,0,0,0,0,0,0,0,0,0,0,0,0,0,0,0,0,0,0,0,0,0,0,0,2349,0,2349,0,0,0,0,250,0,250,500,170,0,0,0,0,0,2263,308,0,0,490,3231,0,1.22,THE VALSPAR CORP,050736453
2001,95203PSDFP2526W,POSDEF POWER CO LP,2526 W WASHINGTON ST,STOCKTON,SAN JOAQUIN,CA,95203,37.943207,-121.329784,4931,4911,,,,,221112,,,,,,1301150408209,MERCURY COMPOUNDS,N458,YES,PBT,YES,1,NO,R,Pounds,0,9.53,0,0,0,0,0,0,0,0,0,0,9.53,.64,0,.64,0,0,0,0,0,0,24.01,0,0,0,0,0,43.52,0,0,0,0,67.53,0,0,0,0,0,0,0,0,0,0,0,0,0,0,0,0,77.7,76.74,0,0,0,0,0,0,0,0,0,0,76.74,0,0,NEXTERA ENERGY RESOURCES,782659171
2001,90201MTLSR6060S,METAL SURFACES INC,6060 SHULL ST,BELL GARDENS,LOS ANGELES,CA,90201,33.954295,-118.158828,3471,,,,,,332813,,,,,,1301150366045,NITRIC ACID,007697372,NO,NON-PBT,NO,0,NO,R,Pounds,5,5,0,0,0,0,0,0,0,0,0,0,10,0,0,0,0,0,0,0,0,0,0,0,0,0,0,0,0,0,0,0,0,0,0,0,0,0,0,0,0,0,0,0,0,0,0,0,0,0,10,5,0,0,0,0,0,0,0,0,63000,0,63005,0,.8,NA,NA
2001,92227NWMNT6502E,MESQUITE MINE,6502 E HWY 78,BRAWLEY,IMPERIAL,CA,92227,33.001686,-115.030205,1041,,,,,,212221,,,,,,1301150324768,HYDROGEN CYANIDE,000074908,NO,NON-PBT,NO,0,NO,R,Pounds,4220,39,0,0,0,0,0,0,0,0,0,0,4259,0,0,0,0,0,0,0,0,0,0,0,0,0,0,0,0,0,0,0,0,0,0,0,0,0,0,0,0,0,0,0,0,0,0,0,0,0,4259,4259,0,0,0,0,0,0,0,0,0,0,4259,0,.77,NEWGOLD INC,604184908
2001,91739TMC  12459,TAMCO,12459 ARROW RT STE B,RANCHO CUCAMONGA,SAN BERNARDINO,CA,917399601,34.09905,-117.533804,3312,,,,,,331112,,,,,,1301150394361,COPPER COMPOUNDS,N100,NO,NON-PBT,YES,1,NO,R,Pounds,0,62,0,0,0,0,0,0,0,0,0,0,62,0,0,0,0,282,0,0,0,0,0,0,0,0,0,0,0,0,0,0,0,282,0,55437,0,0,0,55437,0,0,0,0,0,0,0,0,0,0,344,62,0,0,0,0,0,0,0,55437,0,0,55499,0,1.78,NA,NA
2001,90040VPKSN2600S,UNIVAR USA INC,2600 S GARFIELD AVE,COMMERCE,LOS ANGELES,CA,90040,33.9925,-118.133056,5169,,,,,,424690,,,,,,1301150394462,DIBUTYL PHTHALATE,000084742,YES,NON-PBT,NO,0,NO,R,Pounds,0,0,0,0,0,0,0,0,0,0,0,0,0,0,0,0,0,0,0,0,0,0,0,0,0,0,0,0,0,0,0,0,0,0,0,0,0,0,0,0,535,0,535,0,0,0,0,0,0,0,0,0,0,0,0,0,0,535,0,0,0,0,535,0,0,UNIVAR USA INC,102971785
2001,90040VPKSN2600S,UNIVAR USA INC,2600 S GARFIELD AVE,COMMERCE,LOS ANGELES,CA,90040,33.9925,-118.133056,5169,,,,,,424690,,,,,,1301150394512,METHYL ETHYL KETONE,000078933,NO,NON-PBT,NO,0,NO,R,Pounds,55,21,0,0,0,0,0,0,0,0,0,0,76,0,0,0,0,0,0,0,0,0,0,0,0,0,0,0,0,0,0,0,0,0,0,0,0,0,0,0,14692,0,14692,0,0,0,0,0,0,0,76,76,0,0,0,0,0,14692,0,0,0,0,14768,0,0,UNIVAR USA INC,102971785
2001,90040VPKSN2600S,UNIVAR USA INC,2600 S GARFIELD AVE,COMMERCE,LOS ANGELES,CA,90040,33.9925,-118.133056,5169,,,,,,424690,,,,,,1301150394575,SEC-BUTYL ALCOHOL,000078922,NO,NON-PBT,NO,0,NO,R,Pounds,1,3,0,0,0,0,0,0,0,0,0,0,4,0,0,0,0,0,0,0,0,0,0,0,0,0,0,0,0,0,0,0,0,0,0,0,0,0,0,0,654,0,654,0,0,0,0,0,0,0,4,139,0,0,0,0,0,519,0,0,0,0,658,135,0,UNIVAR USA INC,102971785
2001,91749THDXT15051,HENKEL CORP,15051 E DON JULIAN RD,CITY OF INDUSTRY,LOS ANGELES,CA,91746,34.023892,-117.97156,3087,,,,,,325991,,,,,,1301150405506,LEAD,007439921,YES,PBT,YES,1,YES,R,Pounds,0,0,0,0,0,0,0,0,0,0,0,0,0,0,0,0,0,0,0,0,0,0,0,0,0,0,0,0,0,0,0,0,0,0,0,0,0,0,0,0,0,0,0,0,0,0,0,0,0,0,0,0,0,0,0,0,0,0,0,0,0,0,0,0,0,HENKEL CORP,051441731
2001,92121FRZPN6625M,FRAZEE INDUSTRIES,6625 MIRAMAR RD,SAN DIEGO,SAN DIEGO,CA,92121,32.877634,-117.171822,2851,,,,,,325510,,,,,,1301150328526,ZINC COMPOUNDS,N982,NO,NON-PBT,YES,1,NO,R,Pounds,5,0,0,0,0,0,0,0,0,0,0,0,5,5,0,5,0,1000,0,0,0,0,0,0,0,0,0,0,0,0,0,0,0,1000,0,0,0,0,0,0,0,0,0,0,0,0,0,0,0,0,1010,244,0,0,0,0,0,0,0,0,0,0,244,0,1.16,COMEX GROUP,844079769
2001,92370LPHRS19991,AOC LLC,19991 SEATON AVE,PERRIS,RIVERSIDE,CA,92570,33.830453,-117.261578,2821,,,,,,325211,,,,,,1301150325482,DICYCLOPENTADIENE,000077736,NO,NON-PBT,NO,0,NO,R,Pounds,250,5,0,0,0,0,0,0,0,0,0,0,255,0,0,0,0,0,0,0,0,0,0,0,0,0,0,0,0,0,0,0,0,0,0,0,0,0,0,0,0,0,0,0,0,0,0,0,0,0,255,377,0,0,0,0,0,0,0,0,0,0,377,0,.76,THE ALPHA CORP,007037765
2001,90023PCFCN3305E,AIR PRODUCTS & CHEMICALS INC,3305 E 26TH ST,LOS ANGELES,LOS ANGELES,CA,90058,34.013333,-118.212778,2899,,,,,,325199,,,,,,1301150381465,PHENOL,000108952,YES,NON-PBT,NO,0,NO,R,Pounds,50,14,0,0,0,0,0,0,0,0,0,0,64,0,59,59,0,0,0,0,0,0,0,0,0,0,0,0,0,0,0,0,0,0,0,0,0,0,0,0,0,0,0,0,1485,0,0,0,0,1485,64,64,0,0,0,0,0,0,0,0,0,1539,1603,0,.92,AIR PRODUCTS & CHEMICALS INC,003001070
2001,90058GSSRL2618F,GASSER/OLDS CO INC,2618 FRUITLAND AVE,VERNON,LOS ANGELES,CA,90058,33.996329,-118.224743,3369,,,,,,331528,,,,,,1301150522478,COPPER,007440508,NO,NON-PBT,YES,1,NO,R,Pounds,1,9,0,0,0,0,0,0,0,0,0,0,10,0,0,0,0,0,0,0,0,0,0,0,0,0,0,0,0,0,0,0,0,0,0,0,0,0,0,0,0,0,0,0,0,0,0,0,0,0,10,10,0,0,0,0,0,0,74866,0,0,0,74876,0,.85,NA,NA
2001,92083FRRLC1395A,FERRO ELECTRONIC MATERIAL SYSTEMS,1395 ASPEN WAY,VISTA,SAN DIEGO,CA,92081,33.136641,-117.244333,2819,,,,,,325998,,,,,,1301150525754,DI(2-ETHYLHEXYL) PHTHALATE,000117817,YES,NON-PBT,NO,0,YES,R,Pounds,0,0,0,0,0,0,0,0,0,0,0,0,0,0,0,0,0,0,0,0,0,0,0,0,0,0,0,0,0,0,0,0,0,0,0,0,0,0,0,0,596,0,596,0,0,0,0,0,0,0,0,0,0,0,0,0,0,596,0,0,0,0,596,0,0,FERRO CORP,004161477
2001,94565DWCHMFOOTO,DOW CHEMICAL CO,901 LOVERIDGE RD,PITTSBURG,CONTRA COSTA,CA,94565,38.03,-121.851944,2879,2821,2865,2869,,,325199,,,,,,1301150447720,"1,3-BUTADIENE",000106990,YES,NON-PBT,NO,0,YES,R,Pounds,15,1,0,0,0,0,0,0,0,0,0,0,16,0,0,0,0,0,0,0,0,0,0,0,0,0,0,0,0,0,0,0,0,0,0,0,0,0,0,0,7400,0,7400,0,64,0,0,0,0,64,16,16,0,0,0,0,0,7400,0,0,3100,64,10580,0,.86,THE DOW CHEMICAL CO,001381581
2001,90280LNDYT9301S,LUNDAY-THAGARD CO,9301 GARFIELD AVE,SOUTH GATE,LOS ANGELES,CA,902801519,33.946295,-118.16704,2911,,,,,,324110,,,,,,1301150523482,TOLUENE,000108883,YES,NON-PBT,NO,0,NO,R,Pounds,1056,19,0,0,0,0,0,0,0,0,0,0,1075,0,0,0,0,0,0,0,0,0,0,0,0,0,0,0,0,0,0,0,0,0,0,0,0,0,0,0,0,0,0,0,0,0,0,0,0,0,1075,1076,0,0,0,0,0,0,0,0,0,0,1076,0,0,WORLD OIL CORP,072937436
2001,93239CHMCL35251,CHEMICAL WASTE MANAGEMENT INC,35251 OLD SKYLINE RD,KETTLEMAN CITY,KINGS,CA,932390471,35.96864,-120.024597,4953,,,,,,562211,,,,,,1301150488118,POLYCHLORINATED BIPHENYLS,001336363,YES,PBT,NO,0,YES,R,Pounds,0,0,0,0,0,16217,0,0,0,0,0,0,16217,0,0,0,0,0,0,0,0,0,0,0,0,0,0,0,0,0,0,0,0,0,0,0,0,0,0,0,0,0,0,0,20484,24,0,0,0,20508,16217,16217,0,0,0,0,0,0,0,0,0,20508,36725,.0004,.58,WASTE MANAGEMENT INC,047577416
2001,93239CHMCL35251,CHEMICAL WASTE MANAGEMENT INC,35251 OLD SKYLINE RD,KETTLEMAN CITY,KINGS,CA,932390471,35.96864,-120.024597,4953,,,,,,562211,,,,,,1301150488183,HEPTACHLOR,000076448,YES,PBT,NO,0,YES,R,Pounds,0,0,0,0,0,60,0,0,0,0,0,0,60,0,0,0,0,0,0,0,0,0,0,0,0,0,0,0,0,0,0,0,0,0,0,0,0,0,0,0,0,0,0,0,0,0,0,0,0,0,60,60,0,0,0,0,0,0,0,0,0,0,60,0,1.95,WASTE MANAGEMENT INC,047577416
2001,95691QLNNT1509S,EQUILON ENTERPRISES LLC WEST SACRAMENTO TERMINAL,1509 S RIVER RD,WEST SACRAMENTO,YOLO,CA,95691,38.571478,-121.520441,5171,,,,,,424710,,,,,,1301150491417,N-HEXANE,000110543,YES,NON-PBT,NO,0,NO,R,Pounds,250,250,0,0,0,0,0,0,0,0,0,0,500,0,0,0,0,0,0,0,0,0,0,0,0,0,0,0,0,0,0,0,0,0,0,0,0,0,0,0,0,0,0,0,0,0,0,0,0,0,500,530,0,0,0,0,0,0,0,0,0,0,530,0,.92,NA,NA
2001,95133SFTYK1021B,CLEAN HARBORS SAN JOSE LLC,1021 BERRYESSA RD,SAN JOSE,SANTA CLARA,CA,95133,37.36479,-121.88471,4953,,,,,,562000,,,,,,1301150494692,NITRATE COMPOUNDS,N511,NO,NON-PBT,NO,0,NO,R,Pounds,1,1,0,0,0,0,0,0,0,0,0,0,2,0,31623,31623,0,0,0,0,0,0,1990,0,0,0,0,0,0,0,0,0,0,1990,0,0,0,0,0,0,0,0,0,0,332,59,0,1603,0,1994,1992,1992,0,0,0,0,0,0,0,0,0,1994,3986,0,.59,CLEAN HARBORS INC,157793639
2001,94565DWCHMFOOTO,DOW CHEMICAL CO,901 LOVERIDGE RD,PITTSBURG,CONTRA COSTA,CA,94565,38.03,-121.851944,2879,2821,2865,2869,,,325199,,,,,,1301150447858,HEXACHLOROBENZENE,000118741,YES,PBT,NO,0,YES,R,Pounds,.12,.71,0,0,0,0,0,0,0,0,0,0,.83,0,0,0,0,0,0,0,0,0,0,0,0,0,0,0,0,0,0,0,0,0,0,0,0,0,0,0,0,0,0,0,701,0,0,0,0,701,.83,.83,0,0,0,0,0,0,5400,0,1800,700,7900.83,0,.92,THE DOW CHEMICAL CO,001381581
2001,94565DWCHMFOOTO,DOW CHEMICAL CO,901 LOVERIDGE RD,PITTSBURG,CONTRA COSTA,CA,94565,38.03,-121.851944,2879,2821,2865,2869,,,325199,,,,,,1301150447910,STYRENE,000100425,YES,NON-PBT,NO,0,YES,R,Pounds,27,910,0,0,0,0,0,0,0,0,0,0,937,0,0,0,0,0,0,0,0,0,0,0,0,0,0,0,0,0,0,0,0,0,0,0,0,0,0,0,210000,0,210000,0,2200,0,0,0,0,2200,937,940,0,0,0,0,0,210000,0,0,2500,2200,215640,0,.86,THE DOW CHEMICAL CO,001381581
2001,94565DWCHMFOOTO,DOW CHEMICAL CO,901 LOVERIDGE RD,PITTSBURG,CONTRA COSTA,CA,94565,38.03,-121.851944,2879,2821,2865,2869,,,325199,,,,,,1301150447973,ZINC COMPOUNDS,N982,NO,NON-PBT,YES,1,NO,R,Pounds,1,0,0,0,0,0,0,0,0,0,0,0,1,0,0,0,0,0,0,0,0,0,0,0,0,0,0,0,0,0,0,0,0,0,0,0,0,0,0,0,0,0,0,0,0,0,0,0,0,0,1,1,0,0,0,0,0,0,0,0,0,0,1,0,.34,THE DOW CHEMICAL CO,001381581
2001,91750GNYCR1200A,GAINEY CERAMICS INC,1200 ARROW HWY,LA VERNE,LOS ANGELES,CA,91750,34.100895,-117.787822,3269,,,,,,327122,,,,,,1301150480539,LEAD COMPOUNDS,N420,YES,PBT,YES,1,NO,R,Pounds,0,22,0,0,0,0,0,0,0,0,0,0,22,0,0,0,0,0,0,0,0,0,1200,0,0,0,0,0,0,0,0,0,0,1200,0,0,0,0,0,0,0,0,0,0,0,0,0,0,0,0,1222,1200,0,0,0,0,0,0,0,0,0,0,1200,0,0,NA,NA
2001,93239CHMCL35251,CHEMICAL WASTE MANAGEMENT INC,35251 OLD SKYLINE RD,KETTLEMAN CITY,KINGS,CA,932390471,35.96864,-120.024597,4953,,,,,,562211,,,,,,1301150488361,LEAD,007439921,YES,PBT,YES,1,YES,R,Pounds,0,0,0,0,0,5719495,440,0,4,0,0,0,5719939,0,0,0,0,0,0,0,0,0,0,0,0,0,0,0,0,0,114,0,0,114,0,389,0,0,0,389,0,0,0,0,0,0,0,0,0,0,5720053,5719495,0,0,0,0,0,0,0,375,0,55,5719925,1,0,WASTE MANAGEMENT INC,047577416
2001,93239CHMCL35251,CHEMICAL WASTE MANAGEMENT INC,35251 OLD SKYLINE RD,KETTLEMAN CITY,KINGS,CA,932390471,35.96864,-120.024597,4953,,,,,,562000,,,,,,1301150488411,CHROMIUM,007440473,YES,NON-PBT,YES,1,YES,R,Pounds,0,0,0,0,0,550264,1825,0,5,0,0,0,552094,0,0,0,0,0,0,0,0,0,0,0,0,0,0,0,0,0,9,0,0,9,0,0,0,0,0,0,0,0,0,0,0,0,0,0,0,0,552103,552094,0,0,0,0,0,0,0,0,0,9,552103,0,0,WASTE MANAGEMENT INC,047577416
2001,90221MRCNR19067,AMERICAN RACING CUSTOM WHEELS,19067 S REYES AVE,RANCHO DOMINGUEZ,LOS ANGELES,CA,90221,33.856361,-118.210458,3479,3714,,,,,332813,,,,,,1301150498145,LEAD,007439921,YES,PBT,YES,1,YES,R,Pounds,0,0,0,0,0,0,0,0,0,0,0,0,0,0,0,0,0,0,0,0,0,0,0,0,0,0,0,0,0,0,0,0,0,0,0,0,0,0,0,0,0,0,0,0,0,0,0,0,0,0,0,0,0,0,0,0,0,0,0,0,0,0,0,0,0,NA,NA
2001,92113CHVRN2351E,CHEVRON SAN DIEGO TERMINAL,2351 E HARBOR DR,SAN DIEGO,SAN DIEGO,CA,92113,32.693177,-117.140168,5171,,,,,,424710,,,,,,1301150412601,POLYCYCLIC AROMATIC COMPOUNDS,N590,YES,PBT,NO,0,YES,R,Pounds,0,0,0,0,0,0,0,0,0,0,0,0,0,0,0,0,0,0,0,0,0,0,0,0,0,0,0,0,0,0,0,0,0,0,0,0,0,0,0,0,0,0,0,0,0,.9,0,0,0,.9,0,0,0,0,0,0,0,0,0,0,0,.9,.9,0,.3,CHEVRON CORP,001382555
2001,95828CRTLD59008,GRAFIL INC,5900 88TH ST,SACRAMENTO,SACRAMENTO,CA,958281109,38.519395,-121.375828,INVA,,,,,,313210,,,,,,1301150441501,AMMONIA,007664417,NO,NON-PBT,NO,0,NO,R,Pounds,250,27168,0,0,0,0,0,0,0,0,0,0,27418,0,0,0,0,0,0,0,0,0,0,0,0,0,0,0,0,0,0,0,0,0,0,0,0,0,0,0,0,0,0,0,0,0,0,0,0,0,27418,27168,0,0,0,0,0,0,0,0,89734,0,116902,200,.99,MITSUBISHI RAYON CO LTD,NA
2001,90744TXCRF1926C,TESORO CORP WILMINGTON SALES TERMINAL,1930 E PACIFIC COAST HWY,WILMINGTON,LOS ANGELES,CA,90744,33.791416,-118.238698,5171,,,,,,424710,,,,,,1301150448520,BENZENE,000071432,YES,NON-PBT,NO,0,YES,R,Pounds,250,250,0,0,0,0,0,0,0,0,0,0,500,0,0,0,0,0,0,0,0,0,0,0,0,0,0,0,0,0,0,0,0,0,0,0,0,0,0,0,0,0,0,0,0,0,0,0,0,0,500,130,0,0,0,0,0,0,0,0,5000,0,5130,0,1.25,TESORO CORP,008133480
2001,90744TXCRF1926C,TESORO CORP WILMINGTON SALES TERMINAL,1930 E PACIFIC COAST HWY,WILMINGTON,LOS ANGELES,CA,90744,33.791416,-118.238698,5171,,,,,,424710,,,,,,1301150448684,"1,3-BUTADIENE",000106990,YES,NON-PBT,NO,0,YES,R,Pounds,5,5,0,0,0,0,0,0,0,0,0,0,10,0,0,0,0,0,0,0,0,0,0,0,0,0,0,0,0,0,0,0,0,0,0,0,0,0,0,0,0,0,0,0,0,0,0,0,0,0,10,3,0,0,0,0,0,0,0,0,120,0,123,0,1.25,TESORO CORP,008133480
2001,91320SMTCH652MI,SEMTECH CORP.,652 MITCHELL RD.,NEWBURY PARK,VENTURA,CA,91320,34.187601,-118.92572,3674,,,,,,334413,,,,,,1301150484816,NITRATE COMPOUNDS,N511,NO,NON-PBT,NO,0,NO,R,Pounds,0,0,0,0,0,0,0,0,0,0,0,0,0,0,0,0,0,0,0,0,0,0,0,0,0,0,0,0,0,0,0,0,0,0,0,0,0,0,0,0,0,0,0,0,0,0,4000,0,0,4000,0,0,0,0,0,0,0,0,0,0,0,4000,4000,0,.05,SEMTECH CORP,NA
2001,90058SFTYK5756A,CLEAN HARBORS LOS ANGELES LLC,5756 ALBA ST,LOS ANGELES,LOS ANGELES,CA,90058,33.98991,-118.238602,4953,,,,,,562000,,,,,,1301150416321,LEAD COMPOUNDS,N420,YES,PBT,YES,1,NO,R,Pounds,0,0,0,0,0,0,0,0,0,0,0,0,0,0,0,0,0,7653.8,0,0,0,0,5042.5,0,0,0,0,0,0,0,23579.7,0,0,36276,0,22737.2,0,0,0,22737.2,0,0,0,0,0,0,0,0,0,0,36276,36276.6,0,0,0,0,0,0,0,22737.2,0,0,59013.8,0,.62,CLEAN HARBORS ENVIRONMENTAL SERVICES,157793639
2001,94560VRGRN6880S,EVERGREEN OIL INC,6880 SMITH AVE,NEWARK,ALAMEDA,CA,94560,37.521597,-122.021371,2992,,,,,,324191,,,,,,1301150419455,LEAD,007439921,YES,PBT,YES,1,YES,R,Pounds,0,0,0,0,0,0,0,0,0,0,0,0,0,8,0,8,0,0,0,0,0,0,0,0,0,0,0,0,0,0,0,0,2,2,0,0,0,0,0,0,0,0,0,0,0,0,0,0,0,0,10,8,0,0,0,0,0,0,0,0,0,2,10,0,0,EVERGREEN HOLDINGS INC,153949888
2001,90503DWCHM305CR,DOW CHEMICAL CO CRENSHAW FACILITY,305 CRENSHAW BLVD,TORRANCE,LOS ANGELES,CA,90503,33.844741,-118.32892,2821,,,,,,325211,,,,,,1301150419517,DECABROMODIPHENYL OXIDE,001163195,NO,NON-PBT,NO,0,NO,R,Pounds,0,0,0,0,0,0,0,0,0,0,0,0,0,0,0,0,0,0,0,0,0,0,19,0,0,0,0,0,0,0,0,0,0,19,0,0,0,0,0,0,0,0,0,0,0,0,0,0,0,0,19,19,0,0,0,0,0,0,0,0,0,0,19,0,.57,THE DOW CHEMICAL CO,001381581
2001,92707CHRRY1224E,CHERRY AEROSPACE,1224 E WARNER AVE,SANTA ANA,ORANGE,CA,927055414,33.715947,-117.855568,3452,,,,,,332722,,,,,,1301150423010,NICKEL,007440020,YES,NON-PBT,YES,1,YES,R,Pounds,0,0,0,0,0,0,0,0,0,0,0,0,0,0,0,0,0,0,0,0,0,0,5,0,0,0,0,0,0,0,0,0,5,10,0,0,0,0,0,0,0,0,0,0,0,0,0,0,0,0,10,0,0,0,0,0,0,0,0,0,1415,14,1429,0,5.38,PRECISION CASTPARTS CORP,009027970
2001,90744TXCRF1926C,TESORO CORP WILMINGTON SALES TERMINAL,1930 E PACIFIC COAST HWY,WILMINGTON,LOS ANGELES,CA,90744,33.791416,-118.238698,5171,,,,,,424710,,,,,,1301150448746,LEAD COMPOUNDS,N420,YES,PBT,YES,1,NO,R,Pounds,0,0,0,0,0,0,0,0,0,0,0,0,0,0,0,0,0,0,0,0,0,0,0,0,0,0,0,0,0,0,0,1,0,1,0,0,0,0,0,0,0,0,0,0,0,0,0,0,0,0,1,1,0,0,0,0,0,0,0,0,0,0,1,0,0,TESORO CORP,008133480
2001,90806QLNSG2457R,EQUILON ENTERPRISES LLC SIGNAL HILL TERMINAL,2457 REDONDO AVE,LONG BEACH,LOS ANGELES,CA,90806,33.800798,-118.151382,5171,,,,,,424710,,,,,,1301150480945,BENZENE,000071432,YES,NON-PBT,NO,0,YES,R,Pounds,250,250,0,0,0,0,0,0,0,0,0,0,500,0,0,0,0,0,0,0,0,0,0,0,0,0,0,0,0,0,0,0,0,0,0,0,0,0,0,0,0,0,0,0,0,0,250,0,0,250,500,210,0,0,0,0,0,0,0,0,0,29,239,0,1.03,NA,NA
2001,95203TRDLT2829W,LESCO INC. STOCKTON PLANT,2829 W. WASHINGTON,STOCKTON,SAN JOAQUIN,CA,95203,37.944213,-121.335275,2874,2875,,,,,325312,,,,,,1301150500989,PENDIMETHALIN,040487421,NO,PBT,NO,0,NO,R,Pounds,134,0,0,0,0,0,0,0,0,0,0,0,134,0,0,0,0,0,0,0,0,0,0,0,0,0,0,0,0,0,0,129,0,129,0,0,0,0,0,0,0,0,0,0,0,0,0,0,0,0,263,263,0,0,0,0,0,0,2000,0,0,0,2263,0,1,LESCO INC,004453825
2001,90670CLFRN11525,ITW CIP STAMPINGS,11525 S SHOEMAKER AVE,SANTA FE SPRINGS,LOS ANGELES,CA,906704612,33.926952,-118.055236,3465,,,,,,336370,,,,,,1301150413666,ZINC COMPOUNDS,N982,NO,NON-PBT,YES,1,NO,R,Pounds,0,0,5,0,0,0,0,0,0,0,0,0,5,250,0,250,0,0,0,0,0,0,22000,0,0,0,0,0,0,0,0,0,0,22000,0,0,0,0,0,0,0,0,0,0,0,0,0,0,0,0,22255,22200,0,0,0,0,0,0,0,0,0,0,22200,0,.88,ILLINOIS TOOL WORKS,005146428
2001,91702TBNGS601SO,PACIFIC PRECISION METALS AZUSA,601 S VINCENT AVE,AZUSA,LOS ANGELES,CA,91702,34.11167,-117.92529,3479,,,,,,332116,,,,,,1301150511069,MANGANESE,007439965,YES,NON-PBT,YES,1,NO,R,Pounds,0,0,0,0,0,0,0,0,0,0,0,0,0,0,0,0,0,0,0,0,0,0,0,0,0,0,0,0,0,0,0,0,0,0,0,69680,0,0,0,69680,0,0,0,0,0,0,0,0,0,0,0,0,0,0,0,0,0,0,0,69680,0,0,69680,0,1.9,PACIFIC PRECISION METALS,NA
2001,90023RCDNC3225E,ARCADIA INC,3225 E WASHINGTON BLVD,VERNON,LOS ANGELES,CA,90058,34.014682,-118.209672,3479,3471,3442,,,,332812,,,,,,1301150429583,DIMETHYL PHTHALATE,000131113,YES,NON-PBT,NO,0,NO,R,Pounds,250,250,0,0,0,0,0,0,0,0,0,0,500,0,0,0,0,0,0,0,0,0,0,0,0,0,0,0,0,0,0,0,0,0,0,0,0,0,0,0,0,0,0,0,0,0,0,0,0,0,500,483,0,0,0,0,0,0,0,0,0,0,483,0,0,NA,NA
2001,94802CHVRN576ST,CHEVRON RICHMOND TECHNOLOGY CENTER,100 CHEVRON WAY,RICHMOND,CONTRA COSTA,CA,94802,37.929643,-122.386782,8733,,,,,,541710,,,,,,1301150443455,NAPHTHALENE,000091203,YES,NON-PBT,NO,0,NO,R,Pounds,12,0,0,0,0,0,0,0,0,0,0,0,12,0,0,0,0,0,0,0,0,0,0,0,0,0,0,0,0,0,0,0,0,0,0,0,0,0,0,0,0,0,0,0,0,0,0,0,0,0,12,13,0,0,0,0,0,0,0,0,10,0,23,0,.25,CHEVRON CORP,001382555
2001,94802CHVRN576ST,CHEVRON RICHMOND TECHNOLOGY CENTER,100 CHEVRON WAY,RICHMOND,CONTRA COSTA,CA,94802,37.929643,-122.386782,8733,,,,,,541710,,,,,,1301150443517,XYLENE (MIXED ISOMERS),001330207,YES,NON-PBT,NO,0,NO,R,Pounds,66,17,0,0,0,0,0,0,0,0,0,0,83,0,0,0,0,0,0,0,0,0,0,0,0,0,0,0,0,0,0,0,0,0,0,0,0,0,0,0,0,0,0,0,26,0,0,0,0,26,83,83,0,0,0,0,0,0,147,0,525,26,781,0,.78,CHEVRON CORP,001382555
2001,90262DVNDS2605I,TRIUMPH PROCESSING INC,2588 & 2605 INDUSTRY WAY,LYNWOOD,LOS ANGELES,CA,902624007,33.924674,-118.227483,3471,,,,,,332813,,,,,,1301150449965,NITRIC ACID,007697372,NO,NON-PBT,NO,0,NO,R,Pounds,0,0,0,0,0,0,0,0,0,0,0,0,0,0,0,0,0,0,0,0,0,0,0,0,0,0,0,0,0,0,0,0,0,0,0,0,0,0,0,0,0,0,0,0,0,0,36300,0,0,36300,0,0,0,0,0,0,0,0,0,0,0,36300,36300,0,1.5,TRIUMPH AEROSPACE SYSTEM GROUP INC,789947608
2001,94802CHVRN576ST,CHEVRON RICHMOND TECHNOLOGY CENTER,100 CHEVRON WAY,RICHMOND,CONTRA COSTA,CA,94802,37.929643,-122.386782,8733,,,,,,541710,,,,,,1301150443327,BENZENE,000071432,YES,NON-PBT,NO,0,YES,R,Pounds,26,1,0,0,0,0,0,0,0,0,0,0,27,0,0,0,0,0,0,0,0,0,0,0,0,0,0,0,0,0,0,0,0,0,0,0,0,0,0,0,0,0,0,0,0,0,0,0,0,0,27,27,0,0,0,0,0,0,0,0,147,0,174,0,.23,CHEVRON CORP,001382555
2001,94545RHMND25500,ROHM & HAAS CHEMICALS LLC,25500 WHITESELL ST,HAYWARD,ALAMEDA,CA,945453615,37.628889,-122.127222,2821,,,,,,325211,,,,,,1301150476568,ACRYLONITRILE,000107131,YES,NON-PBT,NO,0,YES,R,Pounds,9,30,0,0,0,0,0,0,0,0,0,0,39,0,91,91,0,0,0,0,0,0,0,0,0,0,0,0,0,0,0,0,0,0,0,0,0,0,0,0,0,0,0,0,3,0,0,0,0,3,39,39,0,0,0,0,0,0,0,0,802,94,935,0,.98,THE DOW CHEMICAL CO,002292043
2001,91605RMRCS13030,ARMORCAST PRODUCTS CO,13030 RAYMER ST,NORTH HOLLYWOOD,LOS ANGELES,CA,91605,34.205132,-118.416676,3089,,,,,,326199,,,,,,1301150504847,STYRENE,000100425,YES,NON-PBT,NO,0,YES,R,Pounds,413,0,0,0,0,0,0,0,0,0,0,0,413,0,0,0,0,0,0,0,0,0,0,0,0,0,0,0,0,0,0,0,0,0,0,0,0,0,0,0,0,0,0,0,0,0,0,0,0,0,413,413,0,0,0,0,0,0,0,0,0,0,413,0,0,NA,NA
2001,91766TLDYN4200W,CONSOLIDATED FOUNDRIES POMONA,4200 W VALLEY BLVD,POMONA,LOS ANGELES,CA,91766,34.036133,-117.824778,3365,3369,,,,,331524,,,,,,1301150429468,DIISOCYANATES,N120,YES,NON-PBT,NO,0,NO,R,Pounds,0,0,0,0,0,0,0,0,0,0,0,0,0,0,0,0,0,0,0,0,0,0,0,0,0,0,0,0,0,0,0,0,0,0,0,0,0,0,0,0,0,0,0,0,0,0,0,0,0,0,0,0,0,0,0,0,0,0,0,0,0,0,0,0,.7,CAST PARTS INC,049363229
2001,91341SPCTR12500,SPECTROLAB INC,12500 GLADSTONE AVE,SYLMAR,LOS ANGELES,CA,913425373,34.29738,-118.41357,3674,,,,,,334413,,,,,,1301150476935,N-METHYL-2-PYRROLIDONE,000872504,NO,NON-PBT,NO,0,NO,R,Pounds,0,40,0,0,0,0,0,0,0,0,0,0,40,0,0,0,0,0,0,0,0,0,0,0,0,0,0,0,0,0,0,0,0,0,0,0,0,0,0,0,51137,0,51137,0,0,0,0,0,0,0,40,40,0,0,0,0,0,51137,0,0,2012,0,53189,0,2,THE BOEING CO,963744107
2001,93502CLFRN9350O,CALPORTLAND CO MOJAVE PLANT,9350 OAK CREEK RD,MOJAVE,KERN,CA,93501,35.03837,-118.2977,3241,,,,,,327310,,,,,,1301150468938,DIOXIN AND DIOXIN-LIKE COMPOUNDS,N150,YES,DIOXIN,NO,0,NO,R,Grams,0,.4956,0,0,0,0,0,0,0,0,0,0,.4956,0,0,0,0,0,0,0,0,0,0,0,0,0,0,0,0,0,0,0,0,0,0,0,0,0,0,0,0,0,0,0,0,0,0,0,0,0,.4956,.4956,0,0,0,0,0,0,0,0,0,0,.4956,0,.98,TAIHEIYO CEMENT USA INC,175418052
2001,92316QLNCL2307S,EQUILON ENTERPRISES LLC COLTON TERMINAL,2307 S. RIVERSIDE AVE.,BLOOMINGTON,SAN BERNARDINO,CA,92316,34.060024,-117.37024,5171,,,,,,424710,,,,,,1301150462719,N-HEXANE,000110543,YES,NON-PBT,NO,0,NO,R,Pounds,250,250,0,0,0,0,0,0,0,0,0,0,500,0,0,0,0,0,0,0,0,0,0,0,0,0,0,0,0,0,0,0,0,0,0,0,0,0,0,0,0,0,0,0,0,0,0,0,0,0,500,190,0,0,0,0,0,0,0,0,0,0,190,0,1.49,NA,NA
2001,91745TLDYN16800,PAC FOUNDRIES-INDUSTRY,16800 CHESTNUT ST,CITY OF INDUSTRY,LOS ANGELES,CA,91745,34.007386,-117.937635,3324,,,,,,331512,,,,,,1301150429936,LEAD,007439921,YES,PBT,YES,1,YES,R,Pounds,0,0,0,0,0,0,0,0,0,0,0,0,0,0,0,0,0,0,0,0,0,0,0,0,0,0,0,0,0,0,0,0,0,0,0,1760,0,0,0,1760,0,0,0,0,0,0,0,0,0,0,0,0,0,0,0,0,0,0,0,1760,0,0,1760,0,1.09,CONSOLIDATED PRECISION PRODUCTS,049363229
2001,92316QLNCL2307S,EQUILON ENTERPRISES LLC COLTON TERMINAL,2307 S. RIVERSIDE AVE.,BLOOMINGTON,SAN BERNARDINO,CA,92316,34.060024,-117.37024,5171,,,,,,424710,,,,,,1301150462758,LEAD COMPOUNDS,N420,YES,PBT,YES,1,NO,R,Pounds,0,0,0,0,0,0,0,0,0,0,0,0,0,0,0,0,0,0,0,0,0,0,0,0,0,0,0,0,0,0,0,0,0,0,0,0,0,0,0,0,0,0,0,0,0,0,0,0,0,0,0,0,0,0,0,0,0,0,0,0,0,0,0,0,0,NA,NA
2001,95131QLNSN2165O,EQUILON SAN JOSE TERMINAL,2165 O'TOOLE AVE,SAN JOSE,SANTA CLARA,CA,95131,37.394546,-121.909076,5171,,,,,,424710,,,,,,1301150463444,LEAD COMPOUNDS,N420,YES,PBT,YES,1,NO,R,Pounds,0,0,0,0,0,0,0,0,0,0,0,0,0,0,0,0,0,0,0,0,0,0,0,0,0,0,0,0,0,0,0,0,0,0,0,0,0,0,0,0,0,0,0,0,0,0,0,0,0,0,0,0,0,0,0,0,0,0,0,0,0,0,0,0,0,NA,NA
2001,91745QMTCN720SO,QUEMETCO INC,720 S SEVENTH ST,CITY OF INDUSTRY,LOS ANGELES,CA,91746,34.025,-117.9825,3341,,,,,,331492,,,,,,1301150486189,ARSENIC COMPOUNDS,N020,YES,NON-PBT,YES,1,NO,R,Pounds,0,34,0,0,0,0,0,0,0,0,0,0,34,32,0,32,0,0,0,0,0,0,29900,0,0,0,0,0,0,0,0,0,0,29900,0,0,0,0,0,0,0,0,0,0,0,0,0,0,0,0,29966,30000,0,0,0,0,0,0,0,0,0,0,30000,0,1.11,RSR CORP,058678517
2001,92324CLFRN695SO,CALPORTLAND CO COLTON PLANT,695 S RANCHO AVE,COLTON,SAN BERNARDINO,CA,92324,34.057449,-117.334478,3241,,,,,,327310,,,,,,1301150466732,LEAD COMPOUNDS,N420,YES,PBT,YES,1,NO,R,Pounds,9,9.2,0,0,0,0,1476,0,0,0,0,0,1494.2,0,0,0,0,0,0,0,0,0,0,0,0,0,0,0,0,0,0,0,0,0,0,0,0,0,0,0,0,0,0,0,0,0,0,0,0,0,1494.2,1494.2,0,0,0,0,0,0,0,0,0,0,1494.2,0,.79,TAIHEIYO CEMENT USA INC,690535786
2001,90744TXCRF1926E,PENNZOIL-QUAKER STATE CO (DBA SOPUS PRODUCTS LALP),1926 E PACIFIC COAST HWY,WILMINGTON,LOS ANGELES,CA,90744,33.791416,-118.238698,2911,2992,,,,,324191,,,,,,1301150466922,ZINC COMPOUNDS,N982,NO,NON-PBT,YES,1,NO,R,Pounds,0,0,0,0,0,0,0,0,0,0,0,0,0,0,0,0,0,0,0,0,0,0,250,0,0,0,0,0,0,0,0,0,0,250,0,0,0,0,0,0,0,0,0,0,0,0,0,0,0,0,250,33,0,0,0,0,0,0,0,0,0,0,33,0,1.04,PENNZOIL-QUAKER STATE CO,NA
2001,94080QLNSN135NA,EQUILON ENTERPRISES LLC SAN FRANCISCO TERMINAL,135 N. ACCESS RD.,SOUTH SAN FRANCISCO,SAN MATEO,CA,94080,37.63918,-122.398611,5171,,,,,,424710,,,,,,1301150460549,XYLENE (MIXED ISOMERS),001330207,YES,NON-PBT,NO,0,NO,R,Pounds,250,250,0,0,0,0,0,0,0,0,0,0,500,0,0,0,0,0,0,0,0,0,0,0,0,0,0,0,0,0,0,5,0,5,0,0,0,0,0,0,0,0,0,0,0,0,250,0,0,250,505,180,0,0,0,0,0,0,0,0,0,39,219,0,.81,NA,NA
2001,90744TXCRF1926E,PENNZOIL-QUAKER STATE CO (DBA SOPUS PRODUCTS LALP),1926 E PACIFIC COAST HWY,WILMINGTON,LOS ANGELES,CA,90744,33.791416,-118.238698,2911,2992,,,,,324110,,,,,,1301150466997,BENZENE,000071432,YES,NON-PBT,NO,0,YES,R,Pounds,0,0,0,0,0,0,0,0,0,0,0,0,0,0,0,0,0,0,0,0,0,0,0,0,0,0,0,0,0,0,0,0,0,0,0,0,0,0,0,0,0,0,0,0,0,0,0,0,0,0,0,0,0,0,0,0,0,0,0,0,0,0,0,0,1.04,PENNZOIL-QUAKER STATE CO,NA
2001,90710NLYTC24201,VARIAN SAMPLE PREPARATION PRODUCTS,24201 FRAMPTON AVE,HARBOR CITY,LOS ANGELES,CA,907102105,33.804917,-118.299222,2899,,,,,,325998,,,,,,1301150467052,METHANOL,000067561,YES,NON-PBT,NO,0,NO,R,Pounds,900,7600,0,0,0,0,0,0,0,0,0,0,8500,0,0,0,0,0,0,0,0,0,0,0,0,0,0,0,0,0,0,0,0,0,0,0,0,0,0,0,44360,0,44360,0,0,0,0,0,0,0,8500,8500,0,0,0,0,0,44360,0,0,0,0,52860,0,1.1,VARIAN INC,062505461
2001,93728PCFCC1616W,PACIFIC COAST ANODIZING INC.,1616 W. PINE AVE.,FRESNO,FRESNO,CA,93728,36.761966,-119.829531,3471,,,,,,332813,,,,,,1301150492787,NITRIC ACID,007697372,NO,NON-PBT,NO,0,NO,R,Pounds,5,0,0,0,0,0,0,0,0,0,0,0,5,0,0,0,0,0,0,0,0,0,0,0,0,0,0,0,0,0,0,0,0,0,0,0,3020,0,0,3020,0,0,0,0,0,0,0,0,0,0,5,1,0,0,0,0,0,0,0,3020,12189,0,15210,0,1,NA,NA
2001,95208STCKT3003E,STOCKTON STEEL,3003 E HAMMER LN,STOCKTON,SAN JOAQUIN,CA,952122801,38.02113,-121.278321,3443,,,,,,332312,,,,,,1301150492953,NICKEL,007440020,YES,NON-PBT,YES,1,YES,R,Pounds,16,0,0,0,0,0,0,0,0,0,0,0,16,0,0,0,0,0,0,0,0,0,0,0,0,0,0,0,0,0,0,0,0,0,0,5016,0,0,0,5016,0,0,0,0,0,0,0,0,0,0,16,16,0,0,0,0,0,0,0,5016,0,0,5032,0,1.06,THE HERRICK CORP,009137126
2001,92427SNBRN5454N,SAN BERNARDINO STEEL,5454 N INDUSTRIAL PKWY,SAN BERNARDINO,SAN BERNARDINO,CA,924071859,34.178741,-117.348046,3441,,,,,,332312,,,,,,1301150493017,NICKEL,007440020,YES,NON-PBT,YES,1,YES,R,Pounds,18,0,0,0,0,0,0,0,0,0,0,0,18,0,0,0,0,0,0,0,0,0,0,0,0,0,0,0,0,0,0,0,0,0,0,6290,0,0,0,6290,0,0,0,0,0,0,0,0,0,0,18,18,0,0,0,0,0,0,0,6290,0,0,6308,0,1.08,THE HERRICK CORP,009137126
2001,90280RMSTR5037P,ARMSTRONG WORLD INDUSTRIES INC,5037 PATATA ST,SOUTH GATE,LOS ANGELES,CA,902803555,33.954961,-118.178359,3996,,,,,,326192,,,,,,1301150529687,LEAD,007439921,YES,PBT,YES,1,YES,R,Pounds,0,9,0,0,0,0,0,0,0,0,0,0,9,0,0,0,0,0,0,0,0,0,12,0,0,0,0,0,0,0,0,0,0,12,0,0,22,0,0,22,0,0,0,0,0,0,0,0,0,0,21,21,0,0,0,0,0,0,532,22,0,0,575,0,.96,ARMSTRONG WORLD INDUSTRIES INC,001307792
2001,92281SFTYK5295S,CLEAN HARBORS WESTMORLAND L.L.C.,5295 GARVET RD.,WESTMORLAND,IMPERIAL,CA,92281,33.024645,-115.693247,4953,,,,,,562000,,,,,,1301150428579,NICKEL,007440020,YES,NON-PBT,YES,1,YES,R,Pounds,9,1,0,0,0,38493,0,0,0,0,0,0,38503,0,0,0,0,0,3,0,0,0,6,0,0,0,0,0,0,0,0,0,0,9,0,0,0,0,0,0,0,0,0,0,0,0,0,0,0,0,38512,38512,0,0,0,0,0,0,0,0,0,0,38512,0,.5,CLEAN HARBORS LLC,051060408
2001,92668WSTMR750NO,WEST AMERICAN RUBBER CO. L.L.C.,750 N. MAIN ST.,ORANGE,ORANGE,CA,92868,33.7992,-117.86656,3069,,,,,,326299,,,,,,1301150464030,TOLUENE,000108883,YES,NON-PBT,NO,0,NO,R,Pounds,14600,0,0,0,0,0,0,0,0,0,0,0,14600,0,0,0,0,0,0,0,0,0,0,0,0,0,0,0,0,0,0,0,0,0,0,0,0,0,0,0,0,0,0,0,0,0,0,0,0,0,14600,14600,0,0,0,0,0,0,0,0,0,0,14600,0,0,NA,NA
2001,90723CRLTN7743E,CARLTON FORGE WORKS,7743 E ADAMS ST,PARAMOUNT,LOS ANGELES,CA,90723,33.894791,-118.164826,3462,3463,,,,,332112,,,,,,1301150467280,COPPER,007440508,NO,NON-PBT,YES,1,NO,R,Pounds,0,0,5,0,0,0,0,0,0,0,0,5,10,0,0,0,0,0,0,0,0,0,0,0,0,0,0,0,0,0,0,0,0,0,0,10288,0,0,0,10288,0,0,0,0,0,0,0,0,0,0,10,7,0,0,0,0,0,0,0,10288,0,0,10295,0,1.02,PRECISION CASTPARTS CORP,009027970
2001,94086XDXCR305SO,SKC AMERICA INC.,307 N. PASTORIA AVE.,SUNNYVALE,SANTA CLARA,CA,940854109,37.385657,-122.035644,3081,,,,,,326113,,,,,,1301150515373,"N,N-DIMETHYLFORMAMIDE",000068122,YES,NON-PBT,NO,0,YES,R,Pounds,497,2,0,0,0,0,0,0,0,0,0,0,499,0,0,0,0,0,0,0,0,0,0,0,0,0,0,0,0,0,0,0,0,0,17237,0,0,0,0,17237,0,0,0,0,246,0,0,0,0,246,499,585,0,0,0,0,237,0,0,17174,0,246,18242,0,1.07,SKC AMERICA INC,067868976
2001,92121MLTPL3550G,MULTIPLE PEPTIDE SYSTEMS,3550 GENERAL ATOMICS CT,SAN DIEGO,SAN DIEGO,CA,92121,32.89413,-117.237702,2836,,,,,,325414,,,,,,1301150647220,"N,N-DIMETHYLFORMAMIDE",000068122,YES,NON-PBT,NO,0,YES,R,Pounds,80,80,0,0,0,0,0,0,0,0,0,0,160,0,0,0,0,0,0,0,0,0,0,0,0,0,0,0,0,0,0,0,0,0,0,0,0,0,0,0,9180,0,9180,0,0,6940,0,0,0,6940,160,160,0,0,0,0,0,9180,0,0,0,6940,16280,0,1.4,NA,NA
2001,94804TSCRC1300C,CONOCOPHILLIPS RICHMOND TERMINAL,1300 CANAL BLVD,RICHMOND,CONTRA COSTA,CA,94804,37.912961,-122.368559,5171,,,,,,424710,,,,,,1301150534927,POLYCYCLIC AROMATIC COMPOUNDS,N590,YES,PBT,NO,0,YES,R,Pounds,0,0,0,0,0,0,0,0,0,0,0,0,0,0,0,0,0,0,0,0,0,0,0,0,0,0,0,0,0,0,0,0,0,0,0,0,0,0,0,0,0,0,0,0,0,0,0,0,0,0,0,0,0,0,0,0,0,0,0,0,0,0,0,0,.68,CONOCOPHILLIPS,118819478
2001,96094JHBXTEXTEN,PACIFIC STATES TREATING,422 MILL ST,WEED,SISKIYOU,CA,96094,41.4364,-122.3707,2491,,,,,,321114,,,,,,1301150630717,AMMONIA,007664417,NO,NON-PBT,NO,0,NO,R,Pounds,187041,791,0,0,0,0,0,0,0,0,0,0,187832,0,0,0,0,0,0,0,0,0,0,0,0,0,0,0,0,0,0,0,0,0,0,0,0,0,0,0,0,0,0,79,0,0,0,0,0,79,187832,187832,0,0,0,0,0,0,0,0,0,210,188042,0,1.17,NA,NA
2001,90262CRGLL2801L,MOMENTIVE SPECIALTY CHEMICALS INC,2801 LYNWOOD RD,LYNWOOD,LOS ANGELES,CA,90262,33.926111,-118.222833,2821,,,,,,325211,,,,,,1301150599076,ETHYLENE GLYCOL,000107211,YES,NON-PBT,NO,0,NO,R,Pounds,5,5,0,0,0,0,0,0,0,0,0,0,10,0,0,0,0,0,0,0,0,0,12,0,0,0,0,0,0,0,0,0,0,12,0,0,0,0,0,0,625,0,625,0,0,0,3572,0,0,3572,22,3585,0,0,0,0,1,625,0,0,0,3572,7783,0,.94,MOMENTIVE SPECIALTY CHEMICALS INC,001338797
2001,90262CRGLL2801L,MOMENTIVE SPECIALTY CHEMICALS INC,2801 LYNWOOD RD,LYNWOOD,LOS ANGELES,CA,90262,33.926111,-118.222833,2821,,,,,,325211,,,,,,1301150599114,TOLUENE,000108883,YES,NON-PBT,NO,0,NO,R,Pounds,250,250,0,0,0,0,0,0,0,0,0,0,500,0,0,0,0,0,0,0,0,0,1220,0,0,0,0,0,0,0,0,0,0,1220,0,0,0,0,0,0,250,0,250,0,0,0,250,0,0,250,1720,1470,0,0,0,0,54,21,0,0,0,117,1662,0,.94,MOMENTIVE SPECIALTY CHEMICALS INC,001338797
2001,90501NTDST401VA,US GYPSUM CO,401 VAN NESS AVE,TORRANCE,LOS ANGELES,CA,90501,33.845071,-118.318741,3275,,,,,,327420,,,,,,1301150606693,VINYL ACETATE,000108054,YES,NON-PBT,NO,0,YES,R,Pounds,0,0,0,0,0,0,0,0,0,0,0,0,0,0,0,0,0,0,0,0,0,0,0,0,0,0,0,0,0,0,0,0,0,0,0,0,0,0,0,0,0,0,0,0,0,0,0,0,0,0,0,0,0,0,0,0,0,0,0,0,0,0,0,0,0,US GYPSUM CO,121286777
2001,93308WTCCRCORNE,TRICOR REFINING LLC,1134 MANOR ST,BAKERSFIELD,KERN,CA,93308,35.417476,-119.012713,2911,,,,,,324110,,,,,,1301150566279,LEAD COMPOUNDS,N420,YES,PBT,YES,1,NO,R,Pounds,0,3.14,0,0,0,0,0,0,0,0,0,0,3.14,.213,0,.213,0,0,0,0,0,0,0,0,0,0,0,0,0,0,0,0,0,0,0,0,0,0,0,0,0,0,0,0,0,0,0,0,0,0,3.353,3.353,0,0,0,0,0,0,0,0,0,0,3.353,0,.3,SAN JOAQUIN REFINING CO INC & ERGON INC,050997220
2001,90748RCCQC1175C,BP WILMINGTON CALCINER,1175 CARRACK AVE,WILMINGTON,LOS ANGELES,CA,90748,33.77726,-118.22671,2999,,,,,,324199,,,,,,1301150639983,MERCURY COMPOUNDS,N458,YES,PBT,YES,1,NO,R,Pounds,0,0,0,0,0,0,0,0,0,0,0,0,0,0,0,0,0,0,0,0,0,0,0,0,0,0,0,0,0,0,0,0,0,0,0,0,0,0,0,0,0,0,0,0,0,0,0,0,0,0,0,0,0,0,0,0,0,0,0,0,0,0,0,0,.88,BP PRODUCTS NA INC,039596507
2001,93706DNSHC755FS,CALIFORNIA DAIRIES INC FRESNO,755  F  ST,FRESNO,FRESNO,CA,93706,36.728044,-119.792264,2021,2023,,,,,311514,,,,,,1301150643740,NITRATE COMPOUNDS,N511,NO,NON-PBT,NO,0,NO,R,Pounds,0,0,0,0,0,0,0,0,0,0,0,0,0,0,96046,96046,0,0,0,0,0,0,0,0,0,0,0,0,0,0,0,0,0,0,0,0,0,0,0,0,0,0,0,0,0,0,0,0,0,0,0,0,0,0,0,0,0,0,0,0,0,96046,96046,0,.96,CALIFORNIA DAIRIES INC,009868035
2001,94560MTHSN6775C,MATHESON TRI-GAS INC - NEWARK BRANCH,6775 CENTRAL AVE,NEWARK,ALAMEDA,CA,94560,37.526667,-122.028611,2813,,,,,,325120,,,,,,1301150579288,CHLORINE,007782505,YES,NON-PBT,NO,0,NO,R,Pounds,0,10,0,0,0,0,0,0,0,0,0,0,10,0,0,0,0,0,0,0,0,0,0,0,0,0,0,0,0,0,0,0,0,0,0,0,0,0,0,0,0,0,0,0,0,0,0,0,0,0,10,10,0,0,0,0,0,0,0,0,25000,0,25010,0,1.1,TAIYO NIPPON SANSO USA INC,179092028
2001,93612TMFNC807LI,ANO-TECH METAL FINISHING INC,807 LINCOLN AVENUE,CLOVIS,FRESNO,CA,93612,36.81669,-119.698649,3471,,,,,,332813,,,,,,1301150587804,LEAD,007439921,YES,PBT,YES,1,YES,R,Pounds,0,0,0,0,0,0,0,0,0,0,0,0,0,1,0,1,0,0,1,0,0,0,0,0,0,0,0,0,0,0,0,0,0,1,0,136,0,0,0,136,0,0,0,0,0,0,0,0,0,0,2,4,0,0,0,0,0,0,0,136,0,0,140,0,1,NA,NA
2001,91406CTNCM16214,ACTION COMPUTER PRODUCT SALES,16214 LINDBERGH ST,VAN NUYS,LOS ANGELES,CA,91406,34.214153,-118.486617,3672,,,,,,334412,,,,,,1301150619740,LEAD,007439921,YES,PBT,YES,1,YES,R,Pounds,0,0,.92,0,0,0,0,0,0,0,0,0,.92,.92,0,.92,0,0,0,0,0,0,0,0,0,0,0,0,0,0,0,0,0,0,0,176.7,0,0,0,176.7,0,0,0,0,0,0,0,0,0,0,1.84,1,0,0,0,0,0,0,0,176.7,0,0,177.7,176.7,1,NA,NA
2001,95654GRGPCPOBOX,SIERRAPINE AMPINE DIV,11300 RIDGE RD,MARTELL,AMADOR,CA,95654,38.375,-120.80833,2493,,,,,,321219,,,,,,1301150610463,METHANOL,000067561,YES,NON-PBT,NO,0,NO,R,Pounds,0,85566,0,0,0,0,0,0,0,0,0,0,85566,0,0,0,0,0,0,0,0,0,0,0,0,0,0,0,0,0,0,0,0,0,0,0,0,0,0,0,0,0,0,0,0,0,0,0,0,0,85566,85566,0,0,0,0,0,0,0,0,0,0,85566,0,76.8,SIERRAPINE,784376493
2001,92618WSTRN5STER,WESTERN TELEMATIC INC.,5 STERLING 6 MASON,IRVINE,ORANGE,CA,92618,33.648306,-117.722472,3577,,,,,,334119,,,,,,1301150614358,LEAD COMPOUNDS,N420,YES,PBT,YES,1,NO,R,Pounds,0,0,0,0,0,0,0,0,0,0,0,0,0,0,0,0,0,0,0,0,0,0,0,0,0,0,0,0,0,0,0,0,0,0,0,131,0,0,0,131,0,0,0,0,0,0,0,0,0,0,0,0,0,0,0,0,0,0,0,131,0,0,131,0,.33,NA,NA
2001,90061TSCLS13500,CONOCOPHILLIPS LOS ANGELES TERMINAL,13500 S BROADWAY,LOS ANGELES,LOS ANGELES,CA,90061,33.90916,-118.27841,5171,,,,,,424710,,,,,,1301150535060,"1,2,4-TRIMETHYLBENZENE",000095636,NO,NON-PBT,NO,0,NO,R,Pounds,29,93,0,0,0,0,0,0,0,0,0,0,122,0,2,2,0,0,0,0,0,0,0,0,0,0,0,0,0,0,0,0,0,0,0,0,200,0,7,207,0,0,0,0,0,0,0,0,0,0,122,122,0,0,0,0,0,0,0,207,0,2,331,0,.92,CONOCOPHILLIPS,118819478
2001,95903SDDSFENDOF,US DOD USAF BEALE AFB RANGE,9 CES/CEAN 6601 B ST,BEALE AFB,YUBA,CA,95903,39.103829,-121.3797,9711,,,,,,928110,,,,,,1301150547937,LEAD,007439921,YES,PBT,YES,1,YES,R,Pounds,0,0,0,0,0,0,0,0,0,0,0,1809.3,1809.3,0,0,0,0,0,0,0,0,0,0,0,0,0,0,0,0,0,0,0,0,0,0,0,0,0,0,0,0,0,0,0,0,0,0,0,0,0,1809.3,1809.3,0,0,0,0,0,0,0,0,0,0,1809.3,0,0,US DEPARTMENT OF DEFENSE,NA
