Year,TRI Facility ID,Facility Name,Street Address,City,County,ST,ZIP,Latitude,Longitude,Primary SIC,SIC 2,SIC 3,SIC 4,SIC 5,SIC 6,Primary NAICS,NAICS 2,NAICS 3,NAICS 4,NAICS 5,NAICS 6,Doc_Ctrl_Num,Chemical,CAS #/Compound ID,Clean Air Act Chemical,Classification,Metal,Metal Category,Carcinogen,Form Type,Unit of Measure,5.1 Fugitive Air,5.2 Stack Air,5.3 Water,5.4.1 Underground Class I,5.4.2 Underground Class II-V,5.5.1A RCRA C Landfills,5.5.1B Other Landfills,5.5.2 Land Treatment,5.5.3 Surface Impoundment,5.5.3A RCRA C Surface Impoundment,5.5.3B Other Surface Impoundment,5.5.4 Other Disposal,On-site Release Total,6.1 POTW - Metals and Metal Compounds,6.1 POTW - Non-Metals,6.1 POTW - Total Transfers,6.2 M10,6.2 M41,6.2 M62,6.2 M71,6.2 M81,6.2 M82,6.2 M72,6.2 M63,6.2 M66,6.2 M67,6.2 M64,6.2 M65,6.2 M73,6.2 M79,6.2 M90,6.2 M94,6.2 M99,Off-Site Release Total,6.2 M20,6.2 M24,6.2 M26,6.2 M28,6.2 M93,Off-Site Recycled Total,6.2 M56,6.2 M92,Off-Site Recovery Total,6.2 M40,6.2 M50,6.2 M54,6.2 M61,6.2 M69,6.2 M95,Off-Site Treated Total,Total Releases,8.1 Releases,8.1a On-site Contained Releases,8.1b On-site Other Releases,8.1c Off-site Contained Releases,8.1d Off-site Other Releases,8.2 Energy Recovery On-site,8.3 Energy Recovery Off-site,8.4 Recycling On-Site,8.5 Recycling Off-Site,8.6 Treatment On-site,8.7 Treatement Off-site,Production Waste (8.1 thru 8.7),8.8 One-time Release,8.9 Production Ratio,Parent Company Name,Parent Company DB Number,3/3/2012 v10
1997,07735FFFRG800RO,INTERNATIONAL FLAVORS & FRAGRANCES INC.,800 ROSE LN.,UNION BEACH,MONMOUTH,NJ,07735,40.44335,-74.15551,2869,,,,,,325620,,,,,,1397110401155,"N,N-DIMETHYLFORMAMIDE",000068122,YES,NON-PBT,NO,0,YES,R,Pounds,125,0,0,0,0,0,0,0,0,0,0,0,125,0,3448,3448,0,0,0,0,0,0,0,0,0,0,0,0,0,0,0,0,0,0,0,0,0,0,0,0,0,0,0,0,0,0,0,0,0,0,125,125,0,0,0,0,0,0,0,0,65507,3448,69080,0,.54,INTERNATIONAL FLAVORS & FRAGRANCES INC,001534833
1997,07735FFFRG800RO,INTERNATIONAL FLAVORS & FRAGRANCES INC.,800 ROSE LN.,UNION BEACH,MONMOUTH,NJ,07735,40.44335,-74.15551,2869,,,,,,325620,,,,,,1397110401229,PHOSPHORIC ACID,007664382,NO,NON-PBT,NO,0,NO,R,Pounds,0,0,0,0,0,0,0,0,0,0,0,0,0,0,0,0,0,0,0,0,0,0,0,0,0,0,0,0,0,0,0,0,0,0,0,0,0,0,0,0,0,0,0,0,0,0,0,0,0,0,0,0,0,0,0,0,0,0,0,0,89292,0,89292,0,.39,INTERNATIONAL FLAVORS & FRAGRANCES INC,001534833
1997,08807BRDDC123CH,BRADDOCK HEAT TREATING INC,123 CHIMNEY ROCK RD,BRIDGEWATER,SOMERSET,NJ,08807,40.56634,-74.563377,3398,,,,,,332811,,,,,,1397110055112,METHANOL,000067561,YES,NON-PBT,NO,0,NO,R,Pounds,0,0,0,0,0,0,0,0,0,0,0,0,0,0,0,0,0,0,0,0,0,0,0,0,0,0,0,0,0,0,0,0,0,0,0,0,0,0,0,0,0,0,0,0,0,0,0,0,0,0,0,0,0,0,0,0,0,0,0,0,0,0,0,0,.1,NA,NA
1997,07015GVDNC125DE,GIVAUDAN-ROURE CORP.,125 DELAWANNA AVE.,CLIFTON,PASSAIC,NJ,07015,40.830045,-74.127846,2869,2844,,,,,325411,,,,,,1397110096171,PHTHALIC ANHYDRIDE,000085449,YES,NON-PBT,NO,0,NO,R,Pounds,0,0,0,0,0,0,0,0,0,0,0,0,0,0,0,0,0,0,0,0,0,0,0,0,0,0,0,0,0,0,0,0,0,0,0,0,0,0,0,0,0,0,0,0,0,0,0,0,0,0,0,0,0,0,0,0,0,0,0,0,0,0,0,0,.65,ROCHE HOLDINGS INC,NA
1997,08093CSTLGRTES1,SUNOCO INC,RT 130 & I-295 S,WESTVILLE,GLOUCESTER,NJ,08093,39.876528,-75.157222,2911,,,,,,324110,,,,,,1397110190446,DIETHANOLAMINE,000111422,YES,NON-PBT,NO,0,NO,R,Pounds,13,312,0,0,0,0,0,0,0,0,0,0,325,0,0,0,0,0,0,0,0,0,0,0,0,0,0,0,0,0,0,0,0,0,0,0,0,0,0,0,0,0,0,0,0,0,0,0,0,0,325,325,0,0,0,0,0,0,0,0,235295,0,235620,0,1.07,SUNOCO INC,057152217
1997,08093CSTLGRTES1,SUNOCO INC,RT 130 & I-295 S,WESTVILLE,GLOUCESTER,NJ,08093,39.876528,-75.157222,2911,,,,,,324110,,,,,,1397110190574,"1,1,1-TRICHLOROETHANE",000071556,YES,NON-PBT,NO,0,NO,R,Pounds,0,0,0,0,0,0,0,0,0,0,0,0,0,0,0,0,0,0,0,0,0,0,0,0,0,0,0,0,0,0,0,0,0,0,0,0,0,0,0,0,0,0,0,0,580,0,0,0,0,580,0,580,0,0,0,0,0,0,0,0,0,580,1160,0,1,SUNOCO INC,057152217
1997,08902PRMCLUSROU,PERMACEL,US RT 1,NORTH BRUNSWICK,MIDDLESEX,NJ,08902,40.467922,-74.440209,2672,,,,,,322222,,,,,,1397110284268,N-BUTYL ALCOHOL,000071363,NO,NON-PBT,NO,0,NO,R,Pounds,27,245,0,0,0,0,0,0,0,0,0,0,272,0,0,0,0,0,0,0,0,0,0,0,0,0,0,0,0,0,0,0,0,0,0,0,0,0,0,0,741,0,741,0,38,0,0,0,0,38,272,272,0,0,0,0,1521,741,0,0,11739,38,14311,0,1,NITTO AMERICAS,NA
1997,08240LNXCHTILTO,LENOX INC (DBA GORHAM),TILTON RD,POMONA,ATLANTIC,NJ,08240,39.488333,-74.601389,3262,,,,,,332000,,,,,,1397110284371,ZINC COMPOUNDS,N982,NO,NON-PBT,YES,1,NO,R,Pounds,5,190,0,0,0,0,0,0,0,0,0,0,195,0,0,0,0,0,0,0,0,0,3600,0,0,0,0,0,0,0,0,0,0,4450,0,0,2840,0,0,2840,0,0,0,850,0,0,0,0,0,0,4645,3800,0,0,0,0,0,0,0,2700,0,850,7350,130000,.93,LENOX GROUP INC,798781837
1997,07105DCCHM49RUT,DELTECH RESIN CO,49 RUTHERFORD ST,NEWARK,ESSEX,NJ,07105,40.712446,-74.139073,2821,,,,,,325211,,,,,,1397110291580,TOLUENE,000108883,YES,NON-PBT,NO,0,NO,R,Pounds,602,810,0,0,0,0,0,0,0,0,0,0,1412,0,0,0,0,0,0,0,0,0,0,0,0,0,0,0,0,0,0,0,0,0,0,0,0,0,0,0,17662,0,17662,0,0,0,5,0,0,5,1412,1412,0,0,0,0,0,17662,0,0,0,5,19079,0,.58,NEWCHEM INC,176819753
1997,08873RLNCN100BE,AKZO NOBEL COATINGS INC,100 BELMONT DR,SOMERSET,SOMERSET,NJ,08873,40.54434,-74.53661,2851,,,,,,325510,,,,,,1397110221645,NAPHTHALENE,000091203,YES,NON-PBT,NO,0,NO,R,Pounds,1250,3,0,0,0,0,0,0,0,0,0,0,1253,0,0,0,0,0,0,0,0,0,0,0,0,0,0,0,0,0,0,0,0,0,0,0,0,0,0,0,1100,0,1100,0,0,0,0,0,0,0,1253,1253,0,0,0,0,0,1100,0,0,0,0,2353,0,.86,AKZO NOBEL INC,062999347
1997,07932TMTCS50HAN,AUTOMATIC SWITCH CO,50 HANOVER RD,FLORHAM PARK,MORRIS,NJ,07932,40.792993,-74.378303,3613,3491,,,,,335313,,,,,,1397110237854,COPPER,007440508,NO,NON-PBT,YES,1,NO,R,Pounds,2,0,0,0,0,0,0,0,0,0,0,0,2,0,0,0,0,0,0,0,0,0,0,0,0,0,0,0,0,0,0,0,0,0,0,15020,0,0,38,15058,4,0,4,0,0,0,0,0,0,0,2,64,0,0,0,0,0,4,0,15000,0,0,15068,0,1.03,EMERSON ELECTRIC CO,006269633
1997,07036XXN  1400P,CONOCOPHILLIPS CO - BAYWAY REFINERY,1400 PARK AVE,LINDEN,UNION,NJ,07036,40.640135,-74.21888,2911,,,,,,324110,,,,,,1397110246143,METHANOL,000067561,YES,NON-PBT,NO,0,NO,R,Pounds,670,630,0,0,0,0,0,0,0,0,0,0,1300,0,0,0,0,0,0,0,0,0,0,0,0,0,0,0,0,0,0,0,0,0,0,0,0,0,0,0,0,0,0,0,0,0,0,0,0,0,1300,1300,0,0,0,0,0,0,0,0,0,0,1300,0,.9,CONOCOPHILLIPS,118819478
1997,07065MRCKC126EL,MERCH SHARP & DOHME CORP,126 E LINCOLN AVE,RAHWAY,UNION,NJ,070652000,40.609333,-74.258806,2833,2879,,,,,325411,,,,,,1397110325279,COBALT,007440484,YES,NON-PBT,YES,1,YES,R,Pounds,0,600,0,0,0,0,0,0,0,0,0,0,600,0,0,0,0,0,0,0,0,0,0,0,0,0,0,0,0,0,0,0,0,0,0,0,0,0,0,0,0,0,0,0,0,0,0,0,0,0,600,600,0,0,0,0,0,0,0,0,0,0,600,0,,MERCK & CO INC,054554290
1997,07463BCRFT12IND,TEVA PHARMACEUTICALS USA INC.,12 INDUSTRIAL PARK,WALDWICK,BERGEN,NJ,07463,41.02063,-74.126569,2834,,,,,,325412,,,,,,1397110078704,DICHLOROMETHANE,000075092,YES,NON-PBT,NO,0,YES,R,Pounds,2000,362800,0,0,0,0,0,0,0,0,0,0,364800,0,0,0,0,0,0,0,0,0,0,0,0,0,0,0,0,0,0,0,0,0,254392,0,0,0,0,254392,0,0,0,0,0,0,0,0,0,0,364800,364800,0,0,0,0,0,0,1216083,0,0,0,1580883,0,.65,TEVA PHARMACEUTICALS INDUSTRY LTD,NA
1997,08863PMCSPINDUS,PMC SPECIALTIES INC.,20 INDUSTRIAL AVE.,FORDS,MIDDLESEX,NJ,08863,40.519779,-74.314048,2869,,,,,,325998,,,,,,1397110084631,PHENOL,000108952,YES,NON-PBT,NO,0,NO,R,Pounds,250,250,0,0,0,0,0,0,0,0,0,0,500,0,750,750,0,0,0,0,0,0,0,0,0,0,0,0,0,0,0,0,0,0,0,0,0,0,0,0,0,0,0,0,0,0,0,0,0,0,500,750,0,0,0,0,0,0,0,0,0,0,750,0,1,PMC INC,076191519
1997,07036XXN  1400P,CONOCOPHILLIPS CO - BAYWAY REFINERY,1400 PARK AVE,LINDEN,UNION,NJ,07036,40.640135,-74.21888,2911,,,,,,324110,,,,,,1397110246218,"1,2,4-TRIMETHYLBENZENE",000095636,NO,NON-PBT,NO,0,NO,R,Pounds,7900,310,1,0,0,0,0,0,0,0,0,0,8211,0,0,0,0,0,0,0,0,0,0,0,0,0,0,0,0,0,0,0,0,0,0,0,0,0,0,0,0,0,0,0,0,0,0,0,0,0,8211,8200,0,0,0,0,0,0,1900,0,3100,0,13200,3,.9,CONOCOPHILLIPS,118819478
1997,07036DCKRS1512W,LUBRIZOL CO,1512 W ELIZABETH AVE,LINDEN,UNION,NJ,07036,40.619885,-74.26382,2821,,,,,,325211,,,,,,1397110254517,ACRYLIC ACID,000079107,YES,NON-PBT,NO,0,NO,R,Pounds,3,0,0,0,0,0,0,0,0,0,0,0,3,0,6,6,0,0,0,0,0,0,0,0,0,0,0,0,0,0,0,0,0,0,0,0,0,0,0,0,0,0,0,0,4,0,0,0,0,4,3,3,0,0,0,0,0,0,0,0,0,10,13,0,1,NA,NA
1997,08854MRCNNSORAN,REXAM BEVERAGE CAN CO.  PISCATAWAY NJ FACILITY,SOUTH  RANDOLPH RD. RTE. 287,PISCATAWAY,MIDDLESEX,NJ,08854,40.55965,-74.463033,3411,,,,,,332431,,,,,,1397110100664,HYDROGEN FLUORIDE,007664393,YES,NON-PBT,NO,0,NO,R,Pounds,0,20,0,0,0,0,0,0,0,0,0,0,20,0,0,0,0,0,0,0,0,0,0,0,0,0,0,0,0,0,0,0,0,0,0,0,0,0,0,0,0,0,0,0,0,0,0,0,0,0,20,20,0,0,0,0,0,0,0,0,20000,0,20020,0,1,REXAM BEVERAGE CAN CO,005105366
1997,08873RLNCN100BE,AKZO NOBEL COATINGS INC,100 BELMONT DR,SOMERSET,SOMERSET,NJ,08873,40.54434,-74.53661,2851,,,,,,325510,,,,,,1397110221710,METHYL ISOBUTYL KETONE,000108101,YES,NON-PBT,NO,0,NO,R,Pounds,1436,50,0,0,0,0,0,0,0,0,0,0,1486,0,0,0,0,0,0,0,0,0,0,0,0,0,0,0,0,0,0,0,0,0,0,0,0,0,0,0,1025,0,1025,0,0,0,0,0,0,0,1486,1486,0,0,0,0,0,1025,0,0,0,0,2511,0,.75,AKZO NOBEL INC,062999347
1997,07802HWMTCROYST,HOWMET CORP. DOVER ALLOY DIV.,9 ROY ST.,DOVER,MORRIS,NJ,078020371,40.881939,-74.532387,3341,,,,,,331512,,,,,,1397110280690,COBALT,007440484,YES,NON-PBT,YES,1,YES,R,Pounds,0,123,0,0,0,0,0,0,0,0,0,0,123,0,0,0,0,0,0,0,0,0,0,0,0,0,0,0,0,0,0,0,0,0,0,0,0,0,0,0,0,0,0,0,0,0,0,0,0,0,123,123,0,0,0,0,0,0,75776,0,0,0,75899,0,1.1,HOWMET HOLDING CORP,020900049
1997,07105CRDLT500DO,CARDOLITE CORP,500 DOREMUS AVE,NEWARK,ESSEX,NJ,07105,40.715833,-74.125833,2821,,,,,,325211,,,,,,1397110379171,EPICHLOROHYDRIN,000106898,YES,NON-PBT,NO,0,YES,R,Pounds,250,1250,0,0,0,0,0,0,0,0,0,0,1500,0,50000,50000,0,0,0,0,0,0,0,0,0,0,0,0,0,0,0,0,0,0,0,0,0,0,0,0,0,0,0,0,0,0,0,0,0,0,1500,1700,0,0,0,0,0,0,0,0,0,50000,51700,0,1.25,NA,NA
1997,08859DPNTPCHEES,DUPONT PARLIN PLANT,CHEESEQUAKE RD,PARLIN,MIDDLESEX,NJ,088591094,40.452028,-74.331306,2851,3861,,,,,325510,,,,,,1397110233956,"1,2,4-TRIMETHYLBENZENE",000095636,NO,NON-PBT,NO,0,NO,R,Pounds,3,72,0,0,0,0,0,0,0,0,0,0,75,0,0,0,0,0,0,0,0,0,0,0,0,0,0,0,0,0,0,0,0,0,0,0,0,0,0,0,0,0,0,0,0,0,0,0,0,0,75,75,0,0,0,0,0,0,0,0,0,0,75,0,.92,E I DU PONT DE NEMOURS & CO INC,001315704
1997,07036DCKRS1512W,LUBRIZOL CO,1512 W ELIZABETH AVE,LINDEN,UNION,NJ,07036,40.619885,-74.26382,2821,,,,,,325211,,,,,,1397110254669,TOLUENE,000108883,YES,NON-PBT,NO,0,NO,R,Pounds,238,172,0,0,0,0,0,0,0,0,0,0,410,0,0,0,0,0,0,0,0,0,0,0,0,0,0,0,0,0,0,0,0,0,0,0,0,0,0,0,90588,0,90588,0,87,0,0,0,0,87,410,410,0,0,0,0,0,90588,75698,0,0,87,166783,0,1,NA,NA
1997,07936SNDZP59ROU,NOVARTIS PHARMACEUTICALS CORP,59 RT 10,EAST HANOVER,MORRIS,NJ,079361080,40.811444,-74.38775,2834,,,,,,325412,,,,,,1397110012349,METHYL TERT-BUTYL ETHER,001634044,YES,NON-PBT,NO,0,NO,R,Pounds,208,10715,0,0,0,0,0,0,0,0,0,0,10923,0,53,53,0,0,0,0,0,0,0,0,0,0,0,0,0,0,0,0,0,0,0,0,0,0,0,0,432047,1217,433264,0,0,0,0,0,0,0,10923,10923,0,0,0,0,0,433264,0,0,0,53,444240,0,1.23,NOVARTIS AG,001221845
1997,07110TLNTC10KIN,CROMPTON COLORS INC,10 KINGSLAND ST,NUTLEY,ESSEX,NJ,07110,40.82683,-74.14284,2865,,,,,,325132,,,,,,1397110074895,CHROMIUM COMPOUNDS(EXCEPT CHROMITE ORE MINED IN THE TRANSVAAL REGION),N090,YES,NON-PBT,YES,1,NO,R,Pounds,0,0,0,0,0,0,0,0,0,0,0,0,0,2870,0,2870,1,0,0,0,0,0,0,0,0,0,0,0,0,0,0,0,0,1,0,0,0,0,0,0,0,0,0,0,0,0,0,0,0,0,2871,1,0,0,0,0,0,0,0,0,0,2870,2871,0,1.16,CROMPTON CORP,052813136
1997,07036XXNCH1400P,INFINEUM USA LP-BAYWAY CHEMICAL PLANT,CORNER OF PARK & BRUNSWICK AVENUES,LINDEN,UNION,NJ,070360023,40.640135,-74.21888,2869,,,,,,325199,,,,,,1397110222104,MALEIC ANHYDRIDE,000108316,YES,NON-PBT,NO,0,NO,R,Pounds,414,61,0,0,0,0,0,0,0,0,0,0,475,0,0,0,0,0,0,0,0,0,0,0,0,0,0,0,0,0,0,0,0,0,0,0,0,0,0,0,0,0,0,0,83,0,0,0,0,83,475,475,0,0,0,0,0,0,0,0,730857,83,731415,0,1.24,INFINEUM USA INC,032105889
1997,08110CJSBR820SH,COOK COMPOSITES & POLYMERS CO.,820 SHERMAN AVE,PENNSAUKEN,CAMDEN,NJ,081102613,39.974738,-75.059711,2821,,,,,,325211,,,,,,1397110286477,"1,2,4-TRIMETHYLBENZENE",000095636,NO,NON-PBT,NO,0,NO,R,Pounds,250,250,0,0,0,0,0,0,0,0,0,0,500,0,0,0,0,0,0,0,0,0,0,0,0,0,0,0,0,0,0,0,0,0,0,0,0,0,0,0,23482,0,23482,0,0,0,842,0,0,842,500,1397,0,0,0,0,0,22379,3675,0,0,1945,29396,0,1.7,COOK COMPOSITES & POLYMERS CO,610416802
1997,07095LPHSS2AMBO,ALPHA ASSOCIATES INC.,2 AMBOY AVE,WOODBRIDGE,MIDDLESEX,NJ,07095,40.542366,-74.27477,2295,,,,,,313320,,,,,,1397110336536,XYLENE (MIXED ISOMERS),001330207,YES,NON-PBT,NO,0,NO,R,Pounds,240,17278,0,0,0,0,0,0,0,0,0,0,17518,0,0,0,0,0,0,0,0,0,0,0,0,0,0,0,0,0,0,0,0,0,0,0,0,0,0,0,0,0,0,0,41861,0,0,0,0,41861,17518,17518,0,0,0,0,0,0,0,0,277247,41891,336656,0,1.12,NA,NA
1997,07105SHRWN60LIS,SHERWIN-WILLIAMS CO.  NEWARK,60 LISTER AVE.,NEWARK,ESSEX,NJ,071054524,40.739341,-74.137914,2851,,,,,,325510,,,,,,1397110292190,ZINC COMPOUNDS,N982,NO,NON-PBT,YES,1,NO,R,Pounds,1,13,0,0,0,0,0,0,0,0,0,0,14,10080,0,10080,0,0,89,0,0,0,1365,0,0,0,0,0,0,0,0,0,11687,13141,0,0,0,0,0,0,0,0,0,0,0,0,0,0,0,0,23235,13155,0,0,0,0,0,0,201,0,0,10080,23436,0,1.29,SHERWIN-WILLIAMS CO,004206397
1997,07064MRDHS750CL,HESS CORP - PORT READING REFINERY,750 CLIFF RD,PORT READING,MIDDLESEX,NJ,07064,40.557528,-74.242444,2911,,,,,,324110,,,,,,1397110370994,BENZENE,000071432,YES,NON-PBT,NO,0,YES,R,Pounds,193,1280,0,0,0,0,0,0,0,0,0,0,1473,0,0,0,0,0,0,0,0,0,0,0,0,0,0,0,0,0,0,0,0,0,0,0,0,0,0,0,0,0,0,0,0,0,0,0,0,0,1473,1473,0,0,0,0,0,0,0,0,0,0,1473,0,1,HESS CORP,006979785
1997,07064MRDHS750CL,HESS CORP - PORT READING REFINERY,750 CLIFF RD,PORT READING,MIDDLESEX,NJ,07064,40.557528,-74.242444,2911,,,,,,324110,,,,,,1397110371061,TOLUENE,000108883,YES,NON-PBT,NO,0,NO,R,Pounds,424,2816,0,0,0,0,0,0,0,0,0,0,3240,0,0,0,0,0,0,0,0,0,0,0,0,0,0,0,0,0,0,0,0,0,0,0,0,0,0,0,0,0,0,0,0,0,0,0,0,0,3240,3240,0,0,0,0,0,0,0,0,0,0,3240,0,1,HESS CORP,006979785
1997,07095MRCNCCUTTE,CYTEC INDUSTRIES INC,35 CUTTERS DOCK RD.,WOODBRIDGE,MIDDLESEX,NJ,070952703,40.54392,-74.269713,2821,,,,,,325211,,,,,,1397110082500,ACRYLONITRILE,000107131,YES,NON-PBT,NO,0,YES,R,Pounds,111,395,0,0,0,0,0,0,0,0,0,0,506,0,0,0,0,0,0,0,0,0,0,0,0,0,0,0,0,0,0,0,0,0,0,0,0,0,0,0,0,0,0,0,0,0,0,0,0,0,506,506,0,0,0,0,0,0,0,0,0,0,506,1,.75,CYTEC INDUSTRIES INC,809749948
1997,07055NTRST35EIG,"INTER-STATE DYEING & FINISHING, CO.",35 8TH ST.,PASSAIC,PASSAIC,NJ,07055,40.856875,-74.109758,2269,,,,,,332710,,,,,,1397110121718,SODIUM NITRITE,007632000,NO,NON-PBT,YES,2,NO,R,Pounds,250,0,0,0,0,0,0,0,0,0,0,0,250,0,8774,8774,0,0,0,0,0,0,0,0,0,0,0,0,0,0,0,0,0,0,0,0,0,0,0,0,0,0,0,0,0,0,0,0,0,0,250,351,0,0,0,0,0,0,0,0,0,8774,9125,0,.73,NA,NA
1997,07063THCNT1355W,CENTERCORE GROUP INC.,1355 W. FRONT ST.,PLAINFIELD,UNION,NJ,07063,40.600148,-74.450295,2522,,,,,,337214,,,,,,1397110166752,TOLUENE,000108883,YES,NON-PBT,NO,0,NO,R,Pounds,13504,4188,0,0,0,0,0,0,0,0,0,0,17692,0,0,0,0,0,0,0,0,0,0,0,0,0,0,0,0,0,0,0,0,0,0,0,0,0,0,0,0,0,0,0,0,0,0,0,0,0,17692,17692,0,0,0,0,0,0,0,0,0,0,17692,0,1.02,APOLLO GROUP,837618404
1997,08854SFJLC240CI,US FUJI ELECTRIC INC,240 CIR DR N,PISCATAWAY,MIDDLESEX,NJ,08854,40.559081,-74.478978,3861,,,,,,333315,,,,,,1397110203371,SELENIUM COMPOUNDS,N725,YES,NON-PBT,YES,1,NO,R,Pounds,9,0,0,0,0,0,0,0,0,0,0,0,9,3,0,3,0,0,0,0,0,0,0,0,0,0,0,0,0,0,0,0,0,0,0,906,0,0,0,906,0,0,0,0,0,0,0,0,0,0,12,12,0,0,0,0,0,0,0,906,0,3,921,0,1.52,US FUJI ELECTRIC LTD,690583125
1997,08859DPNTPCHEES,DUPONT PARLIN PLANT,CHEESEQUAKE RD,PARLIN,MIDDLESEX,NJ,088591094,40.452028,-74.331306,2851,3861,,,,,325510,,,,,,1397110234008,ETHYL ACRYLATE,000140885,YES,NON-PBT,NO,0,YES,R,Pounds,20,2,0,0,0,0,0,0,0,0,0,0,22,0,0,0,0,0,0,0,0,0,0,0,0,0,0,0,0,0,0,0,0,0,0,0,0,0,0,0,0,0,0,0,0,120,0,0,0,120,22,22,0,0,0,0,0,0,0,0,0,120,142,0,.92,E I DU PONT DE NEMOURS & CO INC,001315704
1997,08859DPNTPCHEES,DUPONT PARLIN PLANT,CHEESEQUAKE RD,PARLIN,MIDDLESEX,NJ,088591094,40.452028,-74.331306,2851,3861,,,,,325188,,,,,,1397110234061,TRIETHYLAMINE,000121448,YES,NON-PBT,NO,0,NO,R,Pounds,7,13,0,0,0,0,0,0,0,0,0,0,20,0,0,0,0,0,0,0,0,0,0,0,0,0,0,0,0,0,0,0,0,0,0,0,0,0,0,0,0,0,0,0,0,0,0,0,0,0,20,20,0,0,0,0,0,0,0,0,0,0,20,0,1,E I DU PONT DE NEMOURS & CO INC,001315704
1997,08873MTRLS220CH,MATERIALS TECHNOLOGY INC.,220 CHURCHILL ST.,SOMERSET,SOMERSET,NJ,088750187,40.484788,-74.50375,3497,3471,,,,,331421,,,,,,1397110404454,COPPER COMPOUNDS,N100,NO,NON-PBT,YES,1,NO,R,Pounds,5,250,0,0,0,0,0,0,0,0,0,0,255,5,0,5,0,0,0,0,0,0,0,0,0,0,0,0,0,0,0,0,0,0,0,891,0,0,0,891,0,0,0,0,0,0,0,0,0,0,260,43,0,0,0,0,0,0,0,891,0,4,938,0,.29,NA,NA
1997,07072LKTRM20THB,ELEKTROMEK INC,20TH & BROAD ST,CARLSTADT,BERGEN,NJ,07072,40.830741,-74.081692,2891,,,,,,325520,,,,,,1397110005422,TOLUENE,000108883,YES,NON-PBT,NO,0,NO,R,Pounds,250,250,0,0,0,0,0,0,0,0,0,0,500,0,1,1,0,0,0,0,0,0,0,0,0,0,0,0,0,0,0,0,0,0,0,0,0,0,0,0,0,0,0,0,0,0,0,0,0,0,500,205,0,0,0,0,0,0,0,0,0,1,206,0,.83,NA,NA
1997,07083SCHRN1011M,SCHERING CORP,1011 MORRIS AVE,UNION,UNION,NJ,07083,40.685333,-74.231472,2834,,,,,,325412,,,,,,1397110057597,"N,N-DIMETHYLFORMAMIDE",000068122,YES,NON-PBT,NO,0,YES,R,Pounds,250,250,0,0,0,0,0,0,0,0,0,0,500,0,24197,24197,0,0,0,0,0,0,0,0,0,0,0,0,0,0,0,0,0,0,0,0,0,0,0,0,0,17679,17679,0,0,0,0,0,0,0,500,279,0,0,0,0,0,17679,0,0,86,24197,42241,0,2.9,SCHERING PLOUGH CORP,054554290
1997,07083NTRNT2270M,INTERNATIONAL PAINT LLC,2270 MORRIS AVE,UNION,UNION,NJ,07083,40.698071,-74.284097,2851,,,,,,325510,,,,,,1397110125871,DICHLOROMETHANE,000075092,YES,NON-PBT,NO,0,YES,R,Pounds,109,983,0,0,0,0,0,0,0,0,0,0,1092,0,0,0,0,0,0,0,0,0,0,0,0,0,0,0,0,0,0,0,0,0,7189,0,0,0,0,7189,0,0,0,0,0,0,0,0,0,0,1092,1092,0,0,0,0,0,0,0,7189,0,0,8281,0,.97,AKZO NOBEL NV,062999347
1997,07030HNKLC1301J,COGNIS CORP,1301 JEFFERSON ST,HOBOKEN,HUDSON,NJ,070302210,40.753368,-74.033723,2841,2843,2869,,,,325611,,,,,,1397110236775,DIETHANOLAMINE,000111422,YES,NON-PBT,NO,0,NO,R,Pounds,360,155,0,0,0,0,0,0,0,0,0,0,515,0,0,0,0,0,0,0,0,0,0,0,0,0,0,0,0,0,0,0,0,0,0,0,0,0,0,0,0,0,0,0,0,0,0,0,0,0,515,515,0,0,0,0,0,0,0,0,1321,0,1836,0,1.02,COGNIS CORP,114571107
1997,08810RPRDCDAYTO,WACKER POLYMERS,11 CORN RD,DAYTON,MIDDLESEX,NJ,08810,40.365,-74.491667,2821,,,,,,325211,,,,,,1397110246636,PHOSPHORIC ACID,007664382,NO,NON-PBT,NO,0,NO,R,Pounds,0,0,0,0,0,0,0,0,0,0,0,0,0,0,0,0,0,0,0,0,0,0,0,0,0,0,0,0,0,0,0,0,0,0,0,0,0,0,0,0,0,0,0,0,0,0,0,0,0,0,0,0,0,0,0,0,0,0,0,0,0,0,0,0,.55,WACKER CHEMICAL CORP,075400671
1997,07057HSCHM5264V,H S CHEMICAL CO. INC.,52-64 VAN DYKE ST,WALLINGTON,BERGEN,NJ,07057,40.845355,-74.101953,2865,,,,,,325132,,,,,,1397110014382,ANILINE,000062533,YES,NON-PBT,NO,0,NO,R,Pounds,82,3,0,0,0,0,0,0,0,0,0,0,85,0,2275,2275,0,0,0,0,0,0,0,0,0,0,0,0,0,0,0,0,0,0,0,0,0,0,0,0,0,0,0,0,0,0,0,0,0,0,85,2359,0,0,0,0,0,0,0,0,0,2275,4634,0,1.21,NA,NA
1997,07036MRCNC4900T,CYTEC INDUSTRIES INC,4900 TREMLEY POINT RD.,LINDEN,UNION,NJ,07036,40.60406,-74.21148,2843,2834,,,,,325613,,,,,,1397110271614,DIETHANOLAMINE,000111422,YES,NON-PBT,NO,0,NO,R,Pounds,0,0,0,0,0,0,0,0,0,0,0,0,0,0,5,5,0,0,0,0,0,0,0,0,0,0,0,0,0,0,0,0,0,0,0,0,0,0,0,0,0,0,0,0,0,0,0,0,0,0,0,0,0,0,0,0,0,0,0,0,0,1,1,0,.51,CYTEC INDUSTRIES INC,807290556
1997,08857LDBRDOLDWA,OLD BRIDGE CHEMIACLS INC,OLD WATERWORKS RD,OLD BRIDGE,MIDDLESEX,NJ,08857,40.432944,-74.328669,2819,,,,,,325188,,,,,,1397110396355,ZINC (FUME OR DUST),007440666,NO,NON-PBT,YES,4,NO,R,Pounds,0,0,0,0,0,0,0,0,0,0,0,0,0,0,0,0,0,0,0,0,0,0,0,0,0,0,0,0,0,0,0,0,0,0,0,0,0,0,0,0,0,0,0,0,0,0,0,0,0,0,0,0,0,0,0,0,0,0,0,0,0,0,0,0,1.05,NA,NA
1997,08818CNLXC226TA,SHERWIN-WILLIAMS CO. (DBA CONLUX COATINGS),226 TALMADGE RD.,EDISON,MIDDLESEX,NJ,088180847,40.538222,-74.398333,2851,,,,,,325510,,,,,,1397110103734,METHYL ETHYL KETONE,000078933,NO,NON-PBT,NO,0,NO,R,Pounds,648,1944,0,0,0,0,0,0,0,0,0,0,2592,0,0,0,0,0,0,0,0,0,0,0,0,0,0,0,0,0,0,0,0,0,0,0,0,0,0,0,13762,0,13762,0,0,0,0,0,0,0,2592,2592,0,0,0,0,0,13762,8926,0,0,0,25280,0,1.16,SHERWIN-WILLIAMS CO,004206397
1997,07083NTRNT2270M,INTERNATIONAL PAINT LLC,2270 MORRIS AVE,UNION,UNION,NJ,07083,40.698071,-74.284097,2851,,,,,,325510,,,,,,1397110125921,ZINC COMPOUNDS,N982,NO,NON-PBT,YES,1,NO,R,Pounds,10,10,0,0,0,0,0,0,0,0,0,0,20,0,0,0,0,0,0,0,0,0,0,0,0,0,0,0,0,0,0,0,319,319,9140,0,0,0,0,9140,0,0,0,0,0,0,0,0,0,0,339,339,0,0,0,0,0,0,0,0,0,9459,9798,0,1.09,AKZO NOBEL NV,062999347
1997,08066MBLLCBILLI,PAULSBORO REFINING CO LLC,800 BILLINGSPORT RD,PAULSBORO,GLOUCESTER,NJ,080661036,39.838222,-75.249474,2911,,,,,,324110,,,,,,1397110187794,CYCLOHEXANE,000110827,NO,NON-PBT,NO,0,NO,R,Pounds,250,750,0,0,0,0,0,0,0,0,0,0,1000,0,0,0,0,0,0,0,0,0,260,0,0,0,0,0,0,0,0,0,0,260,0,0,0,0,0,0,0,0,0,0,0,0,0,0,0,0,1260,1027,0,0,0,0,0,0,0,0,0,0,1027,0,1.04,NA,NA
1997,08070GNSCHINDUS,SIEGFRIED (USA) INC,33 INDUSTRIAL PARK RD,PENNSVILLE,SALEM,NJ,08070,39.629389,-75.534083,2833,,,,,,325411,,,,,,1397110275486,AMMONIA,007664417,NO,NON-PBT,NO,0,NO,R,Pounds,218,102,0,0,0,0,0,0,0,0,0,0,320,0,250,250,0,0,0,0,0,0,0,0,0,0,0,0,0,0,0,0,0,0,0,0,0,0,0,0,0,0,0,0,0,0,0,0,0,0,320,102,0,0,0,0,0,0,0,0,131212,18,131332,0,1.02,SIEGFRIED CHEMICALS AG,NA
1997,07928NTNLM12RIV,NATIONAL MANUFACTURING CO INC,12 RIVER RD,CHATHAM,MORRIS,NJ,07928,40.729306,-74.381333,3469,,,,,,332116,,,,,,1397110238526,"1,1,1-TRICHLOROETHANE",000071556,YES,NON-PBT,NO,0,NO,R,Pounds,29113,0,0,0,0,0,0,0,0,0,0,0,29113,0,0,0,0,0,0,0,0,0,0,0,0,0,0,0,0,0,0,0,0,0,9600,0,0,0,0,9600,0,0,0,0,0,0,0,0,0,0,29113,29113,0,0,0,0,0,0,0,9600,0,0,38713,0,1.21,NATIONAL MANUFACTURING CO INC,NA
1997,08818FRDMT939US,FORD MOTOR CO EDISON ASSEMBLY PLANT,939 US HWY 1,EDISON,MIDDLESEX,NJ,08818,40.516777,-74.371651,3711,,,,,,336112,,,,,,1397110265319,CERTAIN GLYCOL ETHERS,N230,YES,NON-PBT,NO,0,NO,R,Pounds,292,41543,0,0,0,0,0,0,0,0,0,0,41835,0,3893,3893,0,0,0,0,0,0,111,0,0,0,0,0,0,0,0,0,0,111,1284,0,12,0,0,1296,2,0,2,0,0,0,0,29,0,29,41946,41945,0,0,0,0,0,0,0,1296,17545,31,60817,0,.99,FORD MOTOR CO,001344746
1997,07514TRDYN44045,TRIO DYEING & FINISHING CO. INC.,440-450 E. 22ND ST.,PATERSON,PASSAIC,NJ,075142412,40.925558,-74.150589,2269,,,,,,313310,,,,,,1397110316332,FORMIC ACID,000064186,NO,NON-PBT,NO,0,NO,R,Pounds,5,0,0,0,0,0,0,0,0,0,0,0,5,0,18045,18045,0,0,0,0,0,0,0,0,0,0,0,0,0,0,0,0,0,0,0,0,0,0,0,0,0,0,0,0,0,0,0,0,0,0,5,18,0,0,0,0,0,0,0,0,0,18045,18063,0,1,NA,NA
1997,07003PRLSS5871L,PEERLESS TUBE CO.,58 LOCUST AVE.,BLOOMFIELD,ESSEX,NJ,07003,40.785635,-74.201463,3499,,,,,,333298,,,,,,1397110328820,METHYL ISOBUTYL KETONE,000108101,YES,NON-PBT,NO,0,NO,R,Pounds,1009,3758,0,0,0,0,0,0,0,0,0,0,4767,0,14687,14687,0,0,0,0,0,0,0,0,0,0,0,0,0,0,0,0,0,0,0,0,0,0,0,0,932,0,932,0,728,0,0,0,0,728,4767,4767,0,0,0,0,0,932,0,0,0,15415,21114,0,,NA,NA
1997,07036CNVRT1301S,SUN CHEMICAL SPECIALTY INKS,1301 S. PARK AVE.,LINDEN,UNION,NJ,07036,40.641472,-74.220079,2893,,,,,,325910,,,,,,1397110330356,TOLUENE,000108883,YES,NON-PBT,NO,0,NO,R,Pounds,27,637,0,0,0,0,0,0,0,0,0,0,664,0,0,0,0,0,0,0,0,0,0,0,0,0,0,0,0,0,0,0,0,0,0,0,0,0,0,0,373,0,373,0,0,0,0,0,0,0,664,664,0,0,0,0,0,373,350,0,0,0,1387,0,.5,DAINIPPON INKS & CHEMICALS OF JAPAN,144638558
1997,08067THBFGUSROU,LUBRIZOL CORP,76 PORCUPINE RD,PEDRICKTOWN,SALEM,NJ,080673509,39.763889,-75.422778,2821,,,,,,325211,,,,,,1397110212762,BUTYL ACRYLATE,000141322,NO,NON-PBT,NO,0,NO,R,Pounds,39,0,0,0,0,0,0,0,0,0,0,0,39,0,0,0,0,0,0,0,0,0,0,0,0,0,0,0,0,0,0,0,0,0,0,0,0,0,0,0,0,0,0,0,0,801,2019,0,0,2820,39,39,0,0,0,0,0,0,0,0,0,2820,2859,0,1.32,THE LUBRIZOL CORP,004172565
1997,08817KZCHMMEADO,EQUISTAR CHEMICALS LP,340 MEADOW RD,EDISON,MIDDLESEX,NJ,08817,40.491347,-74.384256,2819,2833,2899,,,,325188,,,,,,1397110259381,TITANIUM TETRACHLORIDE,007550450,YES,NON-PBT,YES,2,NO,R,Pounds,1018,582,0,0,0,0,0,0,0,0,0,0,1600,0,0,0,0,0,0,0,0,0,0,0,0,0,0,0,0,0,0,0,0,0,0,0,0,0,0,0,5,0,5,0,145,0,0,0,0,145,1600,1600,0,0,0,0,0,5,0,0,0,145,1750,0,1.36,LYONDELLBASELL INDUSTRIES,103746855
1997,07823BSFCRJAMES,BASF CORP,1 JAMES ST,BELVIDERE,WARREN,NJ,07823,40.832194,-75.086111,2851,,,,,,325510,,,,,,1397110240367,LEAD COMPOUNDS,N420,YES,PBT,YES,1,NO,R,Pounds,0,2,0,0,0,0,0,0,0,0,0,0,2,0,0,0,0,0,0,0,0,0,17,0,0,0,0,0,0,0,0,0,0,17,0,0,0,0,0,0,0,93,93,0,2,0,0,0,0,2,19,19,0,0,0,0,0,93,0,0,0,2,114,0,.89,BASF CORP,071014385
1997,07823BSFCRJAMES,BASF CORP,1 JAMES ST,BELVIDERE,WARREN,NJ,07823,40.832194,-75.086111,2851,,,,,,325510,,,,,,1397110240431,ZINC COMPOUNDS,N982,NO,NON-PBT,YES,1,NO,R,Pounds,0,18,0,0,0,0,0,0,0,0,0,0,18,0,0,0,0,0,0,0,0,0,140,0,0,0,0,0,0,0,0,0,0,140,0,0,0,0,0,0,0,779,779,0,0,0,0,0,0,0,158,158,0,0,0,0,0,779,0,0,0,0,937,0,.89,BASF CORP,071014385
1997,07105SPNCR400DO,REICHHOLD INC,400 DOREMUS AVE,NEWARK,ESSEX,NJ,07105,40.71932,-74.124679,2821,,,,,,325211,,,,,,1397110345550,PHTHALIC ANHYDRIDE,000085449,YES,NON-PBT,NO,0,NO,R,Pounds,30,1205,0,0,0,0,0,0,0,0,0,0,1235,0,1,1,0,0,0,0,0,0,0,0,0,0,0,0,0,0,0,0,0,0,0,0,0,0,0,0,917,0,917,0,0,0,0,0,0,0,1235,917,0,0,0,0,0,917,0,0,0,917,2751,0,1.01,REICHHOLD INC,001220904
1997,07114TNXFN390AD,TENAX FINISHING PRODUCTS CO,390 ADAMS ST,NEWARK,ESSEX,NJ,07114,40.71859,-74.164414,2851,,,,,,325510,,,,,,1397110153792,XYLENE (MIXED ISOMERS),001330207,YES,NON-PBT,NO,0,NO,R,Pounds,34,1122,0,0,0,0,0,0,0,0,0,0,1156,0,0,0,0,0,0,0,0,0,0,0,0,0,0,0,0,0,0,0,0,0,0,0,0,0,0,0,0,0,0,0,203,0,0,0,0,203,1156,1156,0,0,0,0,0,0,0,0,0,203,1359,0,.97,NA,NA
1997,08818FRDMT939US,FORD MOTOR CO EDISON ASSEMBLY PLANT,939 US HWY 1,EDISON,MIDDLESEX,NJ,08818,40.516777,-74.371651,3711,,,,,,336112,,,,,,1397110265360,N-BUTYL ALCOHOL,000071363,NO,NON-PBT,NO,0,NO,R,Pounds,3025,52403,0,0,0,0,0,0,0,0,0,0,55428,0,0,0,0,0,0,0,0,0,0,0,0,0,0,0,0,0,0,0,0,0,11582,0,0,0,0,11582,1961,0,1961,0,0,0,0,101,0,101,55428,55429,0,0,0,0,0,1962,0,11582,53213,101,122287,0,.99,FORD MOTOR CO,001344746
1997,08818FRDMT939US,FORD MOTOR CO EDISON ASSEMBLY PLANT,939 US HWY 1,EDISON,MIDDLESEX,NJ,08818,40.516777,-74.371651,3711,,,,,,336112,,,,,,1397110265446,MANGANESE COMPOUNDS,N450,YES,NON-PBT,YES,1,NO,R,Pounds,0,50,0,0,0,0,0,0,0,0,0,0,50,30,0,30,0,0,0,0,0,0,2941,0,0,0,0,0,0,0,0,0,0,2941,0,0,0,0,0,0,0,0,0,0,0,0,0,0,0,0,3021,3022,0,0,0,0,0,0,0,0,0,0,3022,0,.99,FORD MOTOR CO,001344746
1997,07066KRNKC330CE,KARNAK CORP,330 CENTRAL AVE,CLARK,UNION,NJ,07066,40.63275,-74.313444,2952,,,,,,324122,,,,,,1397110365727,"1,2,4-TRIMETHYLBENZENE",000095636,NO,NON-PBT,NO,0,NO,R,Pounds,678,17,0,0,0,0,0,0,0,0,0,0,695,0,0,0,0,0,0,0,0,0,0,0,0,0,0,0,0,0,0,0,639,639,0,0,0,0,0,0,0,0,0,0,0,0,0,0,0,0,1334,695,0,0,0,0,0,639,0,0,0,0,1334,0,1.81,KARNAK CORP,NA
1997,07072FNTND746GO,FINITE INDUSTRIES INC SUBSIDIARY OF SCAPA  N A,746 GOTHAM PKWY,CARLSTADT,BERGEN,NJ,07072,40.833487,-74.064458,3069,2672,,,,,322222,,,,,,1397110370044,METHYL ETHYL KETONE,000078933,NO,NON-PBT,NO,0,NO,R,Pounds,20,150,0,0,0,0,0,0,0,0,0,0,170,0,0,0,0,0,0,0,0,0,0,0,0,0,0,0,0,0,0,0,0,0,0,0,0,0,0,0,14300,0,14300,0,0,0,0,0,0,0,170,170,0,0,0,0,0,14300,0,0,1500,0,15970,0,1.08,SCAPA GROUP INC,004071809
1997,07901CBGGY556MO,NOVARTIS PHARMACEUTICALS CORP.,556 MORRIS AVE.,SUMMIT,UNION,NJ,079011398,40.727902,-74.375401,2834,2833,,,,,325412,,,,,,1397110104015,DICHLOROMETHANE,000075092,YES,NON-PBT,NO,0,YES,R,Pounds,0,2500,0,0,0,0,0,0,0,0,0,0,2500,0,300,300,0,0,0,0,0,0,0,0,0,0,0,0,0,0,0,0,0,0,48066,0,0,0,0,48066,27369,0,27369,0,0,14603,0,0,0,14603,2500,2800,0,0,0,0,0,27369,125579,75435,0,14598,245781,0,.88,NOVARTIS CORP,001221845
1997,08818MBLCHRT27A,MOBIL CHEMICAL CO SYNTHETICS DIV,2195 RT 27 AT VINEYARD RD,EDISON,MIDDLESEX,NJ,088183140,40.534167,-74.381806,2821,,,,,,325211,,,,,,1397110147168,ETHYLENE,000074851,NO,NON-PBT,NO,0,NO,R,Pounds,3000,5400,0,0,0,0,0,0,0,0,0,0,8400,0,0,0,0,0,0,0,0,0,0,0,0,0,0,0,0,0,0,0,0,0,0,0,0,0,0,0,0,0,0,0,0,0,0,0,0,0,8400,8400,0,0,0,0,0,0,0,0,0,0,8400,0,.85,EXXON MOBIL CORP,001213214
1997,08859HRCLSSOUTH,HERCULES INC (PARLIN PLANT),50 S MINISINK AVE,PARLIN,MIDDLESEX,NJ,088591089,40.458611,-74.3375,2821,2869,,,,,325199,,,,,,1397110288800,ETHYLENE GLYCOL,000107211,YES,NON-PBT,NO,0,NO,R,Pounds,0,0,0,0,0,0,0,0,0,0,0,0,0,0,1248967,1248967,0,0,0,0,0,0,0,0,0,0,0,0,0,0,0,0,0,0,0,0,0,0,0,0,0,0,0,0,0,0,0,0,0,0,0,0,0,0,0,0,0,0,0,0,0,1248967,1248967,0,1.06,ASHLAND INC,005003264
1997,07105SNCHM185FO,SUN CHEMICAL CORP NEWARK PLANT,185 FOUNDRY ST,NEWARK,ESSEX,NJ,07105,40.727461,-74.132893,2865,,,,,,325411,,,,,,1397110276262,METHANOL,000067561,YES,NON-PBT,NO,0,NO,R,Pounds,30000,223000,0,0,0,0,0,0,0,0,0,0,253000,0,3100000,3100000,0,0,0,0,0,0,0,0,0,0,0,0,0,0,0,0,0,0,0,0,0,0,0,0,0,0,0,0,0,0,0,0,0,0,253000,250000,0,0,0,0,0,0,8600000,0,42000,3100000,11992000,0,1.1,DIC AMERICAS INC,054527502
1997,08865NGRSL942ME,FLOWSERVE CORP,942 MEMORIAL PKWY,PHILLIPSBURG,WARREN,NJ,08865,40.692472,-75.166972,3561,,,,,,333911,,,,,,1397110021122,NICKEL,007440020,YES,NON-PBT,YES,1,YES,R,Pounds,0,250,0,0,0,0,0,0,0,0,0,0,250,0,0,0,0,0,0,0,0,0,0,0,0,0,0,0,0,0,0,0,0,0,0,2302,0,0,0,2302,0,0,0,0,0,0,0,0,0,0,250,21,0,0,0,0,0,0,0,2302,0,0,2323,0,.78,NA,NA
1997,08014MNSNTROUTE,FERRO CORP DELAWARE R IVER PLANT,170 RT 130 S,BRIDGEPORT,GLOUCESTER,NJ,080140000,39.788192,-75.396232,2869,2819,2851,,,,325199,,,,,,1397110133016,BENZYL CHLORIDE,000100447,YES,NON-PBT,NO,0,NO,R,Pounds,1600,7200,2700,0,0,0,0,0,0,0,0,0,11500,0,0,0,0,0,0,0,0,0,0,0,0,0,0,0,0,0,0,0,0,0,0,0,0,0,0,0,420000,0,420000,0,4900,0,0,0,0,4900,11500,12000,0,0,0,0,0,420000,0,0,3000,4900,439900,0,.98,FERRO CORP,004161477
1997,08014MNSNTROUTE,FERRO CORP DELAWARE R IVER PLANT,170 RT 130 S,BRIDGEPORT,GLOUCESTER,NJ,080140000,39.788192,-75.396232,2869,2819,2851,,,,325199,,,,,,1397110133067,AMMONIA,007664417,NO,NON-PBT,NO,0,NO,R,Pounds,9,600,1900,0,0,0,0,0,0,0,0,0,2509,0,0,0,0,0,0,0,0,0,0,0,0,0,0,0,0,0,0,0,0,0,0,0,0,0,0,0,0,0,0,0,0,0,0,0,0,0,2509,2500,0,0,0,0,0,0,0,0,0,0,2500,0,1.01,FERRO CORP,004161477
1997,07840MMMRSHIGHS,MARS CHOCOLATE NORTH AMERICA LLC,700 HIGH ST,HACKETTSTOWN,WARREN,NJ,07840,40.86127,-74.82752,2064,,,,,,311330,,,,,,1397110151507,NITRATE COMPOUNDS,N511,NO,NON-PBT,NO,0,NO,R,Pounds,0,0,0,0,0,0,0,0,0,0,0,0,0,0,194391,194391,0,0,0,0,0,0,0,0,0,0,0,0,0,0,0,0,0,0,0,0,0,0,0,0,0,0,0,0,0,0,0,0,0,0,0,194391,0,0,0,0,0,0,0,0,0,0,194391,0,1.56,NA,NA
1997,07002CSCHM40AVE,VERTELLUS PERFORMANCE MATERIALS INC,40 AVE A,BAYONNE,HUDSON,NJ,07002,40.649649,-74.141741,2869,,,,,,325199,,,,,,1397110123977,XYLENE (MIXED ISOMERS),001330207,YES,NON-PBT,NO,0,NO,R,Pounds,190,188,0,0,0,0,0,0,0,0,0,0,378,0,0,0,0,0,0,0,0,0,0,0,0,0,0,0,0,0,0,0,0,0,0,0,0,0,0,0,0,0,0,0,18380,0,0,0,0,18380,378,378,0,0,0,0,0,0,0,0,0,18380,18758,0,1.38,VETELLUS SPECIALTIES INC,006418685
1997,07109VNDYKMAINW,ISP VAN DYK INC.,11 WILLIAM ST.,BELLEVILLE,ESSEX,NJ,07109,40.784431,-74.149985,2844,,,,,,325412,,,,,,1397110268190,TOLUENE,000108883,YES,NON-PBT,NO,0,NO,R,Pounds,0,8660,0,0,0,0,0,0,0,0,0,0,8660,0,293,293,0,0,0,0,0,0,0,0,0,0,0,0,0,0,0,0,0,0,0,0,0,0,0,0,1584093,5485,1589578,0,0,0,0,0,0,0,8660,8660,0,0,0,0,0,1589578,0,0,0,293,1598531,0,1.13,INTERNATIONAL SPECIALTY PRODUCTS INC,187245105
1997,07095LCNBL11CRA,GENTEK BUILDING PRODUCTS,11 CRAGWOOD RD,AVENEL,MIDDLESEX,NJ,07001,40.595978,-74.254459,3479,3444,,,,,332812,,,,,,1397110284155,N-BUTYL ALCOHOL,000071363,NO,NON-PBT,NO,0,NO,R,Pounds,713,1283,0,0,0,0,0,0,0,0,0,0,1996,0,0,0,0,0,0,0,0,0,0,0,0,0,0,0,0,0,0,0,0,0,0,0,0,0,0,0,2373,0,2373,0,0,125,0,0,0,125,1996,2000,0,0,0,0,0,2400,0,0,19000,130,23530,0,.78,ASSOCIATED MATERIALS INC,107301319
1997,07735FFFRG800RO,INTERNATIONAL FLAVORS & FRAGRANCES INC.,800 ROSE LN.,UNION BEACH,MONMOUTH,NJ,07735,40.44335,-74.15551,2869,,,,,,325620,,,,,,1397110401116,CATECHOL,000120809,YES,NON-PBT,NO,0,NO,R,Pounds,0,0,0,0,0,0,0,0,0,0,0,0,0,0,0,0,0,0,0,0,0,0,0,0,0,0,0,0,0,0,0,0,0,0,0,0,0,0,0,0,0,0,0,0,0,0,0,0,0,0,0,0,0,0,0,0,0,0,0,0,0,0,0,0,.98,INTERNATIONAL FLAVORS & FRAGRANCES INC,001534833
1997,08818MBLCHRT27A,MOBIL CHEMICAL CO SYNTHETICS DIV,2195 RT 27 AT VINEYARD RD,EDISON,MIDDLESEX,NJ,088183140,40.534167,-74.381806,2865,,,,,,325110,,,,,,1397110190269,ETHYLBENZENE,000100414,YES,NON-PBT,NO,0,NO,R,Pounds,197,209,0,0,0,0,0,0,0,0,0,0,406,0,13,13,0,0,0,0,0,0,0,0,0,0,0,0,0,0,0,0,0,0,0,0,0,0,0,0,98,139822,139920,0,1118,0,0,0,11,1129,406,406,0,0,0,0,0,139920,7268,0,0,1142,148736,0,.92,EXXON MOBIL CORP,001213214
1997,08818MBLCHRT27A,MOBIL CHEMICAL CO SYNTHETICS DIV,2195 RT 27 AT VINEYARD RD,EDISON,MIDDLESEX,NJ,088183140,40.534167,-74.381806,2865,,,,,,325100,,,,,,1397110190333,ZINC COMPOUNDS,N982,NO,NON-PBT,YES,1,NO,R,Pounds,0,4,0,0,0,0,0,0,0,0,0,0,4,178,0,178,0,0,0,0,0,0,572,0,0,0,0,0,0,0,0,0,0,572,0,0,0,0,0,0,0,0,0,0,0,0,0,0,0,0,754,754,0,0,0,0,0,0,0,0,0,0,754,0,.89,EXXON MOBIL CORP,001213214
1997,08512NTNLMABEEL,HONEYWELL NMD,20 ABEEL RD.,MONROE TOWNSHIP,MIDDLESEX,NJ,08831,40.340044,-74.479532,3081,3083,,,,,326113,,,,,,1397110247335,TOLUENE,000108883,YES,NON-PBT,NO,0,NO,R,Pounds,0,262,0,0,0,0,0,0,0,0,0,0,262,0,0,0,0,0,0,0,0,0,0,0,0,0,0,0,0,0,0,0,0,0,0,0,0,0,0,0,0,0,0,0,11831,0,0,0,0,11831,262,262,0,0,0,0,0,0,0,0,25952,11831,38045,0,1.11,HONEYWELL INTERNATIONAL INC,139891877
1997,08067THGNCUSRTE,POLYONE CORP,US RT 130 & PORCUPINE RD,PEDRICKTOWN,SALEM,NJ,08067,39.766944,-75.421361,2821,,,,,,325211,,,,,,1397110265636,ACRYLIC ACID,000079107,YES,NON-PBT,NO,0,NO,R,Pounds,97,88,0,0,0,0,0,0,0,0,0,0,185,0,0,0,0,0,0,0,0,0,0,0,0,0,0,0,0,0,0,0,0,0,0,0,0,0,0,0,0,0,0,0,0,0,0,0,0,0,185,185,0,0,0,0,0,0,0,0,2877,0,3062,0,1.22,POLYONE CORP,801040023
1997,08876PRNTN50MEI,AZ ELECTRONIC MATERIALS USA CORP,50-70 MEISTER AVE,BRANCHBURG,SOMERSET,NJ,08876,40.601465,-74.697066,3861,2899,,,,,333315,,,,,,1397110409176,"SULFURIC ACID (1994 AND AFTER ""ACID AEROSOLS"" ONLY)",007664939,NO,NON-PBT,NO,0,NO,R,Pounds,100,900,0,0,0,0,0,0,0,0,0,0,1000,0,0,0,0,0,0,0,0,0,0,0,0,0,0,0,0,0,0,0,0,0,0,0,0,0,0,0,0,0,0,0,0,0,0,4645,0,4645,1000,1000,0,0,0,0,0,0,0,0,931648,0,932648,0,.99,AZ ELECTRONIC MATERIALS,NA
1997,07072GNSCH611BR,NOVUS FINE CHEMICALS,611BROAD ST,CARLSTADT,BERGEN,NJ,07072,40.84166,-74.09949,2833,,,,,,325411,,,,,,1397110367861,FORMIC ACID,000064186,NO,NON-PBT,NO,0,NO,R,Pounds,5,89,0,0,0,0,0,0,0,0,0,0,94,0,0,0,0,0,0,0,0,0,0,0,0,0,0,0,0,0,0,0,0,0,0,0,0,0,0,0,0,0,0,0,0,0,0,0,0,0,94,94,0,0,0,0,0,0,0,0,0,0,94,0,1.94,NA,NA
1997,07072GNSCH611BR,NOVUS FINE CHEMICALS,611BROAD ST,CARLSTADT,BERGEN,NJ,07072,40.84166,-74.09949,2833,,,,,,325411,,,,,,1397110367935,SODIUM NITRITE,007632000,NO,NON-PBT,YES,2,NO,R,Pounds,0,2,0,0,0,0,0,0,0,0,0,0,2,0,1964,1964,0,0,0,0,0,0,0,0,0,0,0,0,0,0,0,0,0,0,0,0,0,0,0,0,0,0,0,0,0,0,0,0,0,0,2,2,0,0,0,0,0,0,0,0,0,1964,1966,0,.87,NA,NA
1997,08066JHNSN2001A,JOHNSON MATTHEY,2001 NOLTE DR,WEST DEPTFORD,GLOUCESTER,NJ,08066,39.81925,-75.2045,3341,2834,,,,,331492,,,,,,1397110155797,METHANOL,000067561,YES,NON-PBT,NO,0,NO,R,Pounds,6,150,0,0,0,0,0,0,0,0,0,0,156,0,0,0,0,0,0,0,0,0,0,0,0,0,0,0,0,0,0,0,0,0,14500,0,0,0,0,14500,0,0,0,0,12600,0,58600,0,16900,88100,156,160,0,0,0,0,5900,14500,0,0,0,88300,108860,0,1.49,JOHNSON MATTHEY INC,002326734
1997,08876THCNNROUTE,ETHICON INC,RT 22 W,SOMERVILLE,SOMERSET,NJ,08876,40.607087,-74.702139,3842,,,,,,334510,,,,,,1397110099254,CHROMIUM,007440473,YES,NON-PBT,YES,1,YES,R,Pounds,0,0,0,0,0,0,0,0,0,0,0,0,0,0,0,0,0,0,0,0,0,0,3800,0,0,0,0,0,0,0,0,0,0,4050,0,0,0,0,9700,9700,0,0,0,250,0,0,0,0,0,0,4050,3800,0,0,0,0,0,0,0,9700,0,50,13550,0,.67,JOHNSON & JOHNSON INC,001307081
1997,07054SCLCT7EAST,ASCO POWER TECHS. L.P.,7 EASTMANS RD.,PARSIPPANY,MORRIS,NJ,07054,40.844611,-74.427523,3613,,,,,,335313,,,,,,1397110237601,COPPER,007440508,NO,NON-PBT,YES,1,NO,R,Pounds,4,0,0,0,0,0,0,0,0,0,0,0,4,0,0,0,0,0,0,0,0,0,0,0,0,0,0,0,0,0,0,0,0,0,0,68000,0,0,16,68016,0,0,0,0,0,0,0,0,0,0,4,20,0,0,0,0,0,0,0,68000,0,0,68020,0,1.01,EMERSON ELECTRIC CO,006269633
1997,08332SLVRT301RI,SILVERTON MARINE CORP,301 RIVERSIDE DR,MILLVILLE,CUMBERLAND,NJ,08332,39.39247,-75.04294,3732,,,,,,336612,,,,,,1397110241662,STYRENE,000100425,YES,NON-PBT,NO,0,YES,R,Pounds,0,107795,0,0,0,0,0,0,0,0,0,0,107795,0,0,0,0,0,0,0,0,0,0,0,0,0,0,0,0,0,0,0,0,0,0,0,0,0,0,0,20943,0,20943,0,0,0,0,0,0,0,107795,107795,0,0,0,0,0,16193,0,0,0,0,123988,0,1.02,MORGAN INDUSTRIES,NA
1997,07882BSFCRPERSH,BASF CORP,2 PLEASANT VIEW AVE,WASHINGTON,WARREN,NJ,07882,40.754803,-74.9731,2843,2869,,,,,325613,,,,,,1397110331737,N-BUTYL ALCOHOL,000071363,NO,NON-PBT,NO,0,NO,R,Pounds,2188,638,0,0,0,0,0,0,0,0,0,0,2826,0,5,5,0,0,0,0,0,0,0,0,0,0,0,0,0,0,0,0,0,0,0,0,0,0,0,0,0,0,0,0,0,0,0,0,0,0,2826,2826,0,0,0,0,0,0,0,0,0,1,2827,0,1.12,BASF CORP,071014385
1997,08023DPNTCRT130,DUPONT CHAMBERS WORKS,RT 130,DEEPWATER,SALEM,NJ,08023,39.682362,-75.491379,2821,2843,2865,2869,,,325193,,,,,,1397110460805,ANILINE,000062533,YES,NON-PBT,NO,0,NO,R,Pounds,0,49,1104,0,0,181,0,0,0,0,0,0,1334,0,0,0,0,0,0,0,0,0,66,0,0,0,0,0,0,0,0,0,0,66,0,0,0,0,0,0,0,0,0,0,0,0,0,0,0,0,1400,1400,0,0,0,0,0,0,0,0,219673,0,221073,0,1.28,E I DU PONT DE NEMOURS & CO INC,001315704
1997,08023DPNTCRT130,DUPONT CHAMBERS WORKS,RT 130,DEEPWATER,SALEM,NJ,08023,39.682362,-75.491379,2821,2843,2865,2869,,,325193,,,,,,1397110460906,DICHLORODIFLUOROMETHANE,000075718,NO,NON-PBT,NO,0,NO,R,Pounds,0,0,0,0,0,0,0,0,0,0,0,0,0,0,0,0,0,0,0,0,0,0,0,0,0,0,0,0,0,0,0,0,0,0,0,0,0,0,0,0,0,0,0,0,0,0,0,0,0,0,0,0,0,0,0,0,0,0,1015,0,0,0,1015,0,.9,E I DU PONT DE NEMOURS & CO INC,001315704
1997,07110TLNTC10KIN,CROMPTON COLORS INC,10 KINGSLAND ST,NUTLEY,ESSEX,NJ,07110,40.82683,-74.14284,2865,,,,,,325132,,,,,,1397111016349,DIETHYL SULFATE,000064675,YES,NON-PBT,NO,0,YES,A,Pounds,0,0,0,0,0,0,0,0,0,0,0,0,0,0,0,0,0,0,0,0,0,0,0,0,0,0,0,0,0,0,0,0,0,0,0,0,0,0,0,0,0,0,0,0,0,0,0,0,0,0,0,0,0,0,0,0,0,0,0,0,0,0,0,0,,CROMPTON CORP,052813136
1997,07105LNCHM268DO,ELAN CHEMICAL CO INC,268 DOREMUS AVE,NEWARK,ESSEX,NJ,07105,40.723333,-74.123333,2869,,,,,,325199,,,,,,1397111030918,FORMIC ACID,000064186,NO,NON-PBT,NO,0,NO,A,Pounds,0,0,0,0,0,0,0,0,0,0,0,0,0,0,0,0,0,0,0,0,0,0,0,0,0,0,0,0,0,0,0,0,0,0,0,0,0,0,0,0,0,0,0,0,0,0,0,0,0,0,0,0,0,0,0,0,0,0,0,0,0,0,0,0,,NA,NA
1997,07544MNNDS76E24,MONA INDUSTRIES INC.,76 E 24TH ST,PATERSON,PASSAIC,NJ,07514,40.937764,-74.14483,2843,,,,,,325613,,,,,,1397115038440,MALEIC ANHYDRIDE,000108316,YES,NON-PBT,NO,0,NO,R,Pounds,5,5,0,0,0,0,0,0,0,0,0,0,10,0,750,750,0,0,0,0,0,0,0,0,0,0,0,0,0,0,0,0,0,0,0,0,0,0,0,0,0,0,0,0,0,0,0,0,0,0,10,603,0,0,0,0,0,0,0,0,0,0,603,0,.95,ICI UNIQEMA INC,132440517
1997,07544MNNDS76E24,MONA INDUSTRIES INC.,76 E 24TH ST,PATERSON,PASSAIC,NJ,07514,40.937764,-74.14483,2843,,,,,,325613,,,,,,1397115038491,CHLOROACETIC ACID,000079118,YES,NON-PBT,NO,0,NO,R,Pounds,5,5,0,0,0,0,0,0,0,0,0,0,10,0,250,250,0,0,0,0,0,0,0,0,0,0,0,0,0,0,0,0,0,0,0,0,0,0,0,0,0,0,0,0,0,0,0,0,0,0,10,241,0,0,0,0,0,0,0,0,0,0,241,0,1.17,ICI UNIQEMA INC,132440517
1997,07508MNNRT293MA,MANNER TEXTILE PROCESSING CORP,293 MORRISSEE AVE,HALEDON,PASSAIC,NJ,07508,40.932959,-74.185014,2262,,,,,,313311,,,,,,1397115093128,PHOSPHORIC ACID,007664382,NO,NON-PBT,NO,0,NO,R,Pounds,0,0,0,0,0,0,0,0,0,0,0,0,0,0,4,4,0,0,0,0,0,0,0,0,0,0,0,0,0,0,0,0,0,0,0,0,0,0,0,0,0,0,0,0,0,0,0,0,0,0,0,0,0,0,0,0,0,0,0,0,0,0,0,0,,NA,NA
1997,08077HGNSCRIVER,HOEGANAES CORP,1001 TAYLORS LN,CINNAMINSON,BURLINGTON,NJ,08077,40.022222,-74.98611,3399,,,,,,331221,,,,,,1397115073316,COPPER COMPOUNDS,N100,NO,NON-PBT,YES,1,NO,R,Pounds,250,250,5,0,0,0,0,0,0,0,0,0,505,0,0,0,0,0,0,0,0,0,250,0,0,0,0,0,0,0,500,0,0,750,0,1200,0,0,0,1200,0,0,0,0,0,0,0,0,0,0,1255,790,0,0,0,0,0,0,0,1200,80,0,2070,0,1.04,GKN NA INC,071754337
1997,07114CKSNP256VA,COOKSON PIGMENTS INC.,256 VANDERPOOL ST.,NEWARK,ESSEX,NJ,07114,40.716285,-74.176279,2816,2865,,,,,325000,,,,,,1397115143861,LEAD COMPOUNDS,N420,YES,PBT,YES,1,NO,R,Pounds,15,1077,0,0,0,0,0,0,0,0,0,0,1092,583,0,583,0,10881,0,0,0,0,2003,0,0,0,0,0,0,0,0,0,0,12884,0,49968,0,0,0,49968,0,0,0,0,0,0,0,0,0,0,14559,13976,0,0,0,0,0,0,0,49968,0,583,64527,0,.84,COOKSON AMERICA INC,001658046
1997,08052THMSNPINEL,THOMSON LAMINATION CO.,PINE & LINWOOD AVE.,MAPLE SHADE,BURLINGTON,NJ,08052,39.96012,-74.992699,3469,,,,,,333514,,,,,,1397115317846,NICKEL,007440020,YES,NON-PBT,YES,1,YES,R,Pounds,0,0,0,0,0,0,0,0,0,0,0,0,0,0,0,0,0,0,0,0,0,0,0,0,0,0,0,0,0,0,0,0,0,0,0,63942,0,0,0,63942,0,0,0,0,0,0,0,0,0,0,0,0,0,0,0,0,0,0,0,0,0,0,0,0,,NA,NA
1997,08023DPNTCRT130,DUPONT CHAMBERS WORKS,RT 130,DEEPWATER,SALEM,NJ,08023,39.682362,-75.491379,2821,2843,2865,2869,,,325120,,,,,,1397110461314,ZINC COMPOUNDS,N982,NO,NON-PBT,YES,1,NO,R,Pounds,0,0,5220,0,0,5696,0,0,0,0,0,0,10916,0,0,0,0,0,0,0,0,0,15229,0,0,0,0,0,0,0,0,0,0,15229,0,0,0,0,0,0,0,0,0,0,3788,0,0,0,0,3788,26145,26145,0,0,0,0,0,0,0,0,0,3788,29933,0,,E I DU PONT DE NEMOURS & CO INC,001315704
1997,08052CVCSP2980R,CVC SPECIALTY CHEMICALS INC,2980 RT 73 N,MAPLE SHADE,BURLINGTON,NJ,08052,39.95898,-74.98859,2869,,,,,,325211,,,,,,1397110498995,EPICHLOROHYDRIN,000106898,YES,NON-PBT,NO,0,YES,R,Pounds,0,11,0,0,0,0,0,0,0,0,0,0,11,0,0,0,0,0,0,0,0,0,0,0,0,0,0,0,0,0,0,0,0,0,0,0,0,0,0,0,0,0,0,0,0,0,0,0,0,0,11,0,0,0,0,0,0,0,56200,0,0,0,56200,0,0,EMERALD PERFORMANCE MATERIALS LLC,619385586
1997,07036PRMNT1515W,PARAMOUNT METAL FINISHING,1515 W ELIZABETH AVE,LINDEN,UNION,NJ,07036,40.619973,-74.263704,3471,,,,,,332813,,,,,,1397110499062,NITRATE COMPOUNDS,N511,NO,NON-PBT,NO,0,NO,R,Pounds,0,0,0,0,0,0,0,0,0,0,0,0,0,0,33730,33730,0,0,0,0,0,0,0,0,0,0,0,0,0,0,0,0,0,0,0,0,0,0,0,0,0,0,0,0,0,0,0,0,0,0,0,33730,0,0,0,0,0,0,0,0,0,0,33730,0,0,NA,NA
1997,07071SKCRP201PO,SIKA CORP,201 POLITO AVE,LYNDHURST,BERGEN,NJ,07071,40.804722,-74.109444,2891,,,,,,325520,,,,,,1397111032710,FORMIC ACID,000064186,NO,NON-PBT,NO,0,NO,A,Pounds,0,0,0,0,0,0,0,0,0,0,0,0,0,0,0,0,0,0,0,0,0,0,0,0,0,0,0,0,0,0,0,0,0,0,0,0,0,0,0,0,0,0,0,0,0,0,0,0,0,0,0,0,0,0,0,0,0,0,0,0,0,0,0,0,,SIKA CORP,NA
1997,07504MRTNC335MC,MORTON INTL. INC. PATERSON FACILITY,335 MCLEAN BLVD.,PATERSON,PASSAIC,NJ,07504,40.90406,-74.13515,2865,,,,,,325132,,,,,,1397111038838,SODIUM NITRITE,007632000,NO,NON-PBT,YES,2,NO,A,Pounds,0,0,0,0,0,0,0,0,0,0,0,0,0,0,0,0,0,0,0,0,0,0,0,0,0,0,0,0,0,0,0,0,0,0,0,0,0,0,0,0,0,0,0,0,0,0,0,0,0,0,0,0,0,0,0,0,0,0,0,0,0,0,0,0,,ROHM & HAAS CO,002292043
1997,08902RSQBBONESQ,E R SQUIBB & SONS LLC,ONE SQUIBB DR,NORTH BRUNSWICK,MIDDLESEX,NJ,08902,40.473889,-74.445278,2834,,,,,,325412,,,,,,1397111072260,CHROMIUM,007440473,YES,NON-PBT,YES,1,YES,A,Pounds,0,0,0,0,0,0,0,0,0,0,0,0,0,0,0,0,0,0,0,0,0,0,0,0,0,0,0,0,0,0,0,0,0,0,0,0,0,0,0,0,0,0,0,0,0,0,0,0,0,0,0,0,0,0,0,0,0,0,0,0,0,0,0,0,,BRISTOL-MYERS SQUIBB CO,001288497
1997,07104RDLLT849BR,SETON CO LEATHER DIV,849 BROADWAY,NEWARK,ESSEX,NJ,07104,40.778564,-74.156388,3111,,,,,,316110,,,,,,1397115155970,FORMIC ACID,000064186,NO,NON-PBT,NO,0,NO,R,Pounds,971,0,0,0,0,0,0,0,0,0,0,0,971,0,0,0,0,0,0,0,0,0,0,0,0,0,0,0,0,0,0,0,0,0,0,0,0,0,0,0,0,0,0,0,0,0,0,0,0,0,971,971,0,0,0,0,0,0,0,0,387534,0,388505,0,.83,SETON CO,002147312
1997,07036PLTRN301CO,PLATRONICS INC.,301 COMMERCE RD.,LINDEN,UNION,NJ,07036,40.63031,-74.241759,3471,,,,,,332813,,,,,,1397115108058,PHOSPHORIC ACID,007664382,NO,NON-PBT,NO,0,NO,R,Pounds,5,4,0,0,0,0,0,0,0,0,0,0,9,0,0,0,0,0,0,0,0,0,0,0,0,0,0,0,0,0,0,0,0,0,0,0,0,0,0,0,0,0,0,0,0,0,0,0,8733,8733,9,9,0,0,0,0,0,0,0,0,6000,8733,14742,0,.96,NA,NA
1997,07008XFRDS600MI,OXFORD INSTRUMENTS,600 MILIK ST,CARTERET,MIDDLESEX,NJ,07008,40.589338,-74.248225,3999,,,,,,331422,,,,,,1397115215865,COPPER,007440508,NO,NON-PBT,YES,1,NO,R,Pounds,0,0,0,0,0,0,0,0,0,0,0,0,0,0,0,0,0,0,0,0,0,0,0,0,0,0,0,0,0,0,0,0,0,0,0,0,0,0,86500,86500,0,0,0,0,0,0,0,0,0,0,0,86500,0,0,0,0,0,0,0,86500,0,0,173000,0,1.2,NA,NA
1997,08902JHNSNUSROU,JOHNSON & JOHNSON CONSUMER PRODUCTS CO,US RT 1 & AARON RD,NORTH BRUNSWICK,MIDDLESEX,NJ,08902,40.43813,-74.503757,3842,,,,,,339113,,,,,,1397110417918,ETHYLENE OXIDE,000075218,YES,NON-PBT,NO,0,YES,R,Pounds,2720,258,0,0,0,0,0,0,0,0,0,0,2978,0,0,0,0,0,0,0,0,0,0,0,0,0,0,0,0,0,0,0,0,0,0,0,0,0,0,0,0,0,0,0,0,0,0,0,0,0,2978,2978,0,0,0,0,0,0,0,0,133387,0,136365,0,1.07,JOHNSON & JOHNSON,001307081
1997,07647MRCNG220PE,AMERICAN GAS & CHEMICAL,220 PEGASUS AVE,NORTHVALE,BERGEN,NJ,07647,41.012445,-73.944036,2843,,,,,,325188,,,,,,1397111008999,ETHYLENE GLYCOL,000107211,YES,NON-PBT,NO,0,NO,A,Pounds,0,0,0,0,0,0,0,0,0,0,0,0,0,0,0,0,0,0,0,0,0,0,0,0,0,0,0,0,0,0,0,0,0,0,0,0,0,0,0,0,0,0,0,0,0,0,0,0,0,0,0,0,0,0,0,0,0,0,0,0,0,0,0,0,,NA,NA
1997,08902PRMCLUSROU,PERMACEL,US RT 1,NORTH BRUNSWICK,MIDDLESEX,NJ,08902,40.467922,-74.440209,2672,,,,,,322222,,,,,,1397111045187,BUTYL ACRYLATE,000141322,NO,NON-PBT,NO,0,NO,A,Pounds,0,0,0,0,0,0,0,0,0,0,0,0,0,0,0,0,0,0,0,0,0,0,0,0,0,0,0,0,0,0,0,0,0,0,0,0,0,0,0,0,0,0,0,0,0,0,0,0,0,0,0,0,0,0,0,0,0,0,0,0,0,0,0,0,,NITTO AMERICAS,NA
1997,07072KRHNN3VETE,KROHN INDUSTRIES INC.,303 VETERANS BLVD.,CARLSTADT,BERGEN,NJ,070722708,40.824851,-74.065813,3356,,,,,,331491,,,,,,1397115067023,COPPER,007440508,NO,NON-PBT,YES,1,NO,R,Pounds,0,5,0,0,0,0,0,0,0,0,0,0,5,0,0,0,0,0,0,0,0,0,0,0,0,0,0,0,0,0,0,0,0,0,0,0,0,0,0,0,0,0,0,0,0,0,0,0,5,5,5,3,0,0,0,0,0,0,1102,0,0,0,1105,0,1.09,NA,NA
1997,07407CSTMC30PAU,CUSTOM CHEMICALS CORP,30 PAUL KOHNER PL,ELMWOOD PARK,BERGEN,NJ,07407,40.901389,-74.110972,2851,,,,,,325510,,,,,,1397115217046,XYLENE (MIXED ISOMERS),001330207,YES,NON-PBT,NO,0,NO,R,Pounds,250,750,0,0,0,0,0,0,0,0,0,0,1000,0,0,0,0,0,0,0,0,0,0,0,0,0,0,0,0,0,0,0,0,0,0,0,0,0,0,0,8310,0,8310,0,0,0,0,0,0,0,1000,1000,0,0,0,0,0,7540,0,0,0,0,8540,0,1.14,PENN COLOR INC,054711163
1997,08310DVFVN711SH,IMMUNOGENETICS INC. VINELAND LABORATORIES DIV.,711 S. HARDING HWY.,BUENA,ATLANTIC,NJ,08310,39.516212,-74.928134,2834,,,,,,325412,,,,,,1397115178612,COPPER COMPOUNDS,N100,NO,NON-PBT,YES,1,NO,R,Pounds,2,0,0,0,0,0,0,0,0,0,0,0,2,201,0,201,0,0,0,0,0,0,0,0,0,0,0,0,0,0,0,0,0,0,0,0,0,0,0,0,0,0,0,0,0,0,0,0,0,0,203,2,0,0,0,0,0,0,20,0,0,201,223,0,,IGI INC,005995048
1997,08873MCRST150BE,MICRO STAMPING CORP,140 BELMONT DR,SOMERSET,SOMERSET,NJ,08873,40.540444,-74.538694,3469,,,,,,339112,,,,,,1397115233936,MANGANESE,007439965,YES,NON-PBT,YES,1,NO,R,Pounds,0,0,0,0,0,0,0,0,0,0,0,0,0,0,0,0,0,0,0,0,0,0,0,0,0,0,0,0,0,0,0,0,0,0,0,0,0,0,44113,44113,0,0,0,0,0,0,0,0,0,0,0,0,0,0,0,0,0,0,0,44113,0,0,44113,0,.9,NA,NA
1997,07719RCRSRSTATE,AIR CRUISERS CO.,RTE. 34 & AIRPORT RD.,WALL,MONMOUTH,NJ,07719,40.183667,-74.114611,3069,,,,,,336360,,,,,,1397115318141,METHYL ETHYL KETONE,000078933,NO,NON-PBT,NO,0,NO,R,Pounds,11313,0,0,0,0,0,0,0,0,0,0,0,11313,0,0,0,0,0,0,0,0,0,0,0,0,0,0,0,0,0,0,0,0,0,0,0,0,0,0,0,1155,0,1155,0,0,0,0,0,0,0,11313,12468,0,0,0,0,0,1155,0,0,0,0,13623,0,1.2,ZODIAC SA,277636981
1997,07083FRMST941BA,FOREMOST MANUFACTURING CO INC,941 BALL AVE,UNION,UNION,NJ,07083,40.689617,-74.289002,3469,,,,,,332000,,,,,,1397115326009,SODIUM NITRITE,007632000,NO,NON-PBT,YES,2,NO,R,Pounds,0,0,0,0,0,0,0,0,0,0,0,0,0,0,92668,92668,0,0,0,0,0,0,0,0,0,0,0,0,0,0,0,0,0,0,0,0,0,0,0,0,0,0,0,0,0,0,0,0,0,0,0,92668,0,0,0,0,0,0,0,0,0,0,92668,0,.84,NA,NA
1997,07071SKCRP201PO,SIKA CORP,201 POLITO AVE,LYNDHURST,BERGEN,NJ,07071,40.804722,-74.109444,2891,,,,,,325520,,,,,,1397111032746,SODIUM NITRITE,007632000,NO,NON-PBT,YES,2,NO,A,Pounds,0,0,0,0,0,0,0,0,0,0,0,0,0,0,0,0,0,0,0,0,0,0,0,0,0,0,0,0,0,0,0,0,0,0,0,0,0,0,0,0,0,0,0,0,0,0,0,0,0,0,0,0,0,0,0,0,0,0,0,0,0,0,0,0,,SIKA CORP,NA
1997,07032DRWCH1106H,ASHLAND INC -  KEARNY NJ,1106 HARRISON AVE,KEARNY,HUDSON,NJ,07032,40.748537,-74.141064,2899,,,,,,325998,,,,,,1397111057360,NITRATE COMPOUNDS,N511,NO,NON-PBT,NO,0,NO,A,Pounds,0,0,0,0,0,0,0,0,0,0,0,0,0,0,0,0,0,0,0,0,0,0,0,0,0,0,0,0,0,0,0,0,0,0,0,0,0,0,0,0,0,0,0,0,0,0,0,0,0,0,0,0,0,0,0,0,0,0,0,0,0,0,0,0,,ASHLAND INC,005003264
1997,08901RHNPL298JE,RHODIA INC.,298 JERSEY AVE.,NEW BRUNSWICK,MIDDLESEX,NJ,08901,40.485944,-74.460361,2869,,,,,,325199,,,,,,1397115049874,PHENOL,000108952,YES,NON-PBT,NO,0,NO,R,Pounds,1900,700,0,0,0,0,0,0,0,0,0,0,2600,0,266000,266000,0,0,0,0,0,0,0,0,0,0,0,0,0,0,0,200,0,200,0,0,0,0,0,0,0,0,0,0,0,0,0,0,0,0,2800,2600,0,0,0,0,0,0,0,0,0,266000,268600,0,1.3,RHODIA INC,002959810
1997,08810RPRDCDAYTO,WACKER POLYMERS,11 CORN RD,DAYTON,MIDDLESEX,NJ,08810,40.365,-74.491667,2821,,,,,,325211,,,,,,1397115292346,FORMALDEHYDE,000050000,YES,NON-PBT,NO,0,YES,R,Pounds,53,767,0,0,0,0,0,0,0,0,0,0,820,0,210,210,0,0,0,0,0,0,38,0,0,0,0,0,0,0,0,0,0,38,0,0,0,0,0,0,0,0,0,0,0,0,0,0,0,0,858,820,0,0,0,0,0,0,0,0,970,210,2000,0,108,WACKER CHEMICAL CORP,075400671
1997,07114RCCRP470FR,OMG FIDELITY INC.,470 FRELINGHUYSEN AVE.,NEWARK,ESSEX,NJ,07114,40.704682,-74.194079,2899,2819,,,,,325998,,,,,,1397110455312,NICKEL COMPOUNDS,N495,YES,NON-PBT,YES,1,NO,R,Pounds,60,38,0,0,0,0,0,0,0,0,0,0,98,3,0,3,0,1530,0,0,0,0,0,0,0,0,0,0,0,0,0,0,0,1530,0,1953,0,0,0,1953,0,0,0,0,0,0,0,0,0,0,1631,1632,0,0,0,0,0,0,0,1953,0,2,3587,0,1.36,OM GROUP INC,556869238
1997,07105RSCLR170BL,ROSE COLOR INC.,170 BLANCHARD ST.,NEWARK,ESSEX,NJ,07105,40.738913,-74.1284,2865,,,,,,325182,,,,,,1397111001095,O-TOLUIDINE,000095534,YES,NON-PBT,NO,0,YES,A,Pounds,0,0,0,0,0,0,0,0,0,0,0,0,0,0,0,0,0,0,0,0,0,0,0,0,0,0,0,0,0,0,0,0,0,0,0,0,0,0,0,0,0,0,0,0,0,0,0,0,0,0,0,0,0,0,0,0,0,0,0,0,0,0,0,0,,NEXTECH ENTERPRISES INTL INC,NA
1997,08859HRCLSSOUTH,HERCULES INC (PARLIN PLANT),50 S MINISINK AVE,PARLIN,MIDDLESEX,NJ,088591089,40.458611,-74.3375,2821,2869,,,,,325199,,,,,,1397110514799,CERTAIN GLYCOL ETHERS,N230,YES,NON-PBT,NO,0,NO,R,Pounds,0,0,0,0,0,0,0,0,0,0,0,0,0,0,131252,131252,0,0,0,0,0,0,0,0,0,0,0,0,0,0,0,0,0,0,0,0,0,0,0,0,0,0,0,0,0,0,0,0,0,0,0,0,0,0,0,0,0,0,0,0,0,131252,131252,0,1.06,ASHLAND INC,005003264
1997,07073DBSCHUNION,DIAMOND CHEMICAL CO INC,UNION AVE & DUBOIS ST,EAST RUTHERFORD,BERGEN,NJ,07073,40.82527,-74.0944,2842,,,,,,325611,,,,,,1397115007205,DIETHANOLAMINE,000111422,YES,NON-PBT,NO,0,NO,R,Pounds,0,0,0,0,0,0,0,0,0,0,0,0,0,0,5,5,0,0,0,0,0,0,0,0,0,0,0,0,0,0,0,0,0,0,0,0,0,0,0,0,0,0,0,0,0,0,0,0,0,0,0,0,0,0,0,0,0,0,0,0,1,0,1,0,0,NA,NA
1997,07470CLFTNBURGE,CLIFTON ADHESIVE INC,48 BURGESS PL,WAYNE,PASSAIC,NJ,07470,40.905944,-74.259944,2891,,,,,,325520,,,,,,1397115015164,XYLENE (MIXED ISOMERS),001330207,YES,NON-PBT,NO,0,NO,R,Pounds,190,0,0,0,0,0,0,0,0,0,0,0,190,0,0,0,0,0,0,0,0,0,0,0,0,0,0,0,0,0,0,0,0,0,0,0,0,0,0,0,0,0,0,0,0,0,0,0,0,0,190,190,0,0,0,0,0,0,0,0,0,0,190,0,.38,CLIFTON ADHESIVE INC,002140499
1997,07072PNRND401WA,PIONEER INDUSTRIES INC.,401 WASHINGTON AVE.,CARLSTADT,BERGEN,NJ,07072,40.820113,-74.063406,3442,,,,,,332321,,,,,,1397115199857,TOLUENE,000108883,YES,NON-PBT,NO,0,NO,R,Pounds,13766,261,0,0,0,0,0,0,0,0,0,0,14027,0,0,0,0,0,0,0,0,0,0,0,0,0,0,0,0,0,0,0,0,0,2182,0,0,0,0,2182,0,0,0,0,0,0,0,0,0,0,14027,14027,0,0,0,0,0,0,0,2182,0,0,16209,0,1.08,NA,NA
1997,07054LLSTT1WOOD,ALLSTATE CAN CORP,1 WOOD HOLLOW RD,PARSIPPANY,MORRIS,NJ,07054,40.85798,-74.41823,3411,,,,,,332431,,,,,,1397115238382,COPPER,007440508,NO,NON-PBT,YES,1,NO,R,Pounds,0,0,0,0,0,0,0,0,0,0,0,0,0,0,0,0,0,0,0,0,0,0,0,0,0,0,0,0,0,0,0,0,0,0,0,93000,0,0,0,93000,0,0,0,0,0,0,0,0,0,0,0,0,0,0,0,0,0,0,0,93000,0,0,93000,0,,NA,NA
1997,08822NTDST408RO,UNITED STATES BRONZE POWDERS INC,408 RT 202 N,FLEMINGTON,HUNTERDON,NJ,08822,40.50641,-74.840537,3399,,,,,,331221,,,,,,1397115238558,ZINC (FUME OR DUST),007440666,NO,NON-PBT,YES,4,NO,R,Pounds,226,12,0,1,0,0,0,0,0,0,0,0,239,0,0,0,0,0,0,0,0,0,0,0,0,0,0,0,0,0,0,0,0,0,0,0,0,0,0,0,0,0,0,0,0,0,0,500,0,500,239,238,0,0,0,0,0,0,0,0,0,156,394,0,.98,NA,NA
1997,07080CSMDF3459S,STERIS ISOMEDIX SERVICES,3459 S CLINTON AVE,SOUTH PLAINFIELD,MIDDLESEX,NJ,07080,40.569039,-74.430011,3841,,,,,,332212,,,,,,1397116003397,PROPYLENE OXIDE,000075569,YES,NON-PBT,NO,0,YES,A,Pounds,0,0,0,0,0,0,0,0,0,0,0,0,0,0,0,0,0,0,0,0,0,0,0,0,0,0,0,0,0,0,0,0,0,0,0,0,0,0,0,0,0,0,0,0,0,0,0,0,0,0,0,0,0,0,0,0,0,0,0,0,0,0,0,0,,STERIS CORP,177360039
1997,07080NTDST14HAR,UNITED STEEL DECK,14 HARMICH RD.,SOUTH PLAINFIELD,MIDDLESEX,NJ,07080,40.570124,-74.39853,3449,,,,,,331221,,,,,,1397115322339,CHROMIUM COMPOUNDS(EXCEPT CHROMITE ORE MINED IN THE TRANSVAAL REGION),N090,YES,NON-PBT,YES,1,NO,R,Pounds,0,0,0,0,0,0,0,0,0,0,0,0,0,0,0,0,0,0,0,0,0,0,0,0,0,0,0,0,0,250,0,0,0,250,0,0,0,0,0,0,0,0,0,0,0,0,0,0,0,0,250,0,0,0,0,0,0,0,0,0,0,47,47,0,1.14,BOURAS INDUSTRIES INC,002562312
1997,08817PDBSN54KEL,FERRO CORP,54 KELLOGG CT,EDISON,MIDDLESEX,NJ,08817,40.536681,-74.401353,2851,,,,,,325510,,,,,,1397111005866,ZINC COMPOUNDS,N982,NO,NON-PBT,YES,1,NO,A,Pounds,0,0,0,0,0,0,0,0,0,0,0,0,0,0,0,0,0,0,0,0,0,0,0,0,0,0,0,0,0,0,0,0,0,0,0,0,0,0,0,0,0,0,0,0,0,0,0,0,0,0,0,0,0,0,0,0,0,0,0,0,0,0,0,0,,FERRO CORP,004161477
1997,07054LMNGP100JE,PFIZER INC,100 JEFFERSON RD,PARSIPPANY,MORRIS,NJ,07054,40.857917,-74.413724,2844,,,,,,325412,,,,,,1397115075499,ZINC COMPOUNDS,N982,NO,NON-PBT,YES,1,NO,R,Pounds,0,250,0,0,0,0,0,0,0,0,0,0,250,9796,0,9796,0,0,0,0,0,0,0,0,0,0,0,0,0,0,0,0,0,0,0,0,0,0,0,0,0,0,0,0,22240,0,0,0,0,22240,10046,9876,0,0,0,0,0,22240,0,0,0,0,32116,0,1.05,PFIZER INC,001326495
1997,07014DLTXP210DE,DELATEX CORPORATION,210 DELAWANNA AVE,CLIFTON,PASSAIC,NJ,07014,40.831655,-74.13106,2295,,,,,,313320,,,,,,1397115180097,TOLUENE,000108883,YES,NON-PBT,NO,0,NO,R,Pounds,0,25709,0,0,0,0,0,0,0,0,0,0,25709,0,0,0,0,0,0,0,0,0,0,0,0,0,0,0,0,0,0,0,0,0,0,0,0,0,0,0,0,0,0,0,0,0,0,0,0,0,25709,25709,0,0,0,0,0,0,0,0,0,0,25709,0,.68,NA,NA
1997,07670PNTNC74HUD,PENETONE CORP,74 HUDSON AVE,TENAFLY,BERGEN,NJ,07670,40.933194,-73.961889,2842,,,,,,325612,,,,,,1397116020672,PHOSPHORIC ACID,007664382,NO,NON-PBT,NO,0,NO,A,Pounds,0,0,0,0,0,0,0,0,0,0,0,0,0,0,0,0,0,0,0,0,0,0,0,0,0,0,0,0,0,0,0,0,0,0,0,0,0,0,0,0,0,0,0,0,0,0,0,0,0,0,0,0,0,0,0,0,0,0,0,0,0,0,0,0,,NA,NA
1997,07080VNGRD239ST,VANGUARD RESEARCH INDUSTRIES INC,239 SAINT NICHOLAS AVE,SOUTH PLAINFIELD,MIDDLESEX,NJ,07080,40.563182,-74.421936,3471,3341,2899,,,,332813,,,,,,1397110442985,NICKEL COMPOUNDS,N495,YES,NON-PBT,YES,1,NO,R,Pounds,0,0,0,0,0,0,0,0,0,0,0,0,0,64,0,64,0,0,0,0,0,0,0,0,0,0,0,0,0,0,0,0,0,0,0,3890,0,0,0,3890,0,0,0,0,0,0,0,0,0,0,64,0,0,0,0,0,0,0,0,3890,0,64,3954,0,1.5,VANGUARD HOLDINGS,NA
1997,08818HBFLL59BRU,H. B. FULLER CO.,59 BRUNSWICK AVE.,EDISON,MIDDLESEX,NJ,08818,40.5355,-74.400056,2891,,,,,,325520,,,,,,1397111039350,VINYL ACETATE,000108054,YES,NON-PBT,NO,0,YES,A,Pounds,0,0,0,0,0,0,0,0,0,0,0,0,0,0,0,0,0,0,0,0,0,0,0,0,0,0,0,0,0,0,0,0,0,0,0,0,0,0,0,0,0,0,0,0,0,0,0,0,0,0,0,0,0,0,0,0,0,0,0,0,0,0,0,0,,H B FULLER CO,006159776
1997,07055BLTCD358TH,BALTIC DYE & FINISHING CO INC,35 EIGHTH ST,PASSAIC,PASSAIC,NJ,07055,40.856875,-74.109758,2269,,,,,,313310,,,,,,1397115031662,AMMONIA,007664417,NO,NON-PBT,NO,0,NO,R,Pounds,750,250,0,0,0,0,0,0,0,0,0,0,1000,0,750,750,0,0,0,0,0,0,0,0,0,0,0,0,0,0,0,0,0,0,0,0,0,0,0,0,0,0,0,0,0,0,0,0,0,0,1000,630,0,0,0,0,0,0,0,0,47070,5600,53300,0,1.1,NA,NA
1997,08016SPPFNEASTP,US PIPE & FOUNDRY CO,1101 E PEARL ST,BURLINGTON,BURLINGTON,NJ,08016,40.085257,-74.840798,3321,,,,,,331511,,,,,,1397115083659,MANGANESE COMPOUNDS,N450,YES,NON-PBT,YES,1,NO,R,Pounds,0,518,0,0,0,0,0,0,0,0,0,0,518,0,0,0,0,0,0,0,0,0,0,0,0,0,0,0,0,32864,0,0,0,32864,0,0,0,0,248345,248345,0,0,0,0,0,0,0,0,6072,6072,33382,33382,0,0,0,0,0,0,0,248345,0,6072,287799,0,1.12,MUELLER WATER PRODUCTS INC,003501079
1997,08009DYNSLCOOPE,DYNASIL CORP,385 COOPER RD,WEST BERLIN,CAMDEN,NJ,080919145,39.804717,-74.914968,3221,3295,,,,,327213,,,,,,1397115090033,"HYDROCHLORIC ACID (1995 AND AFTER ""ACID AEROSOLS"" ONLY)",007647010,YES,NON-PBT,NO,0,NO,R,Pounds,11,271,0,0,0,0,0,0,0,0,0,0,282,0,0,0,0,0,0,0,0,0,0,0,0,0,0,0,0,0,0,0,0,0,0,0,0,0,0,0,0,0,0,0,0,0,0,0,0,0,282,282,0,0,0,0,0,0,0,0,0,0,282,0,2.16,NA,NA
1997,07080HMMLC10HAR,HUMMEL CROTON INC,10 HARMICH RD,SOUTH PLAINFIELD,MIDDLESEX,NJ,07080,40.568858,-74.400789,2819,,,,,,325188,,,,,,1397115090173,AMMONIA,007664417,NO,NON-PBT,NO,0,NO,R,Pounds,0,250,0,0,0,0,0,0,0,0,0,0,250,0,2728,2728,0,0,0,0,0,0,0,0,0,0,0,0,0,0,0,0,0,0,0,0,0,0,0,0,0,0,0,0,0,0,0,0,0,0,250,2728,0,0,0,0,0,0,0,0,0,0,2728,0,1.22,NA,NA
1997,07001CLBNC255BL,ECOLAB INC,255 BLAIR RD,AVENEL,MIDDLESEX,NJ,07001,40.574331,-74.257434,2841,2842,,,,,325611,,,,,,1397115326656,FORMIC ACID,000064186,NO,NON-PBT,NO,0,NO,R,Pounds,0,0,0,0,0,0,0,0,0,0,0,0,0,0,0,0,0,0,0,0,0,0,0,0,0,0,0,0,0,0,0,0,0,0,0,0,13,0,0,13,0,0,0,0,0,0,0,0,0,0,0,0,0,0,0,0,0,0,0,0,34,13,47,0,.9,ECOLAB INC,006154611
1997,07205CDNCR171CE,ECD INC,171 CENTRAL AVE,HILLSIDE,UNION,NJ,07205,40.695475,-74.223748,3315,,,,,,331222,,,,,,1397110521832,AMMONIA,007664417,NO,NON-PBT,NO,0,NO,R,Pounds,0,0,0,0,0,0,0,0,0,0,0,0,0,0,0,0,0,0,0,0,0,0,0,0,0,0,0,0,0,0,0,0,0,0,0,0,0,0,0,0,0,0,0,0,0,0,0,0,0,0,0,0,0,0,0,0,0,0,0,0,0,0,0,0,.58,NA,NA
1997,07058DCRNC5BADE,DICAR INC,5 BADER RD,PINE BROOK,MORRIS,NJ,07058,40.868669,-74.361331,3069,,,,,,333291,,,,,,1397115067720,"4,4'-METHYLENEBIS(2-CHLOROANILINE)",000101144,YES,NON-PBT,NO,0,YES,R,Pounds,0,0,0,0,0,0,0,0,0,0,0,0,0,0,0,0,0,0,0,0,0,0,0,0,0,0,0,0,0,0,0,0,0,0,0,0,0,0,0,0,0,0,0,0,0,0,0,0,0,0,0,0,0,0,0,0,0,0,0,0,0,0,0,0,.98,DICAR INC,051282069
1997,07474PSSCR45DEM,PASSAIC RUBBER CO,45 DEMAREST DR,WAYNE,PASSAIC,NJ,07474,40.90475,-74.263083,3069,,,,,,326299,,,,,,1397115075879,ZINC COMPOUNDS,N982,NO,NON-PBT,YES,1,NO,R,Pounds,5,104,0,0,0,0,0,0,0,0,0,0,109,0,0,0,0,0,0,0,0,0,1369,0,0,0,0,0,0,0,0,0,0,1369,0,0,0,0,0,0,0,0,0,0,0,0,0,0,0,0,1478,1478,0,0,0,0,0,0,0,0,0,0,1478,0,.92,NA,NA
1997,08818MRCHL136TA,AMERCHOL CORP.,136 TALMADGE RD.,EDISON,MIDDLESEX,NJ,088184051,40.533708,-74.39429,2843,,,,,,325613,,,,,,1397115066262,METHANOL,000067561,YES,NON-PBT,NO,0,NO,R,Pounds,3560,1818,0,0,0,0,0,0,0,0,0,0,5378,0,337239,337239,0,0,0,0,0,0,0,0,0,0,0,0,0,0,0,0,0,0,0,0,0,0,0,0,0,0,0,0,0,0,0,0,0,0,5378,5378,0,0,0,0,0,0,0,0,0,337239,342617,0,1.34,DOW CHEMICAL CO,001381581
1997,07008NDLCLFOOTO,INDOL COLOR CO,48 LEFFERT STREET,CARTERET,MIDDLESEX,NJ,070083114,40.585245,-74.21568,2865,,,,,,325100,,,,,,1397116016104,SODIUM NITRITE,007632000,NO,NON-PBT,YES,2,NO,A,Pounds,0,0,0,0,0,0,0,0,0,0,0,0,0,0,0,0,0,0,0,0,0,0,0,0,0,0,0,0,0,0,0,0,0,0,0,0,0,0,0,0,0,0,0,0,0,0,0,0,0,0,0,0,0,0,0,0,0,0,0,0,0,0,0,0,,MAGRUDER COLOR CO INC,011510542
1997,07105TRYCHONEAV,TROY CHEMICAL CORP,ONE AVE L,NEWARK,ESSEX,NJ,07105,40.717048,-74.145105,2851,,,,,,325510,,,,,,1397116016167,COBALT COMPOUNDS,N096,YES,NON-PBT,YES,1,YES,A,Pounds,0,0,0,0,0,0,0,0,0,0,0,0,0,0,0,0,0,0,0,0,0,0,0,0,0,0,0,0,0,0,0,0,0,0,0,0,0,0,0,0,0,0,0,0,0,0,0,0,0,0,0,0,0,0,0,0,0,0,0,0,0,0,0,0,,TROY CORP,NA
1997,08505STPNCFOURT,STEPAN CO - FIELDSBORO PL ANT,201 FOURTH ST,FIELDSBORO,BURLINGTON,NJ,08505,40.133333,-74.7375,2843,,,,,,325613,,,,,,1397111012694,"SULFURIC ACID (1994 AND AFTER ""ACID AEROSOLS"" ONLY)",007664939,NO,NON-PBT,NO,0,NO,A,Pounds,0,0,0,0,0,0,0,0,0,0,0,0,0,0,0,0,0,0,0,0,0,0,0,0,0,0,0,0,0,0,0,0,0,0,0,0,0,0,0,0,0,0,0,0,0,0,0,0,0,0,0,0,0,0,0,0,0,0,0,0,0,0,0,0,,STEPAN CO,005130182
1997,07054TTHYR42INT,KOCH-OTTO YORK,42 INTERVALE RD.,PARSIPPANY,MORRIS,NJ,07054,40.89234,-74.41907,3496,,,,,,332618,,,,,,1397111072979,MANGANESE,007439965,YES,NON-PBT,YES,1,NO,A,Pounds,0,0,0,0,0,0,0,0,0,0,0,0,0,0,0,0,0,0,0,0,0,0,0,0,0,0,0,0,0,0,0,0,0,0,0,0,0,0,0,0,0,0,0,0,0,0,0,0,0,0,0,0,0,0,0,0,0,0,0,0,0,0,0,0,,KOCH CHEMICAL TECHNOLOGY GROUP LLC,103326216
1997,07029DRVRH308MI,HARRISON ALLOYS INC,308 MIDDLESEX ST,HARRISON,HUDSON,NJ,07029,40.740866,-74.157199,3356,,,,,,331491,,,,,,1397115027866,AMMONIA,007664417,NO,NON-PBT,NO,0,NO,R,Pounds,1900,0,0,0,0,0,0,0,0,0,0,0,1900,0,250,250,0,0,0,0,0,0,0,0,0,0,0,0,0,0,0,0,0,0,0,0,0,0,0,0,0,0,0,0,0,0,0,0,0,0,1900,1900,0,0,0,0,0,0,0,0,440,49,2389,0,.81,NA,NA
1997,07073GNRLF13MAN,FOAMEX INNOVATIONS OPERATING CO,13 MANOR RD,EAST RUTHERFORD,BERGEN,NJ,07073,40.826176,-74.089787,3086,,,,,,326150,,,,,,1397115071983,TOLUENE DIISOCYANATE (MIXED ISOMERS),026471625,NO,NON-PBT,NO,0,YES,R,Pounds,5,250,0,0,0,0,0,0,0,0,0,0,255,0,0,0,0,0,0,0,0,0,0,0,0,0,0,0,0,0,0,0,0,0,0,0,0,0,0,0,0,0,0,0,0,0,0,0,0,0,255,71,0,0,0,0,0,0,0,0,0,0,71,0,.97,FOAMEX INNOVATIONS INC,829462535
1997,07950TTLYN40EHA,TETLEY USA INC.,40 E. HANOVER AVE.,MORRIS PLAINS,MORRIS,NJ,079500195,40.821452,-74.478966,2099,,,,,,311999,,,,,,1397115058671,CHLORINE,007782505,YES,NON-PBT,NO,0,NO,R,Pounds,5,0,0,0,0,0,0,0,0,0,0,0,5,0,250,250,0,0,0,0,0,0,0,0,0,0,0,0,0,0,0,0,0,0,0,0,0,0,0,0,0,0,0,0,0,0,0,0,0,0,5,0,0,0,0,0,0,0,0,0,0,0,0,0,.31,TETLEY US HOLDINGS INC,NA
1997,07524GLXCH26PIE,GALAXIE CHEMICAL CORP,26 PIERCY ST,PATERSON,PASSAIC,NJ,07524,40.925933,-74.168049,2865,,,,,,325132,,,,,,1397115070551,AMMONIA,007664417,NO,NON-PBT,NO,0,NO,R,Pounds,5,5,0,0,0,0,0,0,0,0,0,0,10,0,5,5,0,0,0,0,0,0,0,0,0,0,0,0,0,0,0,0,0,0,0,0,0,0,0,0,0,0,0,0,0,0,0,0,0,0,10,5,0,0,0,0,0,0,0,0,0,0,5,0,,NA,NA
1997,07524DCLRP33SIX,DAICOLOR-POPE INC,33 6TH AVE,PATERSON,PASSAIC,NJ,07524,40.934156,-74.164666,2865,,,,,,325132,,,,,,1397115247025,COPPER COMPOUNDS,N100,NO,NON-PBT,YES,1,NO,R,Pounds,0,0,0,0,0,0,0,0,0,0,0,0,0,5,0,5,0,0,0,0,0,0,0,0,0,0,0,0,0,0,0,0,0,0,0,0,0,0,0,0,0,0,0,0,0,0,0,0,0,0,5,1,0,0,0,0,0,0,0,0,0,3,4,0,2.21,NA,NA
1997,07543HTRNC79221,HETERENE CHEMICAL CO. INC.,792 21ST AVE.,PATERSON,PASSAIC,NJ,075130247,40.904374,-74.138492,2843,,,,,,325613,,,,,,1397111034359,CRESOL (MIXED ISOMERS),001319773,YES,NON-PBT,NO,0,NO,A,Pounds,0,0,0,0,0,0,0,0,0,0,0,0,0,0,0,0,0,0,0,0,0,0,0,0,0,0,0,0,0,0,0,0,0,0,0,0,0,0,0,0,0,0,0,0,0,0,0,0,0,0,0,0,0,0,0,0,0,0,0,0,0,0,0,0,,HETERENE INC,042899492
1997,08011SYBRNBIRMI,LANXESS SYBRON CHEMICALS INC.,200 BIRMINGHAM RD,BIRMINGHAM,BURLINGTON,NJ,08011,39.979014,-74.71667,2821,2869,,,,,325211,,,,,,1397111053462,DIMETHYLAMINE,000124403,NO,NON-PBT,NO,0,NO,A,Pounds,0,0,0,0,0,0,0,0,0,0,0,0,0,0,0,0,0,0,0,0,0,0,0,0,0,0,0,0,0,0,0,0,0,0,0,0,0,0,0,0,0,0,0,0,0,0,0,0,0,0,0,0,0,0,0,0,0,0,0,0,0,0,0,0,,LANXESS CORP,145858770
1997,08011SYBRNBIRMI,LANXESS SYBRON CHEMICALS INC.,200 BIRMINGHAM RD,BIRMINGHAM,BURLINGTON,NJ,08011,39.979014,-74.71667,2821,2869,,,,,325211,,,,,,1397111053524,N-METHYLOLACRYLAMIDE,000924425,NO,NON-PBT,NO,0,NO,A,Pounds,0,0,0,0,0,0,0,0,0,0,0,0,0,0,0,0,0,0,0,0,0,0,0,0,0,0,0,0,0,0,0,0,0,0,0,0,0,0,0,0,0,0,0,0,0,0,0,0,0,0,0,0,0,0,0,0,0,0,0,0,0,0,0,0,,LANXESS CORP,145858770
1997,08027MDGNS480DE,EMD CHEMICALS INC,480 S DEMOCRAT RD,GIBBSTOWN,GLOUCESTER,NJ,080270070,39.808457,-75.267911,2835,,,,,,325199,,,,,,1397111053599,COPPER COMPOUNDS,N100,NO,NON-PBT,YES,1,NO,A,Pounds,0,0,0,0,0,0,0,0,0,0,0,0,0,0,0,0,0,0,0,0,0,0,0,0,0,0,0,0,0,0,0,0,0,0,0,0,0,0,0,0,0,0,0,0,0,0,0,0,0,0,0,0,0,0,0,0,0,0,0,0,0,0,0,0,,EMD CHEMICALS INC,078696721
1997,07071PLYRT624SC,POLYURETHANE SPECIALTIES COIN C,624 SCHUYLER AVE,LYNDHURST,BERGEN,NJ,07071,40.79907,-74.116276,2821,,,,,,325211,,,,,,1397111055721,"TOLUENE-2,4-DIISOCYANATE",000584849,YES,NON-PBT,NO,0,YES,A,Pounds,0,0,0,0,0,0,0,0,0,0,0,0,0,0,0,0,0,0,0,0,0,0,0,0,0,0,0,0,0,0,0,0,0,0,0,0,0,0,0,0,0,0,0,0,0,0,0,0,0,0,0,0,0,0,0,0,0,0,0,0,0,0,0,0,,POLYURETHANE CORP OF AMERICA,101385268
1997,08502M    COUNT,3M CO BELLE MEAD,SOMERSET COUNTY RTE 601,BELLE MEAD,SOMERSET,NJ,08502,40.451472,-74.690722,3295,,,,,,327992,,,,,,1397115161503,MANGANESE COMPOUNDS,N450,YES,NON-PBT,YES,1,NO,R,Pounds,250,5,0,0,0,0,0,0,0,0,0,11540,11795,0,0,0,0,0,0,0,0,0,5,0,0,0,0,0,0,0,0,0,0,5,0,0,0,0,0,0,0,0,0,0,0,0,0,0,0,0,11800,600,0,0,0,0,0,0,1400,0,0,0,2000,0,,3M CO,006173082
1997,08816MNCND5JOAN,MON-ECO INDUSTRIES INC,5 JOANNA CT,EAST BRUNSWICK,MIDDLESEX,NJ,08816,40.445995,-74.403691,2891,,,,,,325520,,,,,,1397116006711,TOLUENE,000108883,YES,NON-PBT,NO,0,NO,A,Pounds,0,0,0,0,0,0,0,0,0,0,0,0,0,0,0,0,0,0,0,0,0,0,0,0,0,0,0,0,0,0,0,0,0,0,0,0,0,0,0,0,0,0,0,0,0,0,0,0,0,0,0,0,0,0,0,0,0,0,0,0,0,0,0,0,,NA,NA
1997,07206PXCHM200SO,APEX CHEMICAL CORP.,200 S. 1ST ST.,ELIZABETHPORT,UNION,NJ,07206,40.644849,-74.19358,2899,,,,,,325188,,,,,,1397116011406,CERTAIN GLYCOL ETHERS,N230,YES,NON-PBT,NO,0,NO,A,Pounds,0,0,0,0,0,0,0,0,0,0,0,0,0,0,0,0,0,0,0,0,0,0,0,0,0,0,0,0,0,0,0,0,0,0,0,0,0,0,0,0,0,0,0,0,0,0,0,0,0,0,0,0,0,0,0,0,0,0,0,0,0,0,0,0,,NA,NA
1997,07095RSSLL14CON,MAUSER CORP,14 CONVERY BLVD,WOODBRIDGE,MIDDLESEX,NJ,07095,40.540285,-74.277453,3412,,,,,,332439,,,,,,1397110494287,CERTAIN GLYCOL ETHERS,N230,YES,NON-PBT,NO,0,NO,R,Pounds,118,13171,0,0,0,0,0,0,0,0,0,0,13289,0,0,0,0,0,0,0,0,0,0,0,0,0,0,0,0,0,0,0,0,0,2372,0,0,0,0,2372,20705,5404,26109,0,0,0,0,0,0,0,13289,13289,0,0,0,0,0,26109,0,2372,27355,0,69125,0,.96,MAUSER CORP,045882581
1997,07026NLCLR61RIV,O'NEIL COLOR & COMPOUNDING,61 RIVER DR,GARFIELD,BERGEN,NJ,07026,40.86391,-74.10413,3081,,,,,,325991,,,,,,1397111067551,ZINC COMPOUNDS,N982,NO,NON-PBT,YES,1,NO,A,Pounds,0,0,0,0,0,0,0,0,0,0,0,0,0,0,0,0,0,0,0,0,0,0,0,0,0,0,0,0,0,0,0,0,0,0,0,0,0,0,0,0,0,0,0,0,0,0,0,0,0,0,0,0,0,0,0,0,0,0,0,0,0,0,0,0,,ICC INDUSTRIES,046177334
1997,07011LMRTC16RIC,LAMART CORP,16 RICHMOND ST,CLIFTON,PASSAIC,NJ,07011,40.889432,-74.160195,3079,,,,,,322222,,,,,,1397115019883,N-HEXANE,000110543,YES,NON-PBT,NO,0,NO,R,Pounds,0,843,0,0,0,0,0,0,0,0,0,0,843,0,0,0,0,0,0,0,0,0,0,0,0,0,0,0,0,0,0,0,0,0,0,0,0,0,0,0,0,1750,1750,0,0,0,0,0,0,0,843,843,0,0,0,0,0,1750,0,0,16027,0,18620,0,1.12,NA,NA
1997,08069MCSPC76SVI,AKZO NOBEL COATINGS INC. (MAC SPECIALTY COATINGS),76 S. VIRGINIA AVE.,PENNS GROVE,SALEM,NJ,080691737,39.722295,-75.466813,2851,,,,,,325510,,,,,,1397115033983,METHYL ETHYL KETONE,000078933,NO,NON-PBT,NO,0,NO,R,Pounds,250,250,0,0,0,0,0,0,0,0,0,0,500,0,0,0,0,0,0,0,0,0,0,0,0,0,0,0,0,0,0,0,0,0,0,0,0,0,0,0,24188,0,24188,0,0,0,0,0,0,0,500,395,0,0,0,0,0,24188,0,0,0,0,24583,0,.78,AKZO NOBEL COATINGS INC,062999347
1997,07840LSTMLESNAD,THOMAS & BETTS/ELASTIMOLD,1 ESNA DR,HACKETTSTOWN,MORRIS,NJ,07840,40.819694,-74.832417,3643,,,,,,335931,,,,,,1397115072199,COPPER,007440508,NO,NON-PBT,YES,1,NO,R,Pounds,0,0,0,0,0,0,0,0,0,0,0,0,0,0,0,0,0,0,0,0,0,0,0,0,0,0,0,0,0,0,0,0,0,0,0,396861,0,0,0,396861,0,0,0,0,0,0,0,0,0,0,0,0,0,0,0,0,0,0,0,396861,0,0,396861,0,1.1,THOMAS & BETTS CORP,002154433
1997,08312PCKCK838ND,ALERIS ROLLED PRODUCTS INC,838 N DELSEA DR,CLAYTON,GLOUCESTER,NJ,08312,39.665684,-75.093837,3497,,,,,,331315,,,,,,1397115110948,TOLUENE,000108883,YES,NON-PBT,NO,0,NO,R,Pounds,0,161,0,0,0,0,0,0,0,0,0,0,161,0,0,0,0,0,0,0,0,0,0,0,0,0,0,0,0,0,0,0,0,0,0,0,0,0,0,0,750,0,750,0,0,0,0,0,0,0,161,161,0,0,0,0,0,2987,0,0,15971,0,19119,0,1.36,CI HOLDINGS  INC,NA
1997,08066LLLYN1991N,LILLY INDUSTRIES INC.,1991 NOLTE DR.,PAULSBORO,GLOUCESTER,NJ,08066,39.818879,-75.204871,2851,,,,,,325510,,,,,,1397115137818,"1,2,4-TRIMETHYLBENZENE",000095636,NO,NON-PBT,NO,0,NO,R,Pounds,1,3,0,0,0,0,0,0,0,0,0,0,4,0,0,0,0,0,0,0,0,0,0,0,0,0,0,0,0,0,0,0,0,0,0,0,0,0,0,0,0,0,0,0,0,0,0,0,0,0,4,4,0,0,0,0,0,0,0,0,991,0,995,0,1.03,LILLY INDUSTRIES INC,006040117
1997,08077KLSTR1050T,ACTEGA KELSTAR INC,1050 TAYLORS LN,CINNAMINSON,BURLINGTON,NJ,08077,40.022751,-74.982746,2899,,,,,,325998,,,,,,1397115153660,AMMONIA,007664417,NO,NON-PBT,NO,0,NO,R,Pounds,700,7000,0,0,0,0,0,0,0,0,0,0,7700,0,0,0,0,0,0,0,0,0,0,0,0,0,0,0,0,0,0,0,0,0,0,0,0,0,0,0,0,0,0,0,0,0,0,0,0,0,7700,7700,0,0,0,0,0,0,0,0,0,0,7700,0,1.2,ALTANA,157299793
1997,07064MRDHS750CL,HESS CORP - PORT READING REFINERY,750 CLIFF RD,PORT READING,MIDDLESEX,NJ,07064,40.557528,-74.242444,2911,,,,,,324110,,,,,,1397115180919,ETHYLBENZENE,000100414,YES,NON-PBT,NO,0,NO,R,Pounds,176,0,0,0,0,0,0,0,0,0,0,0,176,0,0,0,0,0,0,0,0,0,0,0,0,0,0,0,0,0,0,0,0,0,0,0,0,0,0,0,0,0,0,0,0,0,0,0,0,0,176,176,0,0,0,0,0,0,0,0,3,0,179,0,.92,HESS CORP,006979785
1997,07509FBRCL2412V,FABRICOLOR MFG. CORP.,24 1/2 VAN HOUTEN ST.,PATERSON,PASSAIC,NJ,07505,40.918196,-74.175259,2865,,,,,,325100,,,,,,1397115265668,C.I. DIRECT BLUE 218,028407376,NO,NON-PBT,YES,2,YES,R,Pounds,5,5,0,0,0,0,0,0,0,0,0,0,10,0,1193,1193,0,0,0,0,0,0,0,0,0,0,0,0,0,0,0,0,0,0,0,0,0,0,0,0,0,0,0,0,0,0,0,0,0,0,10,1195,0,0,0,0,0,0,2,0,0,0,1197,0,.25,FABRICOLOR INC,062044326
1997,08638CHLLNMEADE,EASTERN WIRE & CABLE,51 MEADE ST.,TRENTON,MERCER,NJ,08638,40.23188,-74.747135,3357,3496,,,,,331422,,,,,,1397115319218,COPPER,007440508,NO,NON-PBT,YES,1,NO,R,Pounds,5,0,0,0,0,0,0,0,0,0,0,0,5,0,0,0,0,0,0,0,0,0,0,0,0,0,0,0,0,0,0,0,0,0,0,66367,0,0,0,66367,0,0,0,0,0,0,0,0,0,0,5,0,0,0,0,0,0,0,0,66367,0,0,66367,0,2.62,NA,NA
1997,07008STFLXMIDDL,STAFLEX PRODS.,50 MIDDLESEX AVENUE.,CARTERET,MIDDLESEX,NJ,07008,40.564126,-74.225262,2869,,,,,,323119,,,,,,1397110422983,CERTAIN GLYCOL ETHERS,N230,YES,NON-PBT,NO,0,NO,R,Pounds,18027,2022,0,0,0,0,0,0,0,0,0,0,20049,0,14593,14593,0,0,0,0,0,0,7400,0,0,0,0,0,0,0,0,0,0,7400,0,0,0,0,0,0,0,0,0,0,0,0,0,0,0,0,27449,20029,0,0,0,0,0,0,0,0,0,14593,34622,0,.79,CP HALL CO,NA
1997,07657PFSTRLINDE,PFISTER CHEMICAL INC.,LINDEN AVE.,RIDGEFIELD,BERGEN,NJ,07657,40.84207,-74.009063,2865,,,,,,325192,,,,,,1397111029447,DIETHYL SULFATE,000064675,YES,NON-PBT,NO,0,YES,A,Pounds,0,0,0,0,0,0,0,0,0,0,0,0,0,0,0,0,0,0,0,0,0,0,0,0,0,0,0,0,0,0,0,0,0,0,0,0,0,0,0,0,0,0,0,0,0,0,0,0,0,0,0,0,0,0,0,0,0,0,0,0,0,0,0,0,,NA,NA
1997,08865JTBKR600NO,MALLINCKRODT BAKER INC,600 N BROAD ST,PHILLIPSBURG,WARREN,NJ,08865,40.703,-75.198056,2819,2869,,,,,325320,,,,,,1397115119036,ANTIMONY COMPOUNDS,N010,YES,NON-PBT,YES,1,NO,R,Pounds,1,2,3,0,0,0,0,0,0,0,0,0,6,0,0,0,0,0,0,0,0,0,0,0,0,0,0,0,0,0,0,0,0,0,0,0,0,0,0,0,0,0,0,0,0,0,0,0,0,0,6,6,0,0,0,0,0,0,0,0,5,0,11,0,.32,COVIDIEN,006265722
1997,08865JTBKR600NO,MALLINCKRODT BAKER INC,600 N BROAD ST,PHILLIPSBURG,WARREN,NJ,08865,40.703,-75.198056,2819,2869,,,,,325188,,,,,,1397115119137,METHANOL,000067561,YES,NON-PBT,NO,0,NO,R,Pounds,1623,7396,0,0,0,0,0,0,0,0,0,0,9019,0,0,0,0,0,0,0,0,0,0,0,0,0,0,0,0,0,0,0,0,0,0,0,0,0,0,0,56863,29293,86156,0,0,0,0,0,0,0,9019,9019,0,0,0,0,0,86156,0,0,111236,0,206411,0,.89,COVIDIEN,006265722
1997,08865JTBKR600NO,MALLINCKRODT BAKER INC,600 N BROAD ST,PHILLIPSBURG,WARREN,NJ,08865,40.703,-75.198056,2819,2869,,,,,325188,,,,,,1397115119202,TOLUENE,000108883,YES,NON-PBT,NO,0,NO,R,Pounds,64,72,0,0,0,0,0,0,0,0,0,0,136,0,0,0,0,0,0,0,0,0,0,0,0,0,0,0,0,0,0,0,0,0,0,0,0,0,0,0,63729,32870,96599,0,0,0,0,0,0,0,136,138,0,0,0,0,0,96599,0,0,0,0,96737,0,.05,COVIDIEN,006265722
1997,07110TCHNC27EAS,TECHNICAL COATINGS CO.  NUTLEY,57 E. CENTRE ST.,NUTLEY,ESSEX,NJ,071103409,40.808275,-74.142869,2851,,,,,,325510,,,,,,1397115267650,CERTAIN GLYCOL ETHERS,N230,YES,NON-PBT,NO,0,NO,R,Pounds,162,80,0,0,0,0,0,0,0,0,0,0,242,0,0,0,0,0,0,0,0,0,0,0,0,0,0,0,0,0,0,0,0,0,0,0,0,0,0,0,915,0,915,0,0,0,0,0,0,0,242,242,0,0,0,0,0,915,2737,0,0,0,3894,0,.69,BENJAMIN MOORE & CO,001210715
1997,08873NNCRB40VER,SOMERSET LATEX PLANT UNION CARBIDE CORP,40 VERONICA AVE,SOMERSET,SOMERSET,NJ,08873,40.48236,-74.50163,2821,,,,,,325211,,,,,,1397115230815,VINYL ACETATE,000108054,YES,NON-PBT,NO,0,YES,R,Pounds,626,676,0,0,0,0,0,0,0,0,0,0,1302,0,0,0,0,0,0,0,0,0,0,0,0,0,0,0,0,0,0,0,0,0,0,0,0,0,0,0,0,0,0,228,3,0,0,0,0,231,1302,1302,0,0,0,0,0,0,0,0,9597,231,11130,0,1,DOW CHEMICAL CO,001381581
1997,07304DYSPC37BEN,DYE SPECIALTIES INC,407 EGE AVE,JERSEY CITY,HUDSON,NJ,073041014,40.718741,-74.090683,2865,,,,,,325132,,,,,,1397115337002,ZINC COMPOUNDS,N982,NO,NON-PBT,YES,1,NO,R,Pounds,0,0,0,0,0,0,0,0,0,0,0,0,0,2,0,2,0,0,0,0,0,0,0,0,0,0,0,0,0,5300,0,0,0,5300,0,0,0,0,0,0,0,0,0,0,0,0,0,0,0,0,5302,5300,0,0,0,0,0,0,0,0,0,2,5302,0,1,NA,NA
1997,07410BRDNN81022,BORDEN CHEMICAL INC.,8-10 22ND ST.,FAIR LAWN,BERGEN,NJ,07410,40.931455,-74.117393,2893,,,,,,325910,,,,,,1397110492384,N-BUTYL ALCOHOL,000071363,NO,NON-PBT,NO,0,NO,R,Pounds,108,323,0,0,0,0,0,0,0,0,0,0,431,0,0,0,0,0,0,0,0,0,0,0,0,0,0,0,0,0,0,0,0,0,422,0,0,0,0,422,0,0,0,0,0,0,0,0,0,0,431,431,0,0,0,0,0,0,0,422,0,0,853,0,1.1,BORDEN INC,001338797
1997,08862WTCCR1000C,CHEMTURA CORP,1000 CONVERY BLVD,PERTH AMBOY,MIDDLESEX,NJ,08861,40.539,-74.276056,2869,,,,,,325199,,,,,,1397110427073,METHANOL,000067561,YES,NON-PBT,NO,0,NO,R,Pounds,0,52,0,0,0,0,0,0,0,0,0,0,52,0,1135,1135,0,0,0,0,0,0,0,0,0,0,0,0,0,0,0,0,0,0,0,0,0,0,0,0,21000,0,21000,0,0,0,0,0,0,0,52,53,0,0,0,0,0,21000,0,0,0,1200,22253,0,.99,CHEMTURA CORP,088400325
1997,08502LHNFNROUTE,RECKITT BENCKISER,799 RT 206 & HILLSBOROUGH RD,HILLSBOROUGH,SOMERSET,NJ,08844,40.468423,-74.662032,2842,,,,,,325612,,,,,,1397111056469,SODIUM NITRITE,007632000,NO,NON-PBT,YES,2,NO,A,Pounds,0,0,0,0,0,0,0,0,0,0,0,0,0,0,0,0,0,0,0,0,0,0,0,0,0,0,0,0,0,0,0,0,0,0,0,0,0,0,0,0,0,0,0,0,0,0,0,0,0,0,0,0,0,0,0,0,0,0,0,0,0,0,0,0,,RECKITT BENCKISER PLC,094405024
1997,08638NSSCH1008W,RHEIN CHEMIE CORP,1008 WHITEHEAD RD EXTENSION,TRENTON,MERCER,NJ,08638,40.258611,-74.754108,3069,,,,,,326299,,,,,,1397115010264,THIRAM,000137268,NO,NON-PBT,NO,0,NO,R,Pounds,0,0,0,0,0,0,0,0,0,0,0,0,0,0,0,0,0,0,0,0,0,0,0,0,0,0,0,0,0,0,0,0,0,0,0,0,0,0,0,0,0,0,0,0,4200,0,0,0,0,4200,0,0,0,0,0,0,0,0,0,0,0,3883,3883,0,1.16,LANXESS CORP,145858770
1997,07036PCHBL2025E,EAGLE POLY ISO,2025 E. LINDEN AVE.,LINDEN,UNION,NJ,07036,40.648512,-74.228991,3086,,,,,,326100,,,,,,1397115012193,"1,1-DICHLORO-1-FLUOROETHANE",001717006,NO,NON-PBT,NO,0,NO,R,Pounds,49600,0,0,0,0,0,0,0,0,0,0,0,49600,0,0,0,0,0,0,0,0,0,0,0,0,0,0,0,0,0,0,0,0,0,0,0,0,0,0,0,0,0,0,0,0,0,0,0,0,0,49600,49600,0,0,0,0,0,0,0,0,0,0,49600,0,1.1,JOHN MANVILLE,103821203
1997,08073NDCTT10IND,INDUCTOTHERM CORP,10 INDEL AVE,RANCOCAS,BURLINGTON,NJ,08073,40.010321,-74.847239,3567,,,,,,333994,,,,,,1397115016139,COPPER,007440508,NO,NON-PBT,YES,1,NO,R,Pounds,0,0,0,0,0,0,250,0,0,0,0,0,250,0,0,0,0,0,0,0,0,0,250,0,0,0,0,0,0,0,0,0,0,250,0,0,0,0,93699,93699,0,0,0,0,0,0,0,0,0,0,500,490,0,0,0,0,0,0,0,203954,0,0,204444,0,1.12,INDEL INC,002338713
1997,07114CHMFL92896,CHEM FLUER/FIRMENICH INC,150 FIRMENICH WAY,NEWARK,ESSEX,NJ,07114,40.699527,-74.13072,2869,,,,,,325199,,,,,,1397115151197,METHANOL,000067561,YES,NON-PBT,NO,0,NO,R,Pounds,10,2007,0,0,0,0,0,0,0,0,0,0,2017,0,80534,80534,0,0,0,0,0,0,0,0,0,0,0,0,0,0,0,0,0,0,0,0,0,0,0,0,549611,567759,1117370,0,0,0,0,0,0,0,2017,2017,0,0,0,0,0,1117370,0,0,0,80534,1199921,0,1.51,NA,NA
1997,07866MCWLL1948F,MCWILLIAMS FORGE CO,387 FRANKLIN AVE,ROCKAWAY,MORRIS,NJ,07866,40.888889,-74.517167,3462,,,,,,332111,,,,,,1397115153809,NICKEL COMPOUNDS,N495,YES,NON-PBT,YES,1,NO,R,Pounds,0,105,0,0,0,0,0,0,0,0,0,0,105,0,0,0,0,0,0,0,0,0,847,0,0,0,0,0,0,0,0,0,0,847,0,0,0,0,2207,2207,0,0,0,0,0,0,0,0,0,0,952,105,0,0,0,0,0,0,0,2207,0,847,3159,0,.87,PRECISION CASTPARTS CORP,009027970
1997,07013DKMNL181SA,DIKEMAN LAMINATING INC,181 SARGENT AVE,CLIFTON,PASSAIC,NJ,07013,40.864722,-74.156417,2671,,,,,,322222,,,,,,1397115153963,TOLUENE,000108883,YES,NON-PBT,NO,0,NO,R,Pounds,2897,1448,0,0,0,0,0,0,0,0,0,0,4345,0,0,0,0,0,0,0,0,0,0,0,0,0,0,0,0,0,0,0,0,0,0,0,0,0,0,0,0,0,0,0,0,0,0,0,0,0,4345,4345,0,0,0,0,0,0,0,0,194758,0,199103,0,1,NA,NA
1997,07080MTZMT3900S,FERRO CORP,3900 S CLINTON AVE,SOUTH PLAINFIELD,MIDDLESEX,NJ,07080,40.564611,-74.42963,3399,3356,3341,,,,331492,,,,,,1397115161857,"HYDROCHLORIC ACID (1995 AND AFTER ""ACID AEROSOLS"" ONLY)",007647010,YES,NON-PBT,NO,0,NO,R,Pounds,424,159,0,0,0,0,0,0,0,0,0,0,583,0,0,0,0,0,0,0,0,0,0,0,0,0,0,0,0,0,0,0,0,0,0,0,0,0,0,0,0,0,0,0,0,0,0,0,0,0,583,583,0,0,0,0,0,0,0,0,83059,0,83642,0,3.11,FERRO CORP,004161477
1997,07080NFRMT4315N,UNIFORM TUBES INC. KLEINER METAL DIV.,4315 NEW BRUNSWICK AVE.,SOUTH PLAINFIELD,MIDDLESEX,NJ,07080,40.559835,-74.437876,3469,,,,,,332996,,,,,,1397115255628,DICHLOROMETHANE,000075092,YES,NON-PBT,NO,0,YES,R,Pounds,0,10727,0,0,0,0,0,0,0,0,0,0,10727,0,0,0,0,0,0,0,0,0,0,0,0,0,0,0,0,0,0,0,0,0,0,0,0,0,0,0,0,0,0,0,0,0,0,0,1361,1361,10727,10727,0,0,0,0,0,0,0,0,0,1361,12088,0,.96,UTI CORP,049635048
1997,07105BNJMN134LI,BENJAMIN MOORE & CO - NEWARK,134 LISTER AVE,NEWARK,ESSEX,NJ,07105,40.74001,-74.132483,2851,,,,,,325510,,,,,,1397115279871,ZINC COMPOUNDS,N982,NO,NON-PBT,YES,1,NO,R,Pounds,98,0,0,0,0,0,0,0,0,0,0,0,98,0,0,0,0,0,0,0,0,0,415,0,0,0,0,0,0,0,0,0,0,415,0,0,9,0,0,9,0,0,0,0,0,0,0,0,0,0,513,513,0,0,0,0,0,0,113,9,0,0,635,0,.8,BERKSHIRE HATHAWAY,001210715
1997,07405BTLRP250HA,BUTLER PRINTING & LAMINATING INC,250 HAMBURG TURNPIKE,BUTLER,MORRIS,NJ,07405,41.00941,-74.3529,2754,,,,,,323111,,,,,,1397115289783,METHYL ETHYL KETONE,000078933,NO,NON-PBT,NO,0,NO,R,Pounds,0,13883,0,0,0,0,0,0,0,0,0,0,13883,0,0,0,0,0,0,0,0,0,0,0,0,0,0,0,0,0,0,0,0,0,0,0,0,0,0,0,0,0,0,0,0,0,0,0,0,0,13883,13883,0,0,0,0,0,0,0,8800,0,0,22683,0,1.08,NA,NA
1997,07072RNDLP701TW,RANDOLPH PRODUCTS CO,701 12TH ST,CARLSTADT,BERGEN,NJ,07072,40.83392,-74.08663,2851,,,,,,325510,,,,,,1397110414962,METHYL ISOBUTYL KETONE,000108101,YES,NON-PBT,NO,0,NO,R,Pounds,480,6,0,0,0,0,0,0,0,0,0,0,486,0,0,0,0,0,0,0,0,0,0,0,0,0,0,0,0,0,0,0,0,0,0,0,0,0,0,0,6000,0,6000,0,0,0,0,0,0,0,486,480,0,0,0,0,0,6000,2100,0,0,0,8580,0,1,C & C VENTURES LLC,002003846
1997,08009SRNDS104NR,S A R INDL. FINISHING INC.,104  RTE. 73,BERLIN,CAMDEN,NJ,08009,39.725678,-74.903273,3479,,,,,,332812,,,,,,1397110450323,TOLUENE,000108883,YES,NON-PBT,NO,0,NO,R,Pounds,100,6499,0,0,0,0,0,0,0,0,0,0,6599,0,0,0,0,0,0,0,0,0,0,0,0,0,0,0,0,0,0,0,0,0,5075,0,0,0,0,5075,0,0,0,0,0,0,0,0,0,0,6599,6499,0,0,0,0,0,0,0,5075,0,0,11574,0,1.1,NA,NA
1997,08903DLCRM760JE,JOHNSON CONTROLS BATTERY GROUP INC.,760 JERSEY AVE,NEW BRUNSWICK,MIDDLESEX,NJ,08901,40.472584,-74.473828,3691,,,,,,335912,,,,,,1397110452202,LEAD COMPOUNDS,N420,YES,PBT,YES,1,NO,R,Pounds,0,3200,0,0,0,0,0,0,0,0,0,0,3200,10,0,10,0,0,0,0,0,0,23000,0,0,0,0,0,0,0,0,0,0,23000,0,9682000,0,0,0,9682000,0,0,0,0,0,0,0,5,0,5,26210,26000,0,0,0,0,0,0,0,9700000,0,0,9726000,0,.96,JOHNSON CONTROLS INC,NA
1997,07011SFSCR2ACKE,SAFAS CORP,2 ACKERMAN RD,CLIFTON,PASSAIC,NJ,07011,40.87918,-74.12225,3089,,,,,,325991,,,,,,1397115030052,STYRENE,000100425,YES,NON-PBT,NO,0,YES,R,Pounds,3,277,0,0,0,0,0,0,0,0,0,0,280,0,0,0,0,0,0,0,0,0,0,0,0,0,0,0,0,0,0,0,0,0,0,0,0,0,0,0,0,0,0,0,0,0,0,0,0,0,280,527,0,0,0,0,0,0,0,0,0,0,527,0,1.06,SAFAS CORP,NA
1997,07036PRMNT1515W,PARAMOUNT METAL FINISHING,1515 W ELIZABETH AVE,LINDEN,UNION,NJ,07036,40.619973,-74.263704,3471,,,,,,332813,,,,,,1397115064685,TOLUENE,000108883,YES,NON-PBT,NO,0,NO,R,Pounds,0,280,0,0,0,0,0,0,0,0,0,0,280,0,0,0,0,0,0,0,0,0,0,0,0,0,0,0,0,0,0,0,0,0,0,0,0,0,0,0,36,0,36,0,0,0,0,0,0,0,280,0,0,0,0,0,0,106,0,0,0,0,106,0,,NA,NA
1997,07002CMRCS229EA,AGC CHEMICALS AMERICAS INC,229 E 22ND ST,BAYONNE,HUDSON,NJ,07002,40.66055,-74.104734,2821,,,,,,325211,,,,,,1397115115281,"HYDROCHLORIC ACID (1995 AND AFTER ""ACID AEROSOLS"" ONLY)",007647010,YES,NON-PBT,NO,0,NO,R,Pounds,1002,120,0,0,0,0,0,0,0,0,0,0,1122,0,0,0,0,0,0,0,0,0,0,0,0,0,0,0,0,0,0,0,0,0,0,0,0,0,0,0,0,0,0,0,0,0,0,0,0,0,1122,1122,0,0,0,0,0,0,0,0,6976605,0,6977727,0,1,ASAHI GLASS AMERICA INC,185871324
1997,07960NSRLL80LIT,PHELPS DODGE HIGH PERFORMANCE CONDUCTORS OF NJ INC.,80 LITTLE FALLS RD.,FAIRFIELD,ESSEX,NJ,07004,40.888776,-74.271297,3471,3351,,,,,331000,,,,,,1397115235816,NICKEL,007440020,YES,NON-PBT,YES,1,YES,R,Pounds,5,5,0,0,0,0,0,0,0,0,0,0,10,52,0,52,0,0,0,0,0,0,0,0,0,0,0,0,0,0,0,0,0,0,0,1776,0,0,0,1776,0,0,0,0,0,0,0,0,118,118,62,6,0,0,0,0,0,0,0,2971,52,118,3147,0,.72,PHELPS DODGE CORP,001213149
1997,07080VNGRD239ST,VANGUARD RESEARCH INDUSTRIES INC,239 SAINT NICHOLAS AVE,SOUTH PLAINFIELD,MIDDLESEX,NJ,07080,40.563182,-74.421936,3471,3341,2899,,,,332813,,,,,,1397115255958,COPPER COMPOUNDS,N100,NO,NON-PBT,YES,1,NO,R,Pounds,0,0,0,0,0,0,0,0,0,0,0,0,0,15,0,15,0,0,0,0,0,0,0,0,0,0,0,0,0,0,0,0,0,0,0,25236,0,0,0,25236,0,0,0,0,0,0,0,0,0,0,15,387748,0,0,0,0,0,0,0,6346,0,15,394109,0,1.5,VANGUARD HOLDINGS,NA
1997,08805RBHDSL5FAC,RBH DISPERSIONS,L5 FACTORY LN.,BOUND BROOK,MIDDLESEX,NJ,08805,40.560631,-74.515581,2851,,,,,,325510,,,,,,1397115253876,TOLUENE,000108883,YES,NON-PBT,NO,0,NO,R,Pounds,6800,3000,0,0,0,0,0,0,0,0,0,0,9800,0,0,0,0,0,0,0,0,0,0,0,0,0,0,0,0,0,0,0,0,0,0,0,0,0,0,0,16200,0,16200,0,0,25000,0,0,0,25000,9800,10000,0,0,0,0,0,81000,40000,0,0,0,131000,0,.73,REICHHOLD CHEMICALS INC,001220904
1997,07304DYSPC37BEN,DYE SPECIALTIES INC,407 EGE AVE,JERSEY CITY,HUDSON,NJ,073041014,40.718741,-74.090683,2865,,,,,,325132,,,,,,1397115337370,PHOSGENE,000075445,YES,NON-PBT,NO,0,NO,R,Pounds,0,0,0,0,0,0,0,0,0,0,0,0,0,0,0,0,0,0,0,0,0,0,0,0,0,0,0,0,0,0,0,0,0,0,0,0,0,0,0,0,0,0,0,0,0,0,0,0,0,0,0,0,0,0,0,0,0,0,0,0,1,0,1,0,1,NA,NA
1997,07080KRNFM1253N,PERRY TECHNOLOGY CO INC,1253 NEW MARKET AVE,SOUTH PLAINFIELD,MIDDLESEX,NJ,07080,40.58032,-74.428193,3086,,,,,,326100,,,,,,1397111030476,TOLUENE DIISOCYANATE (MIXED ISOMERS),026471625,NO,NON-PBT,NO,0,YES,A,Pounds,0,0,0,0,0,0,0,0,0,0,0,0,0,0,0,0,0,0,0,0,0,0,0,0,0,0,0,0,0,0,0,0,0,0,0,0,0,0,0,0,0,0,0,0,0,0,0,0,0,0,0,0,0,0,0,0,0,0,0,0,0,0,0,0,,PERRY CHEMICAL & MANUFACTURING CO INC,005107537
1997,07002NRTNS148EA,MURALO CO INC NORTON & SON DIV,148 E FIFTH ST,BAYONNE,HUDSON,NJ,070020455,40.650443,-74.121871,2851,,,,,,325510,,,,,,1397111060796,CERTAIN GLYCOL ETHERS,N230,YES,NON-PBT,NO,0,NO,A,Pounds,0,0,0,0,0,0,0,0,0,0,0,0,0,0,0,0,0,0,0,0,0,0,0,0,0,0,0,0,0,0,0,0,0,0,0,0,0,0,0,0,0,0,0,0,0,0,0,0,0,0,0,0,0,0,0,0,0,0,0,0,0,0,0,0,,MURALO CO INC,001468255
1997,08110LMNMS9000R,ALUMINUM SHAPES LLC,9000 RIVER RD,DELAIR,CAMDEN,NJ,081103296,39.986944,-75.044917,3354,3312,,,,,331316,,,,,,1397115010047,TOLUENE,000108883,YES,NON-PBT,NO,0,NO,R,Pounds,3,3,0,0,0,0,0,0,0,0,0,0,6,0,0,0,0,0,0,0,0,0,0,0,0,0,0,0,0,0,0,0,0,0,0,0,0,0,0,0,16864,0,16864,0,0,0,0,0,0,0,6,9343,0,0,0,0,0,16864,58855,0,101804,0,186866,0,.71,SHAPES/ARCH HOLDINGS LLC,958372708
1997,07066CSMRN20022,LOREAL,200-222 TERMINAL AVE,CLARK,UNION,NJ,07066,40.627706,-74.319182,2844,,,,,,325600,,,,,,1397115111609,PHOSPHORIC ACID,007664382,NO,NON-PBT,NO,0,NO,R,Pounds,0,0,0,0,0,0,0,0,0,0,0,0,0,0,750,750,0,0,0,0,0,0,0,0,0,0,0,0,0,0,0,0,0,0,0,0,0,0,0,0,250,0,250,0,0,0,0,0,0,0,0,748,0,0,0,0,0,219,0,0,0,0,967,0,1.07,L'OREAL PARIS,002136794
1997,07512HNCHM90MAL,ASHLAND INC,90 MALTESE DR,TOTOWA,PASSAIC,NJ,07512,40.90217,-74.24319,2821,,,,,,325520,,,,,,1397115110379,TOLUENE,000108883,YES,NON-PBT,NO,0,NO,R,Pounds,0,0,0,0,0,0,0,0,0,0,0,0,0,0,0,0,0,0,0,0,0,0,0,0,0,0,0,0,0,0,0,0,0,0,107593,0,0,0,0,107593,0,0,0,0,0,0,0,0,0,0,0,5875,0,0,0,0,0,0,0,107593,0,0,113468,0,1.05,ASHLAND INC,005003264
1997,07512HNCHM90MAL,ASHLAND INC,90 MALTESE DR,TOTOWA,PASSAIC,NJ,07512,40.90217,-74.24319,2821,,,,,,325211,,,,,,1397115110429,METHYL ETHYL KETONE,000078933,NO,NON-PBT,NO,0,NO,R,Pounds,242,0,0,0,0,0,0,0,0,0,0,0,242,0,0,0,0,0,0,0,0,0,0,0,0,0,0,0,0,0,0,0,0,0,15201,0,0,0,0,15201,0,0,0,0,0,0,0,0,0,0,242,242,0,0,0,0,0,0,0,11412,0,0,11654,0,.36,ASHLAND INC,005003264
1997,07012DRTST185SC,DURO-TEST CORP.,185 SCOLES AVE.,CLIFTON,PASSAIC,NJ,07012,40.851193,-74.155541,3641,,,,,,335110,,,,,,1397115158420,NITRIC ACID,007697372,NO,NON-PBT,NO,0,NO,R,Pounds,11,41,0,0,0,0,0,0,0,0,0,0,52,0,0,0,0,0,0,0,0,0,0,0,0,0,0,0,0,0,0,0,0,0,0,0,0,0,0,0,0,0,0,0,0,0,0,0,0,0,52,52,0,0,0,0,0,0,0,0,14647,0,14699,0,.88,DURO-TEST CORP,001294255
1997,07507PNCHM1WASH,PAN TECHNOLOGY,1 WASHINGTON AVE.,HAWTHORNE,PASSAIC,NJ,07507,40.94271,-74.15297,2851,,,,,,325510,,,,,,1397115268169,METHYL ETHYL KETONE,000078933,NO,NON-PBT,NO,0,NO,R,Pounds,0,10000,0,0,0,0,0,0,0,0,0,0,10000,0,0,0,0,0,0,0,0,0,0,0,0,0,0,0,0,0,0,0,0,0,0,0,0,0,0,0,0,0,0,0,67783,0,0,0,0,67783,10000,10000,0,0,0,0,0,0,53921,0,0,0,63921,0,1,NA,NA
1997,07936SDMKL17WES,SIDMAK LABORATORIES,17 WEST ST.,EAST HANOVER,MORRIS,NJ,07936,40.817557,-74.365091,2834,,,,,,325412,,,,,,1397115280125,DICHLORODIFLUOROMETHANE,000075718,NO,NON-PBT,NO,0,NO,R,Pounds,305,82,0,0,0,0,0,0,0,0,0,0,387,0,0,0,0,0,0,0,0,0,0,0,0,0,0,0,0,0,0,0,0,0,0,0,0,0,0,0,0,0,0,0,0,7025,0,0,0,7025,387,387,0,0,0,0,0,0,0,0,0,7025,7412,0,,SIDMAK LABORATORIES,094965662
1997,08077NTNLCBROAD,NATIONAL CASEIN OF NEW JERSEY,401 MARTHAS LN,RIVERTON,BURLINGTON,NJ,08077,40.013717,-75.00922,2891,,,,,,325520,,,,,,1397116019567,METHYL METHACRYLATE,000080626,YES,NON-PBT,NO,0,NO,A,Pounds,0,0,0,0,0,0,0,0,0,0,0,0,0,0,0,0,0,0,0,0,0,0,0,0,0,0,0,0,0,0,0,0,0,0,0,0,0,0,0,0,0,0,0,0,0,0,0,0,0,0,0,0,0,0,0,0,0,0,0,0,0,0,0,0,,NATIONAL CASEIN CO,NA
1997,08003HSSMNWOODC,VICTORY REFRIGERATION,110 WOODCREST RD,CHERRY HILL,CAMDEN,NJ,08003,39.874167,-75.011667,3585,,,,,,333415,,,,,,1397115319752,DIISOCYANATES,N120,YES,NON-PBT,NO,0,NO,R,Pounds,0,0,0,0,0,0,0,0,0,0,0,0,0,0,0,0,0,0,0,0,0,0,0,0,0,0,0,0,0,0,0,0,0,0,0,0,0,0,0,0,0,0,0,0,0,0,0,0,0,0,0,0,0,0,0,0,0,0,0,0,0,0,0,0,1.1,NA,NA
1997,08023DPNTCRT130,DUPONT CHAMBERS WORKS,RT 130,DEEPWATER,SALEM,NJ,08023,39.682362,-75.491379,2821,2843,2865,2869,,,325193,,,,,,1397110461112,NICKEL COMPOUNDS,N495,YES,NON-PBT,YES,1,NO,R,Pounds,0,0,4684,0,0,13604,0,0,0,0,0,0,18288,0,0,0,0,0,0,0,0,0,85108,0,0,0,0,0,0,0,0,0,0,85108,0,0,0,0,0,0,0,0,0,0,6257,0,0,0,0,6257,103396,103396,0,0,0,0,0,0,0,0,0,6257,109653,0,,E I DU PONT DE NEMOURS & CO INC,001315704
1997,08023DPNTCRT130,DUPONT CHAMBERS WORKS,RT 130,DEEPWATER,SALEM,NJ,08023,39.682362,-75.491379,2821,2843,2865,2869,,,325211,,,,,,1397110461213,PHOSPHORIC ACID,007664382,NO,NON-PBT,NO,0,NO,R,Pounds,0,0,0,0,0,0,0,0,0,0,0,0,0,0,0,0,0,0,0,0,0,0,0,0,0,0,0,0,0,0,0,0,0,0,0,0,0,0,0,0,0,0,0,0,0,0,0,0,0,0,0,0,0,0,0,0,0,0,0,0,346,0,346,0,1.98,E I DU PONT DE NEMOURS & CO INC,001315704
1997,08873WMZNS39BEL,RUST-OLEUM CORP,173 BELMONT DR,SOMERSET,SOMERSET,NJ,08875,40.535292,-74.540919,2851,,,,,,325510,,,,,,1397111007148,METHYL METHACRYLATE,000080626,YES,NON-PBT,NO,0,NO,A,Pounds,0,0,0,0,0,0,0,0,0,0,0,0,0,0,0,0,0,0,0,0,0,0,0,0,0,0,0,0,0,0,0,0,0,0,0,0,0,0,0,0,0,0,0,0,0,0,0,0,0,0,0,0,0,0,0,0,0,0,0,0,0,0,0,0,,RPM INC,004155651
1997,07601MRCRY214SN,MERCURY FOAM CORP. OF N.J.,214 S. NEWMAN ST.,HACKENSACK,BERGEN,NJ,07601,40.874546,-74.056896,3069,,,,,,326299,,,,,,1397115006482,DIISOCYANATES,N120,YES,NON-PBT,NO,0,NO,R,Pounds,0,0,0,0,0,0,0,0,0,0,0,0,0,0,0,0,0,0,0,0,0,0,0,0,0,0,0,0,0,0,0,0,0,0,0,0,0,0,0,0,0,0,0,0,0,0,0,0,0,0,0,0,0,0,0,0,0,0,0,0,0,0,0,0,1,MERCURY FOAM CORP,001497205
1997,07055SNBRT35EIG,SUNBRITE DYE CO INC,35 EIGHTH ST,PASSAIC,PASSAIC,NJ,07055,40.856666,-74.111111,2262,,,,,,313311,,,,,,1397115209761,AMMONIA,007664417,NO,NON-PBT,NO,0,NO,R,Pounds,750,250,0,0,0,0,0,0,0,0,0,0,1000,0,2467,2467,0,0,0,0,0,0,0,0,0,0,0,0,0,0,0,0,0,0,0,0,0,0,0,0,0,0,0,0,0,0,0,0,0,0,1000,200,0,0,0,0,0,0,0,0,15007,2467,17674,0,1.1,NA,NA
1997,08840RCHMN131FO,RICHMOND INDUSTRIES INC.,131 LIBERTY ST.,METUCHEN,MIDDLESEX,NJ,08840,40.549439,-74.376414,3366,,,,,,331525,,,,,,1397116036486,COPPER,007440508,NO,NON-PBT,YES,1,NO,A,Pounds,0,0,0,0,0,0,0,0,0,0,0,0,0,0,0,0,0,0,0,0,0,0,0,0,0,0,0,0,0,0,0,0,0,0,0,0,0,0,0,0,0,0,0,0,0,0,0,0,0,0,0,0,0,0,0,0,0,0,0,0,0,0,0,0,,NA,NA
1997,07735FRGRN275CL,FRAGRANCE RESOURCES  INC,275 CLARK ST,KEYPORT,MONMOUTH,NJ,07735,40.423051,-74.208188,2869,,,,,,325620,,,,,,1397115315816,TOLUENE,000108883,YES,NON-PBT,NO,0,NO,R,Pounds,2000,26,0,0,0,0,0,0,0,0,0,0,2026,0,0,0,0,0,0,0,0,0,0,0,0,0,0,0,0,0,0,0,0,0,0,0,0,0,0,0,515208,0,515208,0,0,22486,0,0,0,22486,2026,2026,0,0,0,0,0,537694,0,0,0,0,539720,0,1.01,NA,NA
1997,07083LCNPW901LE,ACUPOWDER INTERNATIONAL LLC,901 LEHIGH AVE,UNION,UNION,NJ,07083,40.682472,-74.242325,3399,,,,,,331423,,,,,,1397116036106,ANTIMONY,007440360,YES,NON-PBT,YES,1,NO,A,Pounds,0,0,0,0,0,0,0,0,0,0,0,0,0,0,0,0,0,0,0,0,0,0,0,0,0,0,0,0,0,0,0,0,0,0,0,0,0,0,0,0,0,0,0,0,0,0,0,0,0,0,0,0,0,0,0,0,0,0,0,0,0,0,0,0,,ACUPOWDER INTERNATIONAL LLC,NA
1997,07501PSSCC2836P,ROYCE ASSOCIATES L P PASSAIC COLOR CHEMICAL CO DIV,28-36 PATERSON STREET,PATERSON,PASSAIC,NJ,07501,40.92308,-74.16813,2865,,,,,,325100,,,,,,1397116046968,"1,3-PHENYLENEDIAMINE",000108452,NO,NON-PBT,NO,0,NO,A,Pounds,0,0,0,0,0,0,0,0,0,0,0,0,0,0,0,0,0,0,0,0,0,0,0,0,0,0,0,0,0,0,0,0,0,0,0,0,0,0,0,0,0,0,0,0,0,0,0,0,0,0,0,0,0,0,0,0,0,0,0,0,0,0,0,0,,MANOPCO INC MANAGING PARTNER,NA
1997,07036LFLBR5NSTI,TOTAL LUBRICANTS USA INC,5 N STILES ST,LINDEN,UNION,NJ,07036,40.625681,-74.255767,2992,,,,,,324191,,,,,,1397116051893,ETHYLENE GLYCOL,000107211,YES,NON-PBT,NO,0,NO,A,Pounds,0,0,0,0,0,0,0,0,0,0,0,0,0,0,0,0,0,0,0,0,0,0,0,0,0,0,0,0,0,0,0,0,0,0,0,0,0,0,0,0,0,0,0,0,0,0,0,0,0,0,0,0,0,0,0,0,0,0,0,0,0,0,0,0,,TOTAL HOLDINGS USA INC,037810702
1997,07081BGLWC74DIA,BIGELOW COMPONENTS CORP,74 DIAMOND RD,SPRINGFIELD,UNION,NJ,07081,40.683705,-74.318686,3452,,,,,,332722,,,,,,1397116032602,NICKEL,007440020,YES,NON-PBT,YES,1,YES,A,Pounds,0,0,0,0,0,0,0,0,0,0,0,0,0,0,0,0,0,0,0,0,0,0,0,0,0,0,0,0,0,0,0,0,0,0,0,0,0,0,0,0,0,0,0,0,0,0,0,0,0,0,0,0,0,0,0,0,0,0,0,0,0,0,0,0,,NA,NA
1997,07055HRCLS111SO,HERCULES CHEMICAL CO INC,111 S ST,PASSAIC,PASSAIC,NJ,07055,40.860403,-74.112652,2899,,,,,,325520,,,,,,1397116051311,COPPER COMPOUNDS,N100,NO,NON-PBT,YES,1,NO,A,Pounds,0,0,0,0,0,0,0,0,0,0,0,0,0,0,0,0,0,0,0,0,0,0,0,0,0,0,0,0,0,0,0,0,0,0,0,0,0,0,0,0,0,0,0,0,0,0,0,0,0,0,0,0,0,0,0,0,0,0,0,0,0,0,0,0,,NA,NA
1997,07657CLRTP101RA,COLORITE PLASTICS CO,101 RAILROAD AVE,RIDGEFIELD,BERGEN,NJ,076572312,40.826111,-74.013889,3052,3087,,,,,326220,,,,,,1397116042894,CHROMIUM COMPOUNDS(EXCEPT CHROMITE ORE MINED IN THE TRANSVAAL REGION),N090,YES,NON-PBT,YES,1,NO,A,Pounds,0,0,0,0,0,0,0,0,0,0,0,0,0,0,0,0,0,0,0,0,0,0,0,0,0,0,0,0,0,0,0,0,0,0,0,0,0,0,0,0,0,0,0,0,0,0,0,0,0,0,0,0,0,0,0,0,0,0,0,0,0,0,0,0,,TEKNI-PLEX INC,042023333
1997,07524CRDNL50561,CARDINAL COLOR INC,50-56 1ST AVE,PATERSON,PASSAIC,NJ,07524,40.940391,-74.145876,2865,,,,,,325998,,,,,,1397116052147,CHROMIUM,007440473,YES,NON-PBT,YES,1,YES,A,Pounds,0,0,0,0,0,0,0,0,0,0,0,0,0,0,0,0,0,0,0,0,0,0,0,0,0,0,0,0,0,0,0,0,0,0,0,0,0,0,0,0,0,0,0,0,0,0,0,0,0,0,0,0,0,0,0,0,0,0,0,0,0,0,0,0,,NA,NA
1997,08512PLNTFHIGHT,PLANT FOOD CO INC,38 HIGHTSTOWN-CRANBURY STATION,CRANBURY,MIDDLESEX,NJ,08512,40.29578,-74.497786,2874,,,,,,325312,,,,,,1397116028630,PHOSPHORIC ACID,007664382,NO,NON-PBT,NO,0,NO,A,Pounds,0,0,0,0,0,0,0,0,0,0,0,0,0,0,0,0,0,0,0,0,0,0,0,0,0,0,0,0,0,0,0,0,0,0,0,0,0,0,0,0,0,0,0,0,0,0,0,0,0,0,0,0,0,0,0,0,0,0,0,0,0,0,0,0,,NA,NA
1997,08057MRCNB105WG,AMERICAN BILTRITE INC,105 WHITTENDALE DR,MOORESTOWN,BURLINGTON,NJ,08057,39.975153,-74.974192,2672,,,,,,322222,,,,,,1397116043100,TOLUENE,000108883,YES,NON-PBT,NO,0,NO,A,Pounds,0,0,0,0,0,0,0,0,0,0,0,0,0,0,0,0,0,0,0,0,0,0,0,0,0,0,0,0,0,0,0,0,0,0,0,0,0,0,0,0,0,0,0,0,0,0,0,0,0,0,0,0,0,0,0,0,0,0,0,0,0,0,0,0,,NA,NA
1997,07063NTNLS1735W,NATIONAL STARCH & CHEMICAL CO.,1700 W. FRONT ST.,PLAINFIELD,UNION,NJ,07063,40.596012,-74.456524,2891,,,,,,325520,,,,,,1397116049115,DIISOCYANATES,N120,YES,NON-PBT,NO,0,NO,A,Pounds,0,0,0,0,0,0,0,0,0,0,0,0,0,0,0,0,0,0,0,0,0,0,0,0,0,0,0,0,0,0,0,0,0,0,0,0,0,0,0,0,0,0,0,0,0,0,0,0,0,0,0,0,0,0,0,0,0,0,0,0,0,0,0,0,,NATIONAL STARCH & CHEMICAL CO,001519230
1997,08031FSHRSWESTB,FISHER STEEL INC,WEST BROWNING RD & RAILROAD AVE,BELLMAWR,CAMDEN,NJ,08031,39.86617,-75.08337,3441,,,,,,332312,,,,,,1397116058951,MANGANESE,007439965,YES,NON-PBT,YES,1,NO,A,Pounds,0,0,0,0,0,0,0,0,0,0,0,0,0,0,0,0,0,0,0,0,0,0,0,0,0,0,0,0,0,0,0,0,0,0,0,0,0,0,0,0,0,0,0,0,0,0,0,0,0,0,0,0,0,0,0,0,0,0,0,0,0,0,0,0,,NA,NA
1997,08014CSTMB210HI,CUSTOM BUILDING PRODUCTS,2115 HIGH HILL RD,LOGAN TOWNSHIP,GLOUCESTER,NJ,08085,39.74869,-75.329528,2899,2891,,,,,325998,,,,,,1397116059092,AMMONIA,007664417,NO,NON-PBT,NO,0,NO,A,Pounds,0,0,0,0,0,0,0,0,0,0,0,0,0,0,0,0,0,0,0,0,0,0,0,0,0,0,0,0,0,0,0,0,0,0,0,0,0,0,0,0,0,0,0,0,0,0,0,0,0,0,0,0,0,0,0,0,0,0,0,0,0,0,0,0,,CUSTOM BUILDING PRODUCTS INC,041688284
1997,07001PLTLB267HO,PILOT LABORATORIES,267 HOMESTEAD AVE,AVENEL,MIDDLESEX,NJ,07001,40.578324,-74.257432,2843,,,,,,325613,,,,,,1397116053947,DIETHANOLAMINE,000111422,YES,NON-PBT,NO,0,NO,A,Pounds,0,0,0,0,0,0,0,0,0,0,0,0,0,0,0,0,0,0,0,0,0,0,0,0,0,0,0,0,0,0,0,0,0,0,0,0,0,0,0,0,0,0,0,0,0,0,0,0,0,0,0,0,0,0,0,0,0,0,0,0,0,0,0,0,,PILOT CHEMICAL CORP,008287823
1997,07105BNJMN134LI,BENJAMIN MOORE & CO - NEWARK,134 LISTER AVE,NEWARK,ESSEX,NJ,07105,40.74001,-74.132483,2851,,,,,,325510,,,,,,1397116058619,METHYL METHACRYLATE,000080626,YES,NON-PBT,NO,0,NO,A,Pounds,0,0,0,0,0,0,0,0,0,0,0,0,0,0,0,0,0,0,0,0,0,0,0,0,0,0,0,0,0,0,0,0,0,0,0,0,0,0,0,0,0,0,0,0,0,0,0,0,0,0,0,0,0,0,0,0,0,0,0,0,0,0,0,0,,BERKSHIRE HATHAWAY,001210715
1997,08872CNFLD1SCRO,CANFIELD TECHNOLOGIES,1 S CROSSMAN RD,SAYREVILLE,MIDDLESEX,NJ,08872,40.47539,-74.31903,3356,,,,,,331491,,,,,,1397116054735,ANTIMONY,007440360,YES,NON-PBT,YES,1,NO,A,Pounds,0,0,0,0,0,0,0,0,0,0,0,0,0,0,0,0,0,0,0,0,0,0,0,0,0,0,0,0,0,0,0,0,0,0,0,0,0,0,0,0,0,0,0,0,0,0,0,0,0,0,0,0,0,0,0,0,0,0,0,0,0,0,0,0,,KAYDON CORP,101633782
1997,07073NTDST343MU,SUN CHEMICAL CORP. U.S. INK DIV.,343 MURRAY HILL PKY.,EAST RUTHERFORD,BERGEN,NJ,070732110,40.820466,-74.092133,2893,,,,,,325910,,,,,,1397116059623,BARIUM COMPOUNDS,N040,NO,NON-PBT,YES,3,NO,A,Pounds,0,0,0,0,0,0,0,0,0,0,0,0,0,0,0,0,0,0,0,0,0,0,0,0,0,0,0,0,0,0,0,0,0,0,0,0,0,0,0,0,0,0,0,0,0,0,0,0,0,0,0,0,0,0,0,0,0,0,0,0,0,0,0,0,,SUN CHEMICAL CORP,144638558
1997,07509FBRCL2412V,FABRICOLOR MFG. CORP.,24 1/2 VAN HOUTEN ST.,PATERSON,PASSAIC,NJ,07505,40.918196,-74.175259,2865,,,,,,325100,,,,,,1397116040294,"3,3'-DICHLOROBENZIDINE DIHYDROCHLORIDE",000612839,NO,NON-PBT,NO,0,YES,A,Pounds,0,0,0,0,0,0,0,0,0,0,0,0,0,0,0,0,0,0,0,0,0,0,0,0,0,0,0,0,0,0,0,0,0,0,0,0,0,0,0,0,0,0,0,0,0,0,0,0,0,0,0,0,0,0,0,0,0,0,0,0,0,0,0,0,,FABRICOLOR INC,062044326
1997,08872NWJRSNORTH,GERDAU AMERISTEEL SAYREVILLE INC,N CROSSMAN RD,SAYREVILLE,MIDDLESEX,NJ,088710249,40.481056,-74.320472,3312,,,,,,331111,,,,,,1397110247727,LEAD,007439921,YES,PBT,YES,1,YES,R,Pounds,114,2490,0,0,0,0,0,0,0,0,0,0,2604,0,0,0,0,0,0,0,0,0,0,0,0,0,0,0,0,0,0,0,0,0,0,0,0,0,0,0,0,0,0,0,0,0,0,0,0,0,2604,2604,0,0,0,0,0,0,0,908450,0,0,911054,0,1.27,GERDAU GROUP,NA
1997,08863HTCCRKINGG,CHEMTURA CORP D/B/A HATCO CORP,1020 KING GEORGES POST RD,FORDS,MIDDLESEX,NJ,08863,40.52896,-74.31606,2869,,,,,,325199,,,,,,1397111036911,"4,4'-ISOPROPYLIDENEDIPHENOL",000080057,NO,NON-PBT,NO,0,NO,A,Pounds,0,0,0,0,0,0,0,0,0,0,0,0,0,0,0,0,0,0,0,0,0,0,0,0,0,0,0,0,0,0,0,0,0,0,0,0,0,0,0,0,0,0,0,0,0,0,0,0,0,0,0,0,0,0,0,0,0,0,0,0,0,0,0,0,,CHEMTURA CORP,088400325
1997,07036SLRCM1201W,SOLAR COMPOUNDS CORP.,1201 W. BLANKE ST.,LINDEN,UNION,NJ,07036,40.6225,-74.263194,2891,2851,2951,,,,325520,,,,,,1397115152175,TOLUENE,000108883,YES,NON-PBT,NO,0,NO,R,Pounds,768,1100,0,0,0,0,0,0,0,0,0,0,1868,0,0,0,0,0,0,0,0,0,0,0,0,0,0,0,0,0,0,0,0,0,0,0,0,0,0,0,0,0,0,0,0,900,0,0,0,900,1868,1860,0,0,0,0,0,0,0,0,0,900,2760,0,1.06,NA,NA
1997,07512RRBRT990RI,GIVAUDAN FRAGRANCES CORP,990 RIVERVIEW DR,TOTOWA,PASSAIC,NJ,07421,40.90726,-74.24056,2844,,,,,,325199,,,,,,1397110024104,CERTAIN GLYCOL ETHERS,N230,YES,NON-PBT,NO,0,NO,R,Pounds,5,0,0,0,0,0,0,0,0,0,0,0,5,0,250,250,0,0,0,0,0,0,0,0,0,0,0,0,0,0,0,0,0,0,0,0,0,0,0,0,0,0,0,0,0,0,0,0,0,0,5,5,0,0,0,0,0,0,0,0,0,0,5,0,1.41,NA,NA
1997,08818FRDMT939US,FORD MOTOR CO EDISON ASSEMBLY PLANT,939 US HWY 1,EDISON,MIDDLESEX,NJ,08818,40.516777,-74.371651,3711,,,,,,336112,,,,,,1397110265384,NITRATE COMPOUNDS,N511,NO,NON-PBT,NO,0,NO,R,Pounds,0,61614,0,0,0,0,0,0,0,0,0,0,61614,0,61599,61599,0,0,0,0,0,0,15,0,0,0,0,0,0,0,0,0,0,15,0,0,0,0,0,0,0,0,0,0,0,0,0,0,0,0,61629,61630,0,0,0,0,0,0,0,0,0,0,61630,0,.99,FORD MOTOR CO,001344746
1997,08818FRDMT939US,FORD MOTOR CO EDISON ASSEMBLY PLANT,939 US HWY 1,EDISON,MIDDLESEX,NJ,08818,40.516777,-74.371651,3711,,,,,,336112,,,,,,1397110265410,TOLUENE,000108883,YES,NON-PBT,NO,0,NO,R,Pounds,14375,4662,0,0,0,0,0,0,0,0,0,0,19037,0,0,0,0,0,0,0,0,0,0,0,0,0,0,0,0,0,0,0,0,0,11563,0,0,0,0,11563,3188,0,3188,0,0,0,0,13,0,13,19037,19038,0,0,0,0,0,3188,0,11563,2762,13,36564,0,.99,FORD MOTOR CO,001344746
1997,07201MGRDR1029N,MAGRUDER COLOR LLC,1029 NEWARK AVE,ELIZABETH,UNION,NJ,07208,40.687867,-74.204287,2865,,,,,,325132,,,,,,1397115057301,NITRATE COMPOUNDS,N511,NO,NON-PBT,NO,0,NO,R,Pounds,0,0,0,0,0,0,0,0,0,0,0,0,0,0,36000,36000,0,0,0,0,0,0,0,0,0,0,0,0,0,0,0,0,0,0,0,0,0,0,0,0,0,0,0,0,0,0,0,0,0,0,0,0,0,0,0,0,0,0,0,0,0,36000,36000,0,1.24,MAGRUDER COLOR LLC (FKA MAGGYCO INC),618272137
1997,07470NRTNC150DE,SAINT GOBAIN PERFORMANCE PLASTICS CORP,150 DEY RD,WAYNE,PASSAIC,NJ,07470,40.913053,-74.25202,3082,,,,,,326121,,,,,,1397115210510,NITRIC ACID,007697372,NO,NON-PBT,NO,0,NO,R,Pounds,0,4015,0,0,0,0,0,0,0,0,0,0,4015,0,0,0,0,0,0,0,0,0,0,0,0,0,0,0,0,0,0,0,0,0,0,0,0,0,0,0,0,0,0,0,0,0,0,0,0,0,4015,4015,0,0,0,0,0,0,0,0,58060,0,62075,0,.75,SAINT-GOBAIN CORP,NA
1997,07036DCKRS1512W,LUBRIZOL CO,1512 W ELIZABETH AVE,LINDEN,UNION,NJ,07036,40.619885,-74.26382,2821,,,,,,325211,,,,,,1397110254657,STYRENE,000100425,YES,NON-PBT,NO,0,YES,R,Pounds,83,1,0,0,0,0,0,0,0,0,0,0,84,0,0,0,0,0,0,0,0,0,0,0,0,0,0,0,0,0,0,0,0,0,0,0,0,0,0,0,187,0,187,0,165,0,0,0,0,165,84,84,0,0,0,0,0,187,0,0,0,165,436,0,1,NA,NA
1997,07036DCKRS1512W,LUBRIZOL CO,1512 W ELIZABETH AVE,LINDEN,UNION,NJ,07036,40.619885,-74.26382,2821,,,,,,325211,,,,,,1397110254683,METHYL ISOBUTYL KETONE,000108101,YES,NON-PBT,NO,0,NO,R,Pounds,1,0,0,0,0,0,0,0,0,0,0,0,1,0,1,1,0,0,0,0,0,0,0,0,0,0,0,0,0,0,0,0,0,0,0,0,0,0,0,0,273,0,273,0,1,0,0,0,0,1,1,1,0,0,0,0,0,273,948,0,0,2,1224,0,1,NA,NA
1997,07006CRTSS300FA,CURTISS-WRIGHT FLIGHT SYSTEMS INC,300 FAIRFIELD RD.,FAIRFIELD,ESSEX,NJ,070041962,40.88177,-74.28679,3728,,,,,,336413,,,,,,1397115210027,"1,1,1-TRICHLOROETHANE",000071556,YES,NON-PBT,NO,0,NO,R,Pounds,0,11649,0,0,0,0,0,0,0,0,0,2631,14280,0,0,0,0,0,0,0,0,0,0,0,0,0,0,0,0,0,0,0,2631,2631,0,0,0,0,0,0,0,0,0,0,0,0,0,0,0,0,16911,11649,0,0,0,0,0,0,0,2631,0,0,14280,0,.99,CURTISS-WRIGHT CORP,002013522
1997,08818MBLCHRT27A,MOBIL CHEMICAL CO SYNTHETICS DIV,2195 RT 27 AT VINEYARD RD,EDISON,MIDDLESEX,NJ,088183140,40.534167,-74.381806,2865,,,,,,325110,,,,,,1397110190321,N-BUTYL ALCOHOL,000071363,NO,NON-PBT,NO,0,NO,R,Pounds,15,5,0,0,0,0,0,0,0,0,0,0,20,0,1,1,0,0,0,0,0,0,0,0,0,0,0,0,0,0,0,0,0,0,0,0,0,0,0,0,10,14587,14597,0,0,0,0,0,2,2,20,20,0,0,0,0,0,14597,67594,0,0,3,82214,0,1.59,EXXON MOBIL CORP,001213214
1997,08903KZCHM500JE,AKCROS CHEMICALS INC,500 JERSEY AVE,NEW BRUNSWICK,MIDDLESEX,NJ,089013502,40.47998,-74.46813,2869,2851,,,,,325199,,,,,,1397110278696,NITRIC ACID,007697372,NO,NON-PBT,NO,0,NO,R,Pounds,0,5,0,0,0,0,0,0,0,0,0,0,5,0,0,0,0,0,0,0,0,0,0,0,0,0,0,0,0,0,0,0,0,0,0,0,0,0,0,0,0,0,0,0,0,0,0,0,0,0,5,5,0,0,0,0,0,0,0,0,0,0,5,0,.93,NA,NA
1997,07643SCNTF49IND,SCIENTIFIC DESIGN CO INC,49 INDUSTRIAL AVE,LITTLE FERRY,BERGEN,NJ,076431901,40.845693,-74.035825,2819,,,,,,325188,,,,,,1397110150226,SILVER,007440224,NO,NON-PBT,YES,1,NO,R,Pounds,250,250,0,0,0,0,0,0,0,0,0,0,500,0,0,0,0,0,0,0,0,0,0,0,0,0,0,0,0,0,0,0,0,0,0,2620,0,0,0,2620,0,0,0,0,0,0,0,0,0,0,500,184,0,0,0,0,0,0,0,2620,0,0,2804,0,2.83,SUD CHEMIE/ SABIC INDUSTRIES,618400980
1997,08069BDDCHPENNS,LIBERTY PLASTICS INC,431 S PENNSVILLE-AUBURN RD,CARNEYS POINT,SALEM,NJ,08069,39.691278,-75.467556,2821,,,,,,325211,,,,,,1397110516960,ZINC COMPOUNDS,N982,NO,NON-PBT,YES,1,NO,R,Pounds,5,250,0,0,0,0,0,0,0,0,0,0,255,0,0,0,0,0,0,0,0,0,727,0,0,0,0,0,0,0,0,0,0,727,0,0,0,0,0,0,0,0,0,0,0,0,0,0,0,0,982,1053,0,0,0,0,0,0,0,0,0,0,1053,0,1.29,NA,NA
1997,08093CSTLGRTES1,SUNOCO INC,RT 130 & I-295 S,WESTVILLE,GLOUCESTER,NJ,08093,39.876528,-75.157222,2911,,,,,,324110,,,,,,1397110190461,"1,3-BUTADIENE",000106990,YES,NON-PBT,NO,0,YES,R,Pounds,6642,0,0,0,0,0,0,0,0,0,0,0,6642,0,0,0,0,0,0,0,0,0,0,0,0,0,0,0,0,0,0,0,0,0,0,0,0,0,0,0,0,0,0,0,0,0,0,0,0,0,6642,6642,0,0,0,0,19390,0,0,0,0,0,26032,0,1.07,SUNOCO INC,057152217
1997,08093CSTLGRTES1,SUNOCO INC,RT 130 & I-295 S,WESTVILLE,GLOUCESTER,NJ,08093,39.876528,-75.157222,2911,,,,,,324110,,,,,,1397110190497,METHYL TERT-BUTYL ETHER,001634044,YES,NON-PBT,NO,0,NO,R,Pounds,16262,87418,0,0,0,0,0,0,0,0,0,0,103680,0,0,0,0,0,0,0,0,0,0,0,0,0,0,0,0,0,0,0,0,0,0,0,0,0,0,0,6837,0,6837,0,0,0,0,0,0,0,103680,110365,0,0,0,0,0,6837,0,0,199665,0,316867,152,1.08,SUNOCO INC,057152217
1997,07105SNCHM185FO,SUN CHEMICAL CORP NEWARK PLANT,185 FOUNDRY ST,NEWARK,ESSEX,NJ,07105,40.727461,-74.132893,2865,,,,,,325411,,,,,,1397110276250,PHOSPHORIC ACID,007664382,NO,NON-PBT,NO,0,NO,R,Pounds,5,5,0,0,0,0,0,0,0,0,0,0,10,0,0,0,0,0,0,0,0,0,0,0,0,0,0,0,0,0,0,0,0,0,0,0,0,0,0,0,0,0,0,0,0,0,0,0,0,0,10,10,0,0,0,0,0,0,0,0,7700000,0,7700010,0,1.1,DIC AMERICAS INC,054527502
1997,07072GNSCH611BR,NOVUS FINE CHEMICALS,611BROAD ST,CARLSTADT,BERGEN,NJ,07072,40.84166,-74.09949,2833,,,,,,325411,,,,,,1397110367909,XYLENE (MIXED ISOMERS),001330207,YES,NON-PBT,NO,0,NO,R,Pounds,26,495,0,0,0,0,0,0,0,0,0,0,521,0,0,0,0,0,0,0,0,0,0,0,0,0,0,0,0,0,0,0,0,0,0,0,0,0,0,0,23713,626735,650448,0,0,0,0,0,0,0,521,521,0,0,0,0,0,650448,5524,0,0,0,656493,0,2.1,NA,NA
1997,07073CLNLP180EA,COATES SCREEN INC.,180 E. UNION AVE.,EAST RUTHERFORD,BERGEN,NJ,07073,40.820808,-74.086748,2893,,,,,,325910,,,,,,1397115002812,CERTAIN GLYCOL ETHERS,N230,YES,NON-PBT,NO,0,NO,R,Pounds,1187,1187,0,0,0,0,0,0,0,0,0,0,2374,0,0,0,0,0,0,0,0,0,0,0,0,0,0,0,0,0,0,0,0,0,0,0,0,0,0,0,0,7820,7820,0,0,0,0,0,0,0,2374,2374,0,0,0,0,0,7820,0,0,0,0,10194,0,.5,SUN CHEMICAL CORP,144638558
1997,07670PNTNC74HUD,PENETONE CORP,74 HUDSON AVE,TENAFLY,BERGEN,NJ,07670,40.933194,-73.961889,2842,,,,,,325612,,,,,,1397116020684,FORMIC ACID,000064186,NO,NON-PBT,NO,0,NO,A,Pounds,0,0,0,0,0,0,0,0,0,0,0,0,0,0,0,0,0,0,0,0,0,0,0,0,0,0,0,0,0,0,0,0,0,0,0,0,0,0,0,0,0,0,0,0,0,0,0,0,0,0,0,0,0,0,0,0,0,0,0,0,0,0,0,0,,NA,NA
1997,08903KZCHM500JE,AKCROS CHEMICALS INC,500 JERSEY AVE,NEW BRUNSWICK,MIDDLESEX,NJ,089013502,40.47998,-74.46813,2869,2851,,,,,325199,,,,,,1397110278734,CADMIUM COMPOUNDS,N078,YES,NON-PBT,YES,1,NO,R,Pounds,0,5,0,0,0,0,0,0,0,0,0,0,5,1,0,1,0,212,0,0,0,0,0,0,0,0,0,0,0,0,0,0,0,212,0,0,0,0,0,0,0,0,0,0,0,0,0,441,0,441,218,658,0,0,0,0,0,0,0,0,0,1,659,0,1.03,NA,NA
1997,07036XXNCH1400P,INFINEUM USA LP-BAYWAY CHEMICAL PLANT,CORNER OF PARK & BRUNSWICK AVENUES,LINDEN,UNION,NJ,070360023,40.640135,-74.21888,2869,,,,,,325199,,,,,,1397110222027,SEC-BUTYL ALCOHOL,000078922,NO,NON-PBT,NO,0,NO,R,Pounds,10432,6422,5862,0,0,0,0,0,0,0,0,0,22716,0,0,0,0,0,0,0,0,0,0,0,0,0,0,0,0,0,0,0,0,0,0,0,0,0,0,0,57581,0,57581,0,0,0,0,0,0,0,22716,22716,0,0,0,0,0,57581,0,0,189533,0,269830,0,1.17,INFINEUM USA INC,032105889
1997,08086GRLCK700MI,GLACIER GARLOCK BEARINGS LLC,700 MID ATLANTIC PKWY,THOROFARE,GLOUCESTER,NJ,08086,39.829623,-75.195491,3499,,,,,,333613,,,,,,1397110421005,COPPER,007440508,NO,NON-PBT,YES,1,NO,R,Pounds,0,0,0,0,0,0,0,0,0,0,0,0,0,250,0,250,0,0,0,0,0,0,0,0,0,0,0,0,0,0,0,0,0,0,0,0,0,0,247305,247305,0,0,0,0,0,0,0,0,0,0,250,0,0,0,0,0,0,0,0,247305,0,30,247335,0,1.05,ENPRO INDUSTRIES INC,033937074
1997,07080VNGRD239ST,VANGUARD RESEARCH INDUSTRIES INC,239 SAINT NICHOLAS AVE,SOUTH PLAINFIELD,MIDDLESEX,NJ,07080,40.563182,-74.421936,3471,3341,2899,,,,332813,,,,,,1397115320398,NITRIC ACID,007697372,NO,NON-PBT,NO,0,NO,R,Pounds,39,117,0,0,0,0,0,0,0,0,0,0,156,0,0,0,0,0,0,0,0,0,0,0,0,0,0,0,0,0,0,0,0,0,0,0,0,0,0,0,0,0,0,0,0,0,0,0,0,0,156,156,0,0,0,0,0,0,0,0,13046,0,13202,0,1.5,VANGUARD HOLDINGS,NA
