REPORTING YEAR	TITLE OF CERTIFYING OFFICIAL	NAME OF CERTIFYING OFFICIAL	TRIFID	FACILITY NAME	FACILITY STREET	FACILITY CITY	FACILITY COUNTY	FACILITY STATE	FACILITY ZIP CODE	MAILING NAME	MAILING STREET	MAILING CITY	MAILING STATE	MAILING PROVINCE	MAILING ZIP CODE	ENTIRE FACILITY IND	PARTIAL FACILITY IND	FEDERAL FACILITY IND	GOCO FACILITY IND	PUBLIC CONTACT NAME	PUBLIC CONTACT PHONE	PRIMARY SIC CODE	SIC CODE 2	SIC CODE 3	SIC CODE 4	SIC CODE 5	SIC CODE 6	NAICS ORIGIN	PRIMARY NAICS CODE	NAICS CODE 2	NAICS CODE 3	NAICS CODE 4	NAICS CODE 5	NAICS CODE 6	LATITUDE	LONGITUDE	DB NR A	DB NR B	RCRA NR A	RCRA NR B	NPDES NR A	NPDES NR B	UIC NR A	UIC NR B	PARENT COMPANY NAME	PARENT COMPANY DB NR	ASSIGNED FED. FACILITY FLAG	PUBLIC CONTACT EMAIL	
2007	VP MANUFACTURING	AL BOUNDS	30331DYNTR3700A	3M ATLANTA	3700 ATLANTA INDUSTRIAL PKWY	ATLANTA	FULTON	GA	30331	3M ATLANTA	3700 ATLANTA INDUSTRIAL PKWY	ATLANTA	GA		30331	YES	NO	NO	NO	JAMES ALBRIGHT	4046962730	2851							325510						33.798693	-84.496683	004135174								3M CO INC	006173082	NO	JNALBRIGHT@MMM.COM	
2007	OWNER	TIM MORGAN	30161LSHLD268OL	A & L SHIELDING INC.	268 OLD LINDALE RD	ROME	FLOYD	GA	30161	A & L SHIELDING INC.	268 OLD LINDALE RD	ROME	GA		30161	YES	NO	NO	NO	RICK LYNCH	7062358822	3842							332321						34.215277	-85.175447	033834037										NO	RICK@ALSHIELDING.COM	
2007	VP TECHNICAL SERVICES	MICHAEL REKHELMAN	30260BCCMP6970J	ABC COMPOUNDING CO INC	6970 JONESBORO RD	MORROW	CLAYTON	GA	30260	ABC COMPOUNDING CO INC	PO BOX 16247	ATLANTA	GA		30321	YES	NO	NO	NO	MICHAEL REKHELMAN	7709689222	2842							325611	325620	325612				33.565634	-84.344023	003284353										NO	MICHAEL@ABCCOMPOUNDING.COM	
1994	EPA SPECIALIST	CHARLES E. FANCHER	31021BXNWL2010A	ABEX/NWL AEROSPACE	2010 ACADEMY AVE.	DUBLIN	LAURENS	GA	31021	ABEX/NWL AEROSPACE	2010 ACADEMY AVE.	DUBLIN	GA		31021	YES	NO	NO		RICH HARLOW	9122779245	3728							336413						32.523304	-82.933571	194173787		GAD981230238						PNEUMO ABEX CORP.	194173787	NO		
2007	ROGER WEBER	ROGER WEBER REGIONAL PLANT OPERATIONS MANAGER	30901CNDST727LA	AC INDUSTRIES	727 LANEY WALKER BLVD EXTENSION	AUGUSTA	RICHMOND	GA	30901	AC INDUSTRIES	727 LANEY WALKER BLVD EXTENSION	AUGUSTA	GA		30901	YES	NO	NO	NO	ROGER WEBER	7067242900	2813							325120						33.451937	-81.928193	867448102								AIRGAS INC	024492860	NO	ROGER.WEBER@AIRGAS.COM	
2007	VICE PRESIDENT	GARRY EUNICE	31516CPLCNHIGHW	ACE POLE CO INC.	6352 TIMBER LN	BLACKSHEAR	PIERCE	GA	31516	ACE POLE CO INC.	PO BOX 1323	WAYCROSS	GA		31502	YES	NO	NO	NO	BRAD THOMAS	9124494011	2491							321114						31.260103	-82.294378	058487398										NO	INFO@ACEPOLE.COM	
2001	V.P. OF OPERATIONS	TONY LANDRESS	30043CTMFG2005N	ACT MANUFACTURING INC	2005 NEWPOINT PL PKWY SUITE 100	LAWRENCEVILLE	GWINNETT	GA	30043	ACT MANUFACTURING INC	2005 NEWPOINT PL PKWY SUITE 100	LAWRENCEVILLE	GA		30043	YES	NO	NO	NO	TONY LANDRESS	7702370595	3672							334412						33.998611	-84.013611	101154839		GACESQGG7467								NO		
2001	PLANT MANAGER	MIKE MILLER	30035CTYLG1LITH	ACUITY LIGHTING	1 LITHOMA WAY	DECATUR	DE KALB	GA	300354141	ACUITY LIGHTING	1 LITHOMA WAY	DECATUR	GA		30035-4141	YES	NO	NO		BEN DECKER	7708602927	3648							335129						33.708873	-84.183351	085458508								ACUITY BRANDS INC	085458508	NO		
1987	PRESIDENT	SYLVESTER SCHMIDT	30340DDMNT6555B	ADDIMENT INC.	6555 BUTTON GWINNETT DR.	DORAVILLE	GWINNETT	GA	30340	ADDIMENT INC.	6555 BUTTON GWINNETT DR.	DORAVILLE	GA		30340	YES	NO	NO		SYLVESTER SCHMIDT	4044466250	3241													33.9256	-84.246757	115312324								HEIDELBERGER ZEMENT AG		NO		
1998	VICE PRESIDENT	HOWARD BUOY	30901RCHRD960MO	ADM	960 MOLLY POND RD.	AUGUSTA	RICHMOND	GA	30901	ADM	960 MOLLY POND RD.	AUGUSTA	GA		30901	YES	NO	NO		MARK CALMES	2174247456	2076							311223						33.446872	-81.984864	001307586		207612110101		GAR000000				ADM	001307586	NO		
2007	EXTRACTION PLANT MANAGER	SCOTT DE JONG	31603RCHRDCLAYR	ADM	1841 CLAY RD	VALDOSTA	LOWNDES	GA	31601	ARCHER DANIELS MIDLAND CO	PO BOX 1589	VALDOSTA	GA		316031589	YES	NO	NO	NO	MARK CALMES	2174245200	2075	2074	2079	4213				311225						30.8325	-83.24805	053693131								ADM	001307586	NO	CALMES@ADMWORLD.COM	
1998	PLANT MANAGER	MICHAEL A. MOFFETT	31206RCHRD1265S	ADM	1265 6TH ST.	MACON	BIBB	GA	31206	ADM	1265 6TH ST.	MACON	GA		31206	YES	NO	NO		MICHAEL MOFFETT	4236295495	2079							311225						32.822943	-83.631566	077070894		GA0981234206		GAR000000				ADM	001307586	NO		
2007	PLANT MANAGER	NEIL MCGEE	31015DMLLN2201E	ADM ALLIANCE NUTRITION INC	2201 E 13TH AVE	CORDELE	CRISP	GA	31015	ADM ALLIANCE NUTRITION INC	2201 E 13TH AVE	CORDELE	GA		31015	YES	NO	NO	NO	MARK CALMES	2174515200	2048							311119						31.965887	-83.744586	849684428								ADM	001307586	NO	MARK_CALMES@ADMWORLD.COM	
2007	VICE PRESIDENT, CFO	HOWARD BURCHETTE, JR	30722DVNCD424SS	ADVANCED ADHESIVE TECHNOLOGIES INC	419 S GLENWOOD AVE	DALTON	WHITFIELD	GA	30721	ADVANCED ADHESIVE TECHNOLOGIES INC	419 S GLENWOOD AVE	DALTON	GA		30721	YES	NO	NO	NO	TIM BROWN	7062260610	2891							325520						34.761881	-84.964527											NO	TIM.BROWN@AATGLUE.COM	
2002	OPERATIONS MANAGER	DOMINIC DEDUONNI	30084HTCHC3289M	ADVANCED INTERCONNECTION TECHNOLOGY INC ATLANTA	3289 MONTREAL INDL. WAY	TUCKER	DE KALB	GA	30084	ADVANCED INTERCONNECTION TECHNOLOGY INC ATLANTA	3289 MONTREAL INDL. WAY	TUCKER	GA		30084	YES	NO	NO	NO	J.R. RACKARD	7709389387	3672							334412						33.840214	-84.253785			GAD980847479		GAR000000				PCK HOLDINGS	877598284	NO		
2007	HUMAN RESOURCES MANAGER	LINDA HALES	30161KTSSH300WH	ADVANCED STEEL TECHNOLOGY	300 W HERMITAGE RD NE	ROME	FLOYD	GA	30161	ADVANCED STEEL TECHNOLOGY	300 W HERMITAGE RD NE	ROME	GA		30161	YES	NO	NO	NO	LINDA HALES	7062325877	3531							333120						34.326598	-85.100472	623388998										NO	NA	
2007	DIRECTOR OF REGULATORY AFFAIRS	N. PETER BELLE	30004LPRTW1400B	ADVANTIS TECHNOLOGIES INC.	1400 BLUEGRASS LAKES PKWY	ALPHARETTA	FORSYTH	GA	30004	ADVANTIS TECHNOLOGIES INC.	1400 BLUEGRASS LAKES PKWY	ALPHARETTA	GA		30004	YES	NO	NO	NO	N. PETER BELLE	7705215999	2899							325998						34.113473	-84.231511	931896385								ROCKWOOD SPECIALTIES INC.	106793433	NO	PBELLE@ADVANTISTECH.COM	
2007	LAB & QUALITY CONTROL MANAGER	DATTARAM SALKAR	30224BRDNC1201P	AEP INDUSTRIES  INC	1201 S PINE HILL RD	GRIFFIN	SPALDING	GA	30224	AEP INDUSTRIES  INC	1201 S PINE HILL RD	GRIFFIN	GA		30224	YES	NO	NO	NO	ANIL DOSHI	6786885706	3081							326113						33.222149	-84.307341	186675534		GAD056232218						AEP INDUSTRIES  INC	001338797	NO	DOSHIA@AEPINC.COM	
1998	PLANT MANAGER	JIM GARDNER	30336RQPCR4600F	AEROQUIP INOAC CORP.	4600 FULTON INDUSTRIAL BLVD.	ATLANTA	FULTON	GA	303366200	AEROQUIP INOAC CORP.	4600 FULTON INDUSTRIAL BLVD.	ATLANTA	GA		30336-6200	YES	NO	NO				3082							326121						33.761417	-84.536897	005356498		GAD981251143	GAD981251473					AEROQUIP-VICKERS INC.	005045000	NO		
2003	PRESIDENT	LEIGH A. FRAGNOLI	30144RSLSP3150M	AEROSOL PACKAGING LLC	3150 MOON STATION RD	KENNESAW	COBB	GA	301442765	AEROSOL PACKAGING LLC	3150 MOON STATION RD	KENNESAW	GA		30144-2765	YES	NO	NO	NO	LEIGH A FRAGNOLI	7704250114	2899							325998						34.030146	-84.615983	101995959		GAD981225519								NO		
2007	PLANT MANAGER	PETER DUNN	30114RSLPC189ET	AEROSOL SPECIALTIES LLC	189 ETOWAH INDUSTRIAL CT	CANTON	CHEROKEE	GA	30114	AEROSOL SPECIALTIES LLC	189 ETOWAH INDUSTRIAL CT	CANTON	GA		30114	YES	NO	NO	NO	LEIGH FRAGNOLI	7704250114	2899							325998						34.244167	-84.469444	101995959										NO	LFRAGNOLI@AEROSP.COM	
2000	PRESIDENT	THOMAS W. SCOTT JR.	31206RSPCD7700N	AEROSPACE DEFENSE COATINGS OF GA	7700 NE INDUSTRIAL BLVD	MACON	BIBB	GA	31206	AEROSPACE DEFENSE COATINGS OF GA	7700 NE INDUSTRIAL BLVD	MACON	GA		31206	YES	NO	NO		THOMAS SCOTT JR	9127848594	3471							332813						32.698774	-83.664701	828258210		GAD984319426								NO		
2007	PRESIDENT	GEORGE P AYERS JR	30680FRFGR65CED	AFR OF GEORGIA INC	650 CEDAR GROVE CHURCH RD	WINDER	JACKSON	GA	30680	AFR OF GEORGIA INC	PO BOX 485	WINDER	GA		30680	YES	NO	NO	NO	BRENDA S FANNING	7063671439	3089							326199						33.9987	-83.716											NO	AFROFGEORGIA@YAHOO.COM	
2007	PRESIDENT	LARRY PULLIAM	30071GCNC 2782S	AGCO, INC.	2782 SIMPSON CIR	NORCROSS	GWINNETT	GA	30071	AGCO, INC.	2782 SIMPSON CIR	NORCROSS	GA		30071	YES	NO	NO	NO	LARRY J. PULLIAM	7704476990	3089							326199						33.96354	-84.175739	038927096										NO	NA	
2007	PLANT MANAGER	J. MARK GAY	31709MCFRT1611O	AGRIUM US INC	1011 OAK AVE	AMERICUS	SUMTER	GA	31709	AGRIUM US INC	1011 OAK AVE	AMERICUS	GA		31709	YES	NO	NO	NO	J. MARK GAY	2299246107	2874							325314						32.054924	-84.235501	808957229								AGRIUM INC	808957229	NO	JGAY@AGRIUM.COM	
1991	MANAGER	JOSEPH W. GENTILE C.I.H.	31708RPRDC1220G	AIR PRODUCTS & CHEMICALS INC.	1220 GILLIONVILLE RD.	ALBANY	DOUGHERTY	GA	31708	AIR PRODS. & CHEMICALS INC.	P.O. BOX 3370	ALBANY	GA		31708	YES	NO	NO		JACKIE FERGUSON	9124320538	2813							325120						31.578611	-84.186667	003324498		GAD003324498						AIR PRODUCTS & CHEMICALS INC	003001070	NO		
1988	V.P. ENGINEERING	S. G. MAYS	30050RTRDS14ROY	AIR TREADS INC. ATLANTA DIV.	14 ROYAL OAK DR.	FOREST PARK	CLAYTON	GA	30050	AIR TREADS INC. ATLANTA DIV.	14 ROYAL OAK DR.	FOREST PARK	GA		30050	YES	NO	NO		STAN G. MAYS	4043616890	3911							339911						33.630052	-84.39378	042125732		GAD981229487						GOODYEAR TIRE & RUBBER CO.	004467924	NO		
2007	DIRECTOR OF OPERATIONS - REFRIGERANTS	RANDY PERRY	30080RGSSP5211I	AIRGAS SPECIALTY PRODUCTS SMYRNA	5211 INDUSTRIAL CT SE	SMYRNA	COBB	GA	30080	AIRGAS SPECIALTY PRODUCTS SMYRNA	5211 INDUSTRIAL CT SE	SMYRNA	GA		30080	YES	NO	NO	NO	MIKE JONES	7707172210								424690						33.83175	-84.466211									AIRGAS, INC.	024492860	NO	MIKE.JONES3@AIRGAS.COM	
2007	QUALITY MANAGER	NELSON RODRIGUEZ	31015CRSPRUS41N	AIRXCEL INC MARVAIR DIV	156 SEEDLING DR	CORDELE	CRISP	GA	31015	AIRXCEL INC MARVAIR DIV	PO BOX 400	CORDELE	GA		31015	YES	NO	NO	NO	NELSON RODRIGUEZ	2292738058	3585							333415						31.989539	-83.79572	057300238								AIRXCEL INC	606529873	NO	NRODRIGUEZ@AIRXCEL.COM	
1999		GREG GARRISON	30092RXCLN3285S	AIRXCEL INC. CRISPAIRE DIV.	3285 SATURN CT. N.W.	NORCROSS	GWINNETT	GA	30092	AIRXCEL INC. CRISPAIRE DIV.	3285 SATURN CT. N.W.	NORCROSS	GA		30092	YES	NO	NO		GREG GARRISON	7707349696	3585							333415						33.96083	-84.213405	057300238								AIRXCEL INC.	606529873	NO		
2007	PRESIDENT	ALAN SHIPP	30073JYCHM1400I	AJAY NORTH AMERICA LLC	1400 INDUSTRY RD	POWDER SPRINGS	COBB	GA	301270127	AJAY NORTH AMERICA LLC	PO BOX 127	POWDER SPRINGS	GA		301270127	YES	NO	NO	NO	ALAN R. SHIPP	7709436202	2819	2869						325188	325199					33.867778	-84.646444	061425104										NO	ALAN.SHIPP@AJAY-SQM.COM	
2007	PLANT MANAGER	JASON WELLS	31603LJRND1625J	AKER PLASTICS CO INC.	1625 JAMES P. RODGERS RD	VALDOSTA	LOWNDES	GA	31601	AKER PLASTICS CO INC.	1625 JAMES P. RODGERS RD	VALDOSTA	GA		31601	YES	NO	NO	NO	JASON WELLS	2292472364	3088							326199						30.802042	-83.278325	038926788								AKER PLASTICS CO INC.		NO	JASON.WELLS@MAAX.COM	
1991	DIRECTOR OF OPERATIONS	LARRY M. WLODAR	30071KZCTN6369O	AKZO COATINGS INC	6369 OLD PEACHTREE RD	NORCROSS	GWINNETT	GA	300711780	AKZO COATINGS INC	6369 OLD PEACHTREE RD	NORCROSS	GA		30071-1780	YES	NO	NO		JIM LALLEMENT	4044418628	2851							325510						33.929481	-84.236054	021973748		GAD003480183						AKZO NOBEL INC	062999347	NO		
1993	ENVR. COMPLIANCE MANAGER	TIMOTHY W. CHILDS	31404BGTHREASTP	ALAC SAVANNAH ASU	E PRESIDENTS ST EXT	SAVANNAH	CHATHAM	GA	31404	ALAC SAVANNAH ASU	PO BOX 216	SAVANNAH	GA		31402-0216	YES	NO	NO		ARTHUR SLAUGHTER	7138680333	2813							325120						32.067917	-81.04375			GAD984295618		GA0046230						NO		
2007	V.P. OF ENVIRONMENTAL SERVICES	RANDY WASKUL	30720LDDNM2001A	ALADDIN MILLS - ANTIOCH RD PLA NT	2001 ANTIOCH RD	DALTON	WHITFIELD	GA	30720	ALADDIN MILLS-ATTEN DENISE WOOD	POST OFFICE BOX 1006	DALTON	GA		30722	YES	NO	NO	NO	DENISE WOOD	7064288118	2273	2824						314110	325222					34.734101	-84.952432	120930102								MOHAWK INDUSTRIES INC.	612757070	NO	DENISE_WOOD@MOHAWKIND.COM	
1999	GM	THOMAS J. HARVEY	30336LCHMC5360T	ALCHEM CHEMICAL	5360 TULANE DR	ATLANTA	FULTON	GA	30336	ALCHEM CHEMICAL	PO BOX 44045	ATLANTA	GA		30336	YES	NO	NO		THOMAS J HARVEY	4046969202	5169							424690						33.750872	-84.563319	009832726		GAD009832762								NO		
2004		TERRY CONLEY	30336LCHMP10ENT	ALCHEM PLASTICS CORP	10 ENTERPRISE BLVD SW	ATLANTA	FULTON	GA	30336	ALCHEM PLASTICS CORP	10 ENTERPRISE BLVD SW	ATLANTA	GA		30336	YES	NO	NO	NO	ALLEN COOK	4193994050	3089							326113						33.755973	-84.549151	363521503		GAD981277346						ATLAS ALCHEM PLASTICS INC	086926250	NO		
1999	PRESIDENT	THOMAS H. WELCH	30066LCHMY646OW	ALCHEMY-SOUTH LTD	1345 OWENBY DR	MARIETTA	COBB	GA	30066	ALCHEMY-SOUTH LTD	1523 COBB INDUSTRIAL DR	MARIETTA	GA		30066	YES	NO	NO				2869							325000						33.988115	-84.536048	009559261		GAD984269894								NO		
2001	PLANT MANAGER	WILLIAM BUNKER	30213GNRLX7385G	ALCOA EXTRUSIONS INC. FAIRBURN GA OPERATIONS	7385 GRAHAM RD.	FAIRBURN	FULTON	GA	30213	ALCOA EXTRUSIONS INC. FAIRBURN GA OPERATIONS	7385 GRAHAM RD.	FAIRBURN	GA		30213	YES	NO	NO	NO	GARLAND KINZIE	7709698902	3354							331316						33.557854	-84.543343	113279038		GAD981266505		GAR000000				ALCOA INC	001339472	NO		
2006	GENERAL MANAGER	J. DOUGLAS PENCE	30336LCHMX5625F	ALCOA HOME EXTERIORS INC ATLANTA VINYL OPERATIONS	5625 FULTON INDUSTRIAL BLVD	ATLANTA	FULTON	GA	30336	ALCOA HOME EXTERIORS INC ATLANTA VINYL OPERATIONS	5625 FULTON INDUSTRIAL BLVD	ATLANTA	GA		30336	YES	NO	NO	NO	CYNTHIA D. PRICE	4042605214	3089							326199						33.731829	-84.569656	004239000								ALCOA INC	001339472	NO		
1994	PLANT MANAGER	DON MCMAHAN	30336THLLM5475B	ALL AMERICAN GOURMET CO. INC.	5475 BUCKNELL DR. S.W.	ATLANTA	FULTON	GA	30336	ALL AMERICAN GOURMET CO. INC.	5475 BUCKNELL DR. S.W.	ATLANTA	GA		30336	YES	NO	NO		SHARON GREENSPAR	2126977900	2038							311412						33.740647	-84.572542	103118329		GAD981242886						H. J. HEINZ CO.	004318846	NO		
1999	EXEC. V P & COO	D. S. O'BRIEN	31205LLGHN545GU	ALLEGHANY RUBBER INC	545 GUY PAINE RD	MACON	BIBB	GA	31205	ALLEGHANY RUBBER INC	PO BOX 3006	MACON	GA		31205	YES	NO	NO		D S O'BRIEN	9127886282	3069							326211						32.780086	-83.644627	120918438										NO		
2007	AREA MANAGER	DONNA LAYFIELD	31063STHRN321PL	ALLENS INC PLANT #20	730 TRAVELERS REST RD	MONTEZUMA	MACON	GA	31063	ALLENS INC PLANT #20	730 TRAVELERS REST RD	MONTEZUMA	GA		31063	YES	NO	NO	NO	LAURA MUSHINSKI	4792280102	2037							311411						32.293202	-84.022739	006340707								ALLENS INC.	006340707	NO	LMUSHINSKI@ALLENS.COM	
2000	CHAIRMAN OF THE BOARD	LORI NORTHRUP	31297BNGGR7979N	ALLIANCE AEROSPACE LLC	7979 N E INDUSTRIAL BLVD	MACON	BIBB	GA	312970248	WESTERN STEEL	7979 N E INDUSTRIAL BLVD	MACON	GA		31297-0248	YES	NO	NO	NO	LORI NORTHRUP	7166992288	3728							336413						32.699131	-83.663439	799594127		GAD000615914		GAR000000						NO		
2007	GENERAL MANAGER	JOHN HOBBS	30320LLDVT34NIN	ALLIED AVIATION FUELING OF ATL ANTA INC.	3400 N INNER LOOP RD PO BOX 45406	ATLANTA	FULTON	GA	30320	ALLIED AVIATION FUELING OF ATL ANTA INC.	3400 N INNER LOOP RD PO BOX 45406	ATLANTA	GA		30320	YES	NO	NO	NO	JOHN HOBBS	4047671743								424710						0	0									ALLIED AVIATION HOLDING CO		NO	JOHNNY.HOBBS@ALLIEDAVIATION.COM	
2007	GENERAL MANAGER	RON WALKER	30093LLDPH5440A	ALLIED DIAGNOSTIC IMAGING RESOURCES INC	5440 OAKBROOK PKWY	NORCROSS	GWINNETT	GA	30093	ALLIED DIAGNOSTIC IMAGING RESOURCES INC	5440 OAKBROOK PKWY	NORCROSS	GA		30093	YES	NO	NO	NO	CARMEN TANKSLEY	7704480250	3861							325992						33.919505	-84.182378	610045858								CPAC INC.	045605615	NO		
2003	COO	ANDY LASKY	30318LLDFD1450H	ALLIED FOODS LLC	1450 HILL PL NW	ATLANTA	FULTON	GA	30318	ALLIED FOODS LLC	1450 HILL PL NW	ATLANTA	GA		30318	YES	NO	NO	NO	PETER FU	4043512400	2047							311111						33.812155	-84.434677	014114487		GAD003271731		GAR000000						NO		
2007	REGULATORY AFFAIRS MANAGER	ROBIN BOLTE	30734LLDNV1405P	ALLIED UNIVERSAL CORP	1405 POSSUM HOLLOW RD	RANGER	GORDON	GA	30734	ALLIED UNIVERSAL CORP	ATTN: ROBIN EDDY BOLTE3901 NW 115TH AVE	MIAMI	FL		33178	YES	NO	NO	NO	ROBIN EDDY BOLTE	3058882623	2819							325188	424690					34.491667	-84.71277	004134623										NO	ROBINE@ALLIEDUNIVERSAL.COM	
2007	REGULATORY AFFAIRS MANAGER	ROBIN BOLTE	31520LLDNVRT1BO	ALLIED UNIVERSAL CORP	204 SCM RD	BRUNSWICK	GLYNN	GA	31523	ALLIED UNIVERSAL CORP	ATTN: ROBIN EDDY BOLTE 3901 NW 115TH AVE	MIAMI	FL		33178	YES	NO	NO	NO	ROBIN EDDY BOLTE	3058882623	2819							325188	424690					31.113889	-81.53611	004134623										NO	ROBINE@ALLIEDUNIVERSAL.COM	
2007	PLANT MANAGER	JIM MOYD	30122LPLGH141BL	ALP LIGHTING COMPONENTS INC	1401 BLAIRS BRIDGE RD	LITHIA SPRINGS	DOUGLAS	GA	30122	ALP LIGHTING COMPONENTS INC	1401 BLAIRS BRIDGE RD	LITHIA SPRINGS	GA		30122	YES	NO	NO	NO	JIM MOYD	7708197880	3444							332322						33.771501	-84.619656											NO	JIMMOYD@ALPLIGHTING.COM	
1989	PRESIDENT	MR. HOMER M. VERNON JR.	30904LTRNT2730W	ALTERNATE ENERGY RESOURCES INC	2730 WALDEN DR	AUGUSTA	RICHMOND	GA	309045520	ALTERNATE ENERGY RESOURCES INC	2730 WALDEN DR	AUGUSTA	GA		30904-5520	YES	NO	NO		HOMER M VERNON JR	4047381571	2869							325000						33.45513	-82.038361	000335824	033582461	GAD033582461		000000N/A		000000000N/A				NO		
2003	PRESIDENT	KENNETH E. SIGSBURY,	31620PRDCTNORTH	ALUMINUM FINISHING OF GEORGIA CORP	NORTH MILL ST	ADEL	COOK	GA	31620	ALUMINUM FINISHING OF GEORGIA CORP	PO BOX 272	ADEL	GA		31620	YES	NO	NO	NO	KENNETH SIGSBURY	9128964531	3471							332813						31.141639	-83.427056					GA0000108						NO		
2003	PRESIDENT	KENNETH E. SIGSBURY,	31620PRDCT220WE	ALUMINUM FINISHING OF GEORGIA CORP	220 W SECOND ST	ADEL	COOK	GA	31620	ALUMINUM FINISHING OF GEORGIA CORP	PO BOX 272	ADEL	GA		31620	YES	NO	NO	NO	KENNETH SIGSBURY	9128964531	3471							332813						31.139885	-83.423059											NO		
1991	VICE PRESIDENT OPERATIONS & ADMINISTRATIONS	MICHAEL L. WHITE	30336MRLTR4785F	AMARLITE ARCHITECTURAL PRODS.	4785 FULTON INDUSTRIAL BLVD.	ATLANTA	FULTON	GA	303362017	AMARLITE ARCHITECTURAL PRODS.	4785 FULTON INDUSTRIAL BLVD.	ATLANTA	GA		30336-2017	YES	NO	NO		RICHARD SAMBOL	4046915750	3354							331316						33.755324	-84.545576	364417337		GAD003281193								NO		
2007	GEN.MGR/VP	MIKE MAVRIDIS	30720CTCHN310BR	AMC INTERNATIONAL	310 BROOKHOLLOW  IND BLVD	DALTON	WHITFIELD	GA	30721	AMC INTERNATIONAL	310 BROOKHOLLOW  IND BLVD	DALTON	GA		30721	YES	NO	NO	NO	MIKE MAVRIDIS	7062261662	2899							325998						34.709687	-84.960194											NO	MMAVRIDIS@APOLLOIND.COM	
1998	R & M ENVIRONMENTAL MANAGER	PETER HAID	30360MRDHS2836W	AMERADA HESS CORP DORAVILLE TERMINAL	2836 WOODWIN RD.	DORAVILLE	DE KALB	GA	30360	AMERADA HESS CORP DORAVILLE TERMINAL	1 HESS PLAZA	WOODBRIDGE	NJ		07095	YES	NO	NO		PETER HAID	7327506555	5171							424710						33.916687	-84.274323			GAD042973966						AMERADA HESS CORP.	006979785	NO		
1999	PRES.	BOUDEWIJN VANDROMME	31549MRCRDINDUS	AMERCORD INC.	INDUSTRIAL BLVD.	LUMBER CITY	TELFAIR	GA	31549	AMERCORD INC.	P.O. BOX 458	LUMBER CITY	GA		31549	YES	NO	NO		HAROLD SARTIN	9123634371	2296	3315						314992						31.926459	-82.678581	071007484		GAD008966400		GA0026735				GOTHAM INDL. GROUP L.L.C.		NO		
2007	PRESIDENT AND CEO	PAUL CHAHINE	30040MRCNB1485R	AMERICAN BOA INC	1485 REDI RD	CUMMING	FORSYTH	GA	30040	AMERICAN BOA INC	PO BOX 1301	CUMMING	GA		30040	YES	NO	NO	NO	PAUL CHAHINE	6785133356	3714	5084						331210						34.173818	-84.162502	616447116										NO	PAUL.CHAHINE@BOA-US.COM	
2004	PLANT MANAGER	DIANE HUNSUCKER	30139MRCNC234GO	AMERICAN COLLOID CO	234 GORDON ST	FAIRMONT	GORDON	GA	30139	AMERICAN COLLOID CO	234 GORDON ST	FAIRMONT	GA		30139	YES	NO	NO	NO	DIANE HUNSUCKER	7063375316	3295							327992						34.441419	-84.704885	071998744								AMCOL INTERNATIONAL CORP	005092556	NO		
2007	PLANT MANAGER	CLARENCE GASTON	30279MRCND1022E	AMERICAN DEHYDRATED FOODS INC.	1022 E HIGHTOWER TRAIL	SOCIAL CIRCLE	WALTON	GA	30025	AMERICAN DEHYDRATED FOODS INC.	PO BOX 190	SOCIAL CIRCLE	GA		30025	YES	NO	NO	NO	CLARENCE GASTON	7704643331	2015							311111						33.651417	-83.684165									AMERICAN DEHYDRATED FOODS INC.	096745880	NO	CGASTON@ADF.COM	
2007	VP OPERATIONS	WAYNE STOLLENWERK	30024MRCND3870L	AMERICAN DIE TECHNOLOGY	3870 LAKEFIELD DR	SUWANEE	FORSYTH	GA	30024	AMERICAN DIE TECHNOLOGY	3870 LAKEFIELD DR	SUWANEE	GA		30024	YES	NO	NO	NO	TONY TOWE	6785271734	3555							333293						34.065613	-84.157501											NO	TTOWE@KOCHER-BECK.COM	
2004	PLANT MANAGER	SCOTT MILLER	31717MRCNF140IN	AMERICAN FIBERS & YARNS CO	140 INDUSTRIAL BLVD	BAINBRIDGE	DECATUR	GA	39817	AMERICAN FIBERS & YARNS CO	140 INDUSTRIAL BLVD	BAINBRIDGE	GA		39817	YES	NO	NO	NO	PAULA PRICKETT	2292436506	2824							325222						30.98	-84.619722	093771116		GAR000020321		GAR000000				AMERICAN FIBERS & YARNS CO	093771116	NO		
2007	TECHNICAL DIRECTOR	CHRIS SHEWAMKER	30336MRCNF472FR	AMERICAN FORMULA	4720 FREDERICK DR SW	ATLANTA	FULTON	GA	30336	AMERICAN FORMULA	PO BOX 43164	ATLANTA	GA		30336	YES	NO	NO	NO	CHRIS SHEWMAKER	4046917940	2841							325611						33.764156	-84.540727									HOLTCO		NO	NA	
2007	VP OPERATIONS	EDWARD SKUKALEK	31533TCMSH1545K	AMERICAN INSULATED WIRE CORP	1545 KELLOGG DR	DOUGLAS	COFFEE	GA	31535	AMERICAN INSULATED WIRE CORP	PO BOX 590	DOUGLAS	GA		31534	YES	NO	NO	NO	DAVID MCLEMORE	9122602000	3363	3519						331422						31.488341	-82.871252	001189166								LEVITON MANUFACTURING	001233089	NO	DMCLEMORE@LEVITON.COM	
2007	GENERAL MANAGER	BRANDON KYZAR	31510MRCNP1255U	AMERICAN PROTEINS INC/ALMA DIV	1255 U S HWY 1, S	ALMA	BACON	GA	31510	AMERICAN PROTEINS INC/ALMA DIV	1255 U S HWY 1, S	ALMA	GA		31510	YES	NO	NO	NO	JAY RABON	9126325946	2048							311613						31.523333	-82.463056									AMERICAN PROTEINS INC.	194912952	NO		
1991	PRESIDENT	LARRY BURNETTE	30340FTDVSDORAV	AMERICAN SIGNATURE FOOTE & DAVIES DIV	3101 MCCALL DR	DORAVILLE	DE KALB	GA	30340	AMERICAN SIGNATURE FOOTE & DAVIES DIV	3101 MCCALL DR	DORAVILLE	GA		30340	YES	NO	NO		BRUCE THOMPSON	4044514511	2752							323110						33.898506	-84.259525	083756700		GAD000146290						AMERICAN SIGNATURE ACQUISITION CORP	174320390	NO		
1990	MANAGER OF ENGINEERING	JERRY W. SISK	30741MRCNT122MA	AMERICAN THREAD CO.	122 MAPLE ST	ROSSVILLE	WALKER	GA	30741	AMERICAN THREAD CO.	122 MAPLE ST	ROSSVILLE	GA		30741	YES	NO	NO		JOYCE TRUE	4048614173	2269							313111						34.978113	-85.292868	001339373		GAD991275694		GA0046710				COATS AMERICAN	001339373	NO		
2007	PLANT MANAGER	GARY RICHARDSON	31545MRCNWHWY34	AMERICAN WELDING & TANK LLC	111 TANK RD	JESUP	WAYNE	GA	31545	AMERICAN WELDING & TANK LLC	111 TANK RD	JESUP	GA		31545	YES	NO	NO	NO	WALKER OGDEN	9124275624	3443							332420						31.634722	-81.936111	800735750								TAYLOR WHARTON INTERNATIONAL	808654417	NO	WOGDEN@AWTANK.COM	
2007	PLANT MANAGER	JEFF RICE	30577MRCNWWOODM	AMERICAN WOODMARK	398 WOODMARK DR	EASTANOLLEE	STEPHENS	GA	30538	AMERICAN WOODMARK	398 WOODMARK DR	EASTANOLLEE	GA		30538	YES	NO	NO	NO	JOSH SMITH	7067794604	2434							337110						34.524167	-83.276389	607226313								AMERICAN WOODMARK CORP	021458534	NO	JSMITH@WOODMARK.COM	
2004	PLANT MANAGER	CHRIS KESTOR	30233MRCNW1017H	AMERICAN WOODMARK CORP	1017 HWY 42 S	JACKSON	BUTTS	GA	30233	AMERICAN WOODMARK CORP	1017 HWY 42 S	JACKSON	GA		30233	YES	NO	NO	NO	LARRY DUNE	7707756013	2434							337110						33.285	-83.933611	174422394								AMERICAN WOODMARK CORP	021458534	NO		
1995	PLANT MANAGER	GARY BLANKENSHIP	30401RPRCRELECT	AMERICAN YARD PRODS.	561 ELECTRIC RD.	SWAINSBORO	EMANUEL	GA	30401	AMERICAN YARD PRODS.	P.O. BOX 1678	SWAINSBORO	GA		30401	YES	NO	NO		RONNY BOATRIGHT	9122379963	3524							333112						32.584275	-82.319065	056238868		GAD072486202						WHITE CONSOLIDATED IND.	004203642	NO		
2007	VICE PRESIDENT & GENERAL MANAGER	DAVID BOUTON	30721MRCHM115AB	AMERICHEM DALTON SUBSIDIARY INC	1015 ABUTMENT RD	DALTON	WHITFIELD	GA	30721	AMERICHEM DALTON SUBSIDIARY INC	1015 ABUTMENT RD	DALTON	GA		30721	YES	NO	NO	NO	PERRY J. DURBIN	3309294213								325991						34.756101	-84.962583	043666473										NO	PDURBIN@AMERICHEM.COM	
2000	PLANT MANAGER	TERRY THOMPSON	31717BNBRDUSHIG	AMOCO FABRICS & FIBERS CO. BAINBRIDGE MILLS	1501 COLQUITT HWY.	BAINBRIDGE	DECATUR	GA	317177513	AMOCO FABRICS & FIBERS CO. BAINBRIDGE MILLS	1501 COLQUITT HWY.	BAINBRIDGE	GA		31717-7513	YES	NO	NO	NO	SHELLEY PADDOCK	2292483129	2221							313210						30.983333	-84.616667	056656259		GAD066482506						BP AMERICA INC.	039596507	NO		
2007	PLANT MANAGER	DONNIE BAGWELL	30120MPCTC100AM	AMPACET CORP	100 AMPACET DR	CARTERSVILLE	BARTOW	GA	30120	AMPACET CORP	100 AMPACET DR	CARTERSVILLE	GA		30120	YES	NO	NO	NO	DENISE R. HOLL	9146316600	3087							325991						34.147402	-84.837707	081002871								AMPACET CORP	081002871	NO	DENISE.HOLL@AMPACET.COM	
2007	V.P. REGULATORY AFFAIRS	MONTE MCCALL	30062MRPNC990IN	AMREP INC.	990 INDUSTRIAL PARK DR	MARIETTA	COBB	GA	300620000	AMREP INC.	990 INDUSTRIAL PARK DR	MARIETTA	GA		30062-0000	YES	NO	NO	NO	MONTE MCCALL	7704222071	2841	2842	2879	2891				325612	325998	325613	325520			33.975782	-84.539873	051010429										NO	NA	
1990	REGULATORY AFFAIRS MANAGER-CHEMIST	SHEMI KUMAR	30120MRPNC63IND	AMREP INC.	63 INDUSTRIAL DR.	CARTERSVILLE	BARTOW	GA	30120	AMREP INC.	63 INDUSTRIAL DR.	CARTERSVILLE	GA		30120	YES	NO	NO		LYNDA SERMON	4044264455	2841	2842						325611						34.156316	-84.791525	051010429		GAD980801096						DAWN CHEMICAL INC.	147608129	NO		
1992	PLANT MANAGER	WARREN J. NOBLE	31088NCHRGBOOTH	ANCHOR GLASS CONTAINER CORP	BOOTH RD	WARNER ROBINS	HOUSTON	GA	31088	ANCHOR GLASS CONTAINER CORP	BOOTH RD	WARNER ROBINS	GA		31088	YES	NO	NO		PAUL PRYOR	9129224271	3221							327213						32.589841	-83.600036	004059861		GAD065367781								NO		
2005	CEO	R K ANDERSON	31206NDRSN1840W	ANDERSON CHEMICAL CO	1840 WATERVILLE RD	MACON	BIBB	GA	31206	ANDERSON CHEMICAL CO	1840 WATERVILLE RD	MACON	GA		31206	YES	NO	NO	NO	R K ANDERSON	4788036103	2899							325998						32.817437	-83.635926	007037880		GAD003283199								NO		
1995	GROUP PRESIDENT HELIAX PRODUCTS	WILLIAM R. CURRER	30265NDRWC27AML	ANDREW CORP.	27 AMLAJACK BLVD.	NEWNAN	COWETA	GA	30265	ANDREW CORP.	27 AMLAJACK BLVD.	NEWNAN	GA		30265	YES	NO	NO		JOHN E. JAWOR	7083495192	3272							334220						33.4001	-84.752571	005177084		GA0000684951		GAR000000				ANDREW CORP.	005177084	NO		
2007	PLANT MANAGER	MICHAEL S. MURPHY	30120NHSRB100BU	ANHEUSER-BUSCH, INC. CARTERSVI LLE BREWERY	100 BUSCH DR	CARTERSVILLE	BARTOW	GA	30120	ANHEUSER-BUSCH, INC.	PO BOX 200248	CARTERSVILLE	GA		30120	YES	NO	NO	NO	MICHAEL S. MURPHY	7706063100	2082	1541						312120						34.256389	-84.78194	801498171								ANHEUSER-BUSCH COS INC.	098630254	NO	MICHAEL.MURPHY@ANHEUSER-BUSCH.COM	
1998	DIR. OF PROD SERVICES	BILL WALBY	30518NTXCR1885A	ANITOX CORP	1885 ANITOX DR	BUFORD	GWINNETT	GA	30519	ANITOX CORP	PO BOX 1929	BUFORD	GA		30515	YES	NO	NO		BILL WALBY	7709456741	2879							325320						34.078872	-83.984756	085153765										NO		
2007	OPERATIONS AND ENGINEERING MANAGER	DUANE KLEVE	30043NTXCR1055P	ANITOX CORP	1055 PROGRESS CIR	LAWRENCEVILLE	GWINNETT	GA	30043	ANITOX CORP	1055 PROGRESS CIR	LAWRENCEVILLE	GA		30043	YES	NO	NO	NO	DUANE KLEVE	6783761055	2879							325320						33.995833	-83.96194	085153765										NO	DKLEVE@ANITOX.COM	
2007	MANAGER	WARREN NEWSOME	30673NTHNY256ED	ANTHONY FOREST PRODUCTS	256 EDISON RD	WASHINGTON	WILKES	GA	30673	ANTHONY FOREST PRODUCTS	PO BOX 676	WASHINGTON	GA		30673	YES	NO	NO	NO	WARREN NEWSOME	7066787405	2439							321214						33.70993	-82.75155	008057218								ANTHONY FOREST PRODUCTS EL DORADO ARKANSAS	008057218	NO		
1988	PRES.	SAM J. TALLEY	30080PCGRG3130P	APAC GEORGIA INC. MACDOUGALD WARREN DIV.	3130 PORT COBB DR.	SMYRNA	COBB	GA	30080	APAC GEORGIA INC. MACDOUGALD WARREN DIV.	3130 PORT COBB DR.	SMYRNA	GA		30080	YES	NO	NO		SAM J. TALLEY	4043514430	2950							324000						33.827949	-84.462506			GAD981217136						ASHLAND INC.	005003264	NO		
2000	DIV. PRESIDENT	GARY W. ROHRER	30290PCFGR218RO	APAC OF GEORGIA CHATTAHOOCHEE-FLINT DIV.	218 ROCKWOOD RD.	TYRONE	FAYETTE	GA	30290	APAC OF GEORGIA FOREST PARK PLANT	197 LEES MILL RD.	FOREST PARK	GA		30297	YES	NO	NO		BILLY ARNALL	7704876200	2951							324121						33.441619	-84.611626	005003264				GAR000000				ASHLAND INC.	005003264	NO		
2007	DIRECTOR, QUALITY ASSURANCE	LOU ANN NAPOLITANO	30701RYLRB197RO	APACHE MILLS INC APACHE 2	197 ROYAL DR SE	CALHOUN	GORDON	GA	30701	APACHE MILLS INC APACHE 2	197 ROYAL DR SE	CALHOUN	GA		30701	YES	NO	NO	NO	SHANE SUMNERS	7066297791	3069							314110						34.451121	-84.923304	808826846								APACHE MILLS INC.	808826846	NO	SSUMNERS@APACHEMILLS.COM	
2007	DIRECTOR, QUALITY ASSURANCE	LOU ANN NAPOLITANO	30701PCHML417SR	APACHE MILLS PLANT 1	417 S RIVER ST	CALHOUN	GORDON	GA	30701	APACHE MILLS INC	197 ROYAL DR SE	CALHOUN	GA		30701	YES	NO	NO	NO	SHANE SUMNERS	7066297791	3081	3069						314110	326299					34.496946	-84.954946	808826846								APACHE MILLS INC	808826846	NO	SSUMNERS@APACHEMILLS.COM	
2007	EHS	JAVEED SYED	30082PLLND1850S	APOLLO TECHNOLOGIES	1850 S COBB INDUSTRIAL BLVD	SMYRNA	COBB	GA	30082	APOLLO TECHNOLOGIES	1850 S COBB INDUSTRIAL BLVD	SMYRNA	GA		30082	YES	NO	NO	NO	STEVE MOORE	7704330210	2899							325199						33.837361	-84.500998	051021285		GAD051021285								NO	SMOORE@APOLLOIND.COM	
2007	MANUFACTURING DIRECTOR	JOHN KRANJC	30027KPPRS1579K	ARCH WOOD PROTECTION INC.	1579 KOPPERS RD	CONLEY	DE KALB	GA	30288	ARCH WOOD PROTECTION INC.	1579 KOPPERS RD	CONLEY	GA		30288	YES	NO	NO	NO	JOHN KRANJC	4043636300	2819	2879						325320						33.662815	-84.325748	199665050								ARCH WOOD PROTECTION INC.	603577578	NO	JEKRANJC@ARCHCHEMICALS.COM	
1999	ENVIRONMENTAL HEALTH AND SAFETY MANAGER	KATHRYN HOLEN	30034RDCNC3075N	ARDCO INC. RUSSELL FACILITY	3075 N. LANIER PKY.	DECATUR	DE KALB	GA	30034	ARDCO INC.	170 RIDGEVIEW DR.	ATHENS	GA		30606	YES	NO	NO		KATHY HOLEN	7063577225	3585							333415						33.69357	-84.266568	623855095		GA0002199636		GAR000000				ARDCO INC.	005528914	NO		
2007	PLANT MANAGER	LEE CROWDER	31601NNCMP1401E	ARIZONA CHEMICAL CO	1401 E HILL AVE	VALDOSTA	LOWNDES	GA	31601	ARIZONA CHEMICAL	1401 E HILL AVE	VALDOSTA	GA		31601	YES	NO	NO	NO	LEE CROWDER	2293338414	2821							325211						30.838972	-83.255833											NO	LEE.CROWDER@AZCHEM.COM	
2007	SAVANNAH PLANT MANAGER	NICK MEROLLI	31415RZNCH121WL	ARIZONA CHEMICAL CO LLC	1201 W LATHROP AVE	SAVANNAH	CHATHAM	GA	31415	ARIZONA CHEMICAL CO LLC	PO BOX 2028	SAVANNAH	GA		31402	YES	NO	NO	NO	MARK TILLMAN	9122387729								325211	325191					32.099123	-81.119383	139305197										NO	MARK.TILLMAN@AZCHEM.COM	
2007	PLANT MANAGER	MICHAEL HEINTZELMAN	30132RMSTR351SI	ARMACELL LLC	351 THOMAS B MURPHY DR	DALLAS	PAULDING	GA	30132	ARMACELL LLC	351 THOMAS B MURPHY DR	DALLAS	GA		30132	YES	NO	NO	NO	MICHAEL J. HEINTZELMAN	7704431844	3069							326299						33.909194	-84.82951	618513287								ARMACELL LLC	830996646	NO	MICHAEL.J.HEINTZELMAN@ARMACELL.COM	
1998	PLANT MANAGER	JIM MASTERSON	30132WWHNR350SI	ARMSTRONG / HENRY	350 THOMAS B. MURPHY DR.	DALLAS	PAULDING	GA	30132	ARMSTRONG / HENRY	350 THOMAS B. MURPHY DR.	DALLAS	GA		30132	YES	NO	NO		JIM MASTERSON	7704455377	2891	3069	3086					325520						33.909194	-84.82951	008489452		GAD008489452		GAR000000				ARMSTRONG WORLD INDUSTRIES INC	001307792	NO		
1996	PRESIDENT	MICHAEL LARSON	30318RMSTR1320E	ARMSTRONG GLASS CO INC	1320 ELLSWORTH INDUSTRIAL DR NW	ATLANTA	FULTON	GA	30318	ARMSTRONG GLASS CO INC	359 HOOD RD	JASPER	GA		30143	YES	NO	NO		MICHAEL LARSON	4043513560	3211							327211						33.791309	-84.426922											NO		
2000	PRESIDENT	MICHAEL LARSON	30143RMSTR359HO	ARMSTRONG GLASS INC.	359 HOOD RD.	JASPER	PICKENS	GA	30143	ARMSTRONG GLASS INC.	359 HOOD RD.	JASPER	GA		30143	YES	NO	NO	NO			3211							327211						34.479158	-84.439739			GA0001509629		GAR000000				ARMSTRONG ACQUISITION CO. INC.		NO		
2007	E,H&S MANAGER	GLEN HAWKINS	31206RMSTR4520B	ARMSTRONG WORLD INDUSTRIES INC	4520 BROADWAY	MACON	BIBB	GA	31213	ARMSTRONG WORLD INDUSTRIES INC	4520 BROADWAY	MACON	GA		31213	YES	NO	NO	NO	BILL HAHN	4787842256	3999							339999						32.779883	-83.655268	003297413								ARMSTRONG WORLD INDUSTRIES INC	001307792	NO	WTHAHN@ARMSTRONG.COM	
2006	PRESIDENT	TIMOTHY C VOSS	30092RRWDH5457S	ARROW ADHESIVES CO	5457 SPALDING DR	NORCROSS	GWINNETT	GA	30092	ARROW ADHESIVES CO	5457 SPALDING DR	NORCROSS	GA		30092	YES	NO	NO	NO	TIMOTHY C VOSS	7704489058	2891							325520						33.969475	-84.219321	042104380										NO		
2007	OFFICER	THOMAS CRUMBLEY	30722RRWNGSOUTH	ARROW ENGINEERING	1711 S DIXIE HWY	DALTON	WHITFIELD	GA	30720	ARROW ENGINEERING LLC	PO BOX 1795	DALTON	GA		30721	YES	NO	NO	NO	THOMAS CRUMBLEY	7062772981	2843							325613						34.744167	-84.971111									STAR HOLDINGS INC		NO	THOMAS.CRUMBLEY@STAR-NA.COM	
2006	PLANT MANAGER	BOBBY  TRIPP	31030FBRGLHWY34	ARROWHEAD FIBERGLASS INDUSTRIE S INC.	45 S PARK RD	FORT VALLEY	PEACH	GA	310301643	ARROWHEAD FIBERGLASS INDUSTRIES INC.	P.O BOX 1643	FORT VALLEY	GA		310301643	YES	NO	NO	NO	BOBBY TRIPP	4788258334	3089							326199						32.533634	-83.871525	016899390										NO		
1994	V.P.	STEVE TANNER	30066RYLSS1091L	ARYLESSENCE INC.	1091 LAKE DR.	MARIETTA	COBB	GA	30066	ARYLESSENCE INC.	1091 LAKE DR.	MARIETTA	GA		30066	YES	NO	NO		STEVE TANNER	4049243775	2844							325199						34.066316	-84.517961	083758078								ARYLESSENCE INC.	083758078	NO		
2007	FACILITY MANAGER	GLENN R. DAVIS	31401SHLND400TE	ASHLAND DISTRIBUTION	400 TELFAIR RD	SAVANNAH	CHATHAM	GA	31415	ASHLAND INC	5200 BLAZER PARKWAYDS-4	DUBLIN	OH		43017	YES	NO	NO	NO	JAMES VITAK	6147903715	5169							424690						32.082379	-81.139019	003280898								ASHLAND INC	005003264	NO	JEVITAK@ASHLAND.COM	
2007	PLANT MANAGER	WILLIAM D. BROWN	30340SHLND4550N	ASHLAND DISTRIBUTION CO	4550 NE EXPRESSWAY	DORAVILLE	DE KALB	GA	30340	ASHLAND INC.	5200 BLAZER PARKWAYMAIL CODE DS-4	DUBLIN	OH		43017	YES	NO	NO	NO	JIM VITAK	6147903715	5169							424690						33.9002	-84.244438	120928064								ASHLAND INC.	005003264	NO	JEVITAK@ASHLAND.COM	
2000	PRESIDENT	RAMEY THOMPSON	30701SSCTD127NA	ASSOCIATED RUBBER CO.	127 NANCE RD.	CALHOUN	GORDON	GA	30701	ASSOCIATED RUBBER CO.	P.O. BOX  245	TALLAPOOSA	GA		30176	YES	NO	NO	NO			3069							325998						34.562681	-84.937199	003282530		GAD000382530						ASSOCIATED RUBBER CO.	003282530	NO		
1995	ENVIRONMENTAL AND SAFETY COORDINATOR	JAMES H. KECK	30117FRKWL201AD	AT&T FITEL COMPANY	201 ADAMSON INDL BLVD	CARROLLTON	CARROLL	GA	30117	AT&T FITEL COMPANY	201 ADAMSON INDL BLVD	CARROLLTON	GA		30117	YES	NO	NO		RODDY CLIFTON	7708368610	3357							335921						33.611135	-85.100835	161687983		GAD981236847						LUCENT TECHNOLOGIES INC.	006980080	NO		
1997	EXECUTIVE VICE PRESIDENT	MICHAEL FRANK	30060TCNTR1400B	ATCO INTERNATIONAL	1401 BARCLAY CIR.	MARIETTA	COBB	GA	300602926	ATCO INTERNATIONAL	1401 BARCLAY CIR.	MARIETTA	GA		30060-2926	YES	NO	NO		MICHAEL FRANK	7704247550	2842							325612						33.930195	-84.512733	033504929		GAD033504929						ATCO INTERNATIONAL	033504929	NO		
2007	VICE PRESIDENT, PLANNING AND INFORMATION TECH	PAUL EVANS	30120TCRBB765SE	ATCO RUBBER PRODUCTS INC.	765 S ERWIN ST	CARTERSVILLE	BARTOW	GA	30120	ATCO RUBBER PRODUCTS INC.	765 S ERWIN ST	CARTERSVILLE	GA		30120	YES	NO	NO	NO	JAMES A. TRISLER	7703867968	3083	2653	2893					326130	325910	322211				34.148969	-84.79355	006022271										NO	JTRISLER@ATCOFLEX.COM	
1998	CORPORATE DIRECTOR/OPERATIONS SERVICES	JOHN P. HODGSON	30062TLNTC1091I	ATLANTA COCA-COLA BOTTLING CO	1091 INDUSTRIAL PARK DR	MARIETTA	COBB	GA	30337	COCA-COLA ENTERPRISES INC	2500 WINDY RIDGE PKWY	ATLANTA	GA		30339	YES	NO	NO		JOHN DOWNS	7709893775	2086							312111						33.976411	-84.542692	047598818		GAD991275033		GAR000000				COCA-COLA ENTERPRISES INC	118267624	NO		
2004	CORPORATE MANAGER ENVIRONMENTAL AFFAIRS	REGINALD PRIME	30337TLNTC4755E	ATLANTA COCA-COLA BOTTLING CO	4755 EDISON DR	COLLEGE PARK	FULTON	GA	30337	ATLANTA COCA-COLA BOTTLING CO	4755 EDISON DR	COLLEGE PARK	GA		30337	NO	NO	NO	NO	MELLISSA BLACK	7709893172	2086	5149						312111						33.625852	-84.465739			GAD984281824						COCA-COLA ENTERPRISES INC	118267624	NO		
2006	GENERAL MANAGER	TED YOUNG	30316TLNTD777ME	ATLANTA DAIRY	777 MEMORIAL DR	ATLANTA	FULTON	GA	30316	ATLANTA DAIRY	777 MEMORIAL DR	ATLANTA	GA		30316	YES	NO	NO	NO	JOHN WILHITE	4046882671	2026							311511						33.745556	-84.36	101391761								SOUTHEAST MILK INC	049555741	NO		
2007	VICE PRESIDENT	MITCHEL A. HIRES	30030TLNTM224RI	ATLANTA MARBLE MANUFACTURING INC	224 RIO CIR	DECATUR	DE KALB	GA	30030	ATLANTA MARBLE MANUFACTURING INC	224 RIO CIR	DECATUR	GA		30030	YES	NO	NO	NO	MITCHEL A. HIRES	4043783132	3089							326199						33.781233	-84.271224	048697940										NO	NA	
1997	VICE PRESIDENT, ATLANTA OPERATIONS	DAVID L. CHEEK	30318TLNTC1365M	ATLANTIC STEEL INDUSTRIES INC.	1365 MECASLIN ST. N.W	ATLANTA	FULTON	GA	30318	ATLANTIC STEEL INDUSTRIES INC.	P.O. BOX 1714	ATLANTA	GA		30301-1714	YES	NO	NO		DAVID L. CHEEK	4048974644	3315							331222						33.791385	-84.399912	003326477		GAD003326477						IVACO INC.	205650617	NO		
2007	VICE PRESIDENT	ROSS F. WORSHAM	31407TLNTCSUGAR	ATLANTIC WOOD INDUSTRIES INC	SUGAR REFINERY RD OXNARD DR	PORT WENTWORTH	CHATHAM	GA	31407	ATLANTIC WOOD INDUSTRIES INC	PO BOX 1608	SAVANNAH	GA		31402-1608	YES	NO	NO	NO	ROBERT BENTON	9129641234	2491							321114						32.146083	-81.150694	156940918										NO	RBENTON@ATLANTICWOOD.COM	
2007	V.P. OPERATIONS	ROSS F. WORSHAM	30474TLNTCATLAN	ATLANTIC WOOD INDUSTRIES INC.	704 ATLANTIC AVE	VIDALIA	TOOMBS	GA	30474	ATLANTIC WOOD INDUSTRIES INC.	PO BOX 1608	SAVANNAH	GA		31402	YES	NO	NO	NO	ROBERT BENTON	9129641234	2491							321114						32.238213	-82.394034	156940918										NO	RBENTON@ATLANTICWOOD.COM	
2007	PLANT MANAGER	ALLAN HOWELL	30120TLNTS434IN	ATLANTIS PLASTIC FILMS	434 INDUSTRIAL PARK RD	CARTERSVILLE	BARROW	GA	30120	ATLANTIS PLASTIC FILMS	434 INDUSTRIAL PARK RD	CARTERSVILLE	GA		30120	YES	NO	NO	NO	ALLAN HOWELL	7703867717								326113						34.234957	-84.783973											NO	ALLANHOWELL@ATLANTISPLASTICS.COM	
2007	DIRECTOR OF CORPORATE ENGINEERING	DUDLEY LIGHTSEY	30228TLSRF100GE	ATLAS ROOFING CORP	100 PINE VIEW DR	HAMPTON	HENRY	GA	30228	ATLAS ROOFING CORP	100 PINE VIEW DR	HAMPTON	GA		30228	YES	NO	NO	NO	DUDLEY LIGHTSEY	6014811474	2952							324122						33.409277	-84.291314	004546859								ATLAS ROOFING CORP	004546859	NO	NA	
2007	PLANT MANAGER	DAN DAVIDSON	30240TLSNR1303O	ATLAS ROOFING CORP	1303 ORCHARD HILL RD	LAGRANGE	TROUP	GA	30240	ATLAS ROOFING CORP	1303 ORCHARD HILL RD	LAGRANGE	GA		30240	YES	NO	NO	NO	DAN DAVIDSON	7068829355	3086							326150						33.001838	-85.053836	004546859								ATLAS ROOFING CORP	004546859	NO	DDAVIDSO@ATLASROOFING.COM	
2007	MILL MANAGER	JAY BACKUS	30906GSTNW2434H	AUGUSTA NEWSPRINT CO	2434 DOUG BARNARD PKWY	AUGUSTA	RICHMOND	GA	30906	AUGUSTA NEWSPRINT CO	P O BOX 1647	AUGUSTA	GA		30903	YES	NO	NO	NO	JIM REECE	7067983440	2621							322122						33.336094	-81.955841	033575663										NO	JREECE@ABITIBIBOWATER.COM	
2007	PRESIDENT	C.T. DAVIS	30917GSTRD1APAC	AUGUSTA READY MIX	100 REYNOLDS INDUSTRIAL WAY	AUGUSTA	RICHMOND	GA	30917	AUGUSTA READY MIX	PO BOX 204018	AUGUSTA	GA		309174018	YES	NO	NO	NO	KAREN HUNT	7067381413	3273							327320						33.523217	-82.0383	144442514										NO	KHUNT@AUGUSTAREADYMIX.COM	
2001		ROGER D. MESSER	31709STNRTSOUTH	AUSTIN URETHANE INC	SOUTHERFIELD RD	AMERICUS	SUMTER	GA	31709	AUSTIN URETHANE INC	PO BOX 971	AMERICUS	GA		31709	YES	NO	NO		ROGER D MESSER	2299240316	3086							326150						32.096549	-84.217238			GAD981267305								NO		
1988	PRESIDENT-GENERAL MANAGER	RICHARD PHILLIPS	30341TVNTS3571B	AUTO VENTSHADE CO	3571 BROAD ST	CHAMBLEE	DE KALB	GA	30341	AUTO VENTSHADE CO	3571 BROAD ST	CHAMBLEE	GA		30341	YES	NO	NO		DAN MAMAY	4044513505	3499							332322						33.896869	-84.299754	069001164		GAD051044683								NO		
1990	PLANT MANAGER	STEVE JOHNSON	30635TLTLBMINER	AUTOLITE-ELBERTON	MINERAL SPRINGS RD.	ELBERTON	ELBERT	GA	30635	AUTOLITE-ELBERTON	P.O. BOX 578	ELBERTON	GA		30635	YES	NO	NO		LAURA BIEREMA		3694							336322						34.096057	-82.890915	061145447		GAD079383469						ALLIED-SIGNAL INC.	139691877	NO		
2007	DIRECTOR, MANUFACTURING	SCOTT BRANNAN	30144TMTDL115RB	AUTOMATED LOGIC CORP	1150 ROBERTS BLVD	KENNESAW	COBB	GA	30144	AUTOMATED LOGIC CORP	1150 ROBERTS BLVD	KENNESAW	GA		30144	YES	NO	NO	NO	SCOTT BRANNAN	7707954821	3822							334512						34.004338	-84.587001	084826304								UNITED TECHNOLOGIES CORP	001344142	NO	SBRANNAN@AUTOMATEDLOGIC.COM	
2002	CEO	ERIC BLANCHARD	30620TMTDP737HA	AUTOMATED PACKAGING INC	737 HARRY MCCARTY RD SUITE 403	BETHLEHEM	BARROW	GA	30620	AUTOMATED PACKAGING INC	737 HARRY MCCARTY RD SUITE 403	BETHLEHEM	GA		30620	YES	NO	NO	NO	ERIC BLANCHARD	7703079688	2841	2842						325611						33.941827	-83.727288											NO		
1996	PRES.	JAMES R. HOLCOMBE	30180TMTVL905RO	AUTOMOTIVE ELECTRONICS INC	905 ROCKMART HWY	VILLA RICA	CARROLL	GA	30180	AUTOMOTIVE ELECTRONICS INC	1055 ARDEN AVE SW	ATLANTA	GA		30310	YES	NO	NO		JERRY MOBLEY	4047587421	3714							336000						33.749892	-84.9313											NO		
1992	SITE MANAGER	R. F. BRISKIE	30542VRY  THURM	AVERY DENNISON	4350 AVERY DR	FLOWERY BRANCH	HALL	GA	305422836	AVERY DENNISON	4350 AVERY DR	FLOWERY BRANCH	GA		30542-2836	YES	NO	NO		KEITH M. SCHWANER	4049673371	2751							322231						34.202282	-83.899423	075922856		GAD075922856						AVERY DENNISON CORP	008256364	NO		
2003	MANAGER,  ENVIRONMENTAL ENGINEERING	J. H. VAUGHN III	30904SBLYD1717G	AVONDALE MILLS INC SIBLEY PLANT	1717 GOODRICH ST.	AUGUSTA	RICHMOND	GA	30904	AVONDALE MILLS INC SIBLEY PLANT	P.O. BOX 128	GRANITEVILLE	SC		29829	YES	NO	NO	NO	S. FELKER JR.	7702672226	2261							313311						33.484063	-81.990598	155299365		GAD003265238						AVONDALE MILLS INC.	155299365	NO		
1999	VICE PRESIDENT OF OPERATIONS	MILTON R. HUMPHRIES	31705YRSCRONERO	AYRES CORP	1 AYRES WAY	ALBANY	DOUGHERTY	GA	31705	AYRES CORP	PO BOX 3090	ALBANY	GA		31708	YES	NO	NO		MILTON R HUMPHRIES	9128831440	3721							336411						31.542825	-84.205626	082172636		GAD981247067								NO		
2007		JAMES T. STOVALL	31550BMWDPMANOR	B&M WOOD PRODS	4137 MANOR MILLWOOD RD	MANOR	WARE	GA	31550	B&M WOOD PRODS	4137 MANOR MILLWOOD RD	MANOR	GA		31550	YES	NO	NO	NO	JAMES T. STOVALL	9122830353	2491							321114						31.113678	-82.577145			GAD058489899		GAR000000						NO	BMWOOD@GATE.NET	
2007	VICE PRESIDENT	DAVID BABB	30736BBBLMHIGHW	BABB LUMBER COMPANY. INC.	6652 HWY 41	RINGGOLD	CATOOSA	GA	30736	BABB LUMBER CO. INC.	PO BOX 250	RINGGOLD	GA		30736	YES	NO	NO	NO	DAVID BABB	7069352411	2491							321114						34.9	-85.066667											NO	DAVID@BABB.COM	
2007	PRESIDENT	ROSTAM FELFELI	31803BBYSDHWY41	BABY'S DREAM FURNITURE INC	411 INDUSTRIAL BLVD	BUENA VISTA	MARION	GA	31803	BABY'S DREAM FURNITURE INC	PO BOX 579	BUENA VISTA	GA		31803	YES	NO	NO	NO	FRANK BORING	2296494404	2511							337122						32.330556	-84.526389	786891960										NO	FRANK@BABYSDREAM.COM	
1989	PRES.	THOMAS C. FRIEL JR.	31323BCPRDCHEMI	BAC PRODUCTS INC	CHEMICAL PLANT RD	RICEBORO	LIBERTY	GA	31323	BAC PRODUCTS INC	CHEMICAL PLANT RD	RICEBORO	GA		31323	YES	NO	NO		JANICE P BROWN	9128847070	2869							325000						31.743667	-81.43175	161696836										NO		
1994	V.P. MANUFACTURING	DANIEL J. TOMPKINS	30906BKRHY1812T	BAKER-HYDRO INC.	1864 TOBACCO RD.	AUGUSTA	RICHMOND	GA	30906	BAKER-HYDRO INC.	1864 TOBACCO RD.	AUGUSTA	GA		30906	YES	NO	NO		DAN TOMPKINS	7067937291	3999							339999						33.369602	-82.006846			GAD981246309						WEXCO INC.		NO		
2007	PLANT MANAGER	BRAD THOMPSON	30601RLNCLCOLLI	BALDOR DODGE RELIANCE	197 COLLINS INDUSTRIAL BLVD	ATHENS	CLARKE	GA	30601	BALDOR DODGE RELIANCE	PO BOX 809	ATHENS	GA		30601	YES	NO	NO	NO	MARK REYNOLDS	7065834170	3621	3625						335312	335314					33.979332	-83.353302	046901096								BALDOR ELECTRIC CO INC.	006338537	NO	MEREYNOLDS@BALDOR.COM	
2007	PLANT MANAGER	MATT PRICE	30542RLNCL4349A	BALDOR DODGE RELIANCE - FLOWERY BRANCH	4349 AVERY DR	FLOWERY BRANCH	HALL	GA	30542	BALDOR DODGE RELIANCE - FLOWERY BRANCH	P.O BOX 250	FLOWERY BRANCH	GA		30542	YES	NO	NO	NO	KEN MCCRARY	6789477334	3621							335312						34.202332	-83.899458	083754978								BALDOR ELECTRIC CO	006338537	NO	NA	
2007	PRESIDENT	BRYANT BEADLES	31792BLFRL800WC	BALFOUR LUMBER CO	800 W CLAY ST	THOMASVILLE	THOMAS	GA	31792	BALFOUR LUMBER CO	PO BOX 1337	THOMASVILLE	GA		31799	YES	NO	NO	NO	BRYANT BEADLES	2299856996	2421							321113						30.83418	-83.995656	003490018										NO	NA	
2007	EHS MANAGER	TIM CASE	30176SCNCM100ST	BALL AEROSOL & SPECIALTY CONTAINER INC	100 STOFFEL DR	TALLAPOOSA	HARALSON	GA	30176	BALL CORP	9300 W 108TH CIR	BROOMFIELD	CO		80021	YES	NO	NO	NO	SCOTT MCCARTY	3034602103	3411							332431						33.737044	-85.278402									BALL CORP	006419147	NO		
2001	DIRECTOR, ENVIRONMENTAL SERVICES	JOETTE BAILEY-KEOWN	31768MLLRBTHOMA	BALL METAL BEVERAGE CONTAINER CORP.	278 HWY. 319 S.	MOULTRIE	COLQUITT	GA	31768	BALL METAL BEVERAGE CONTAINER CORP.	9300 W. 108TH CIRCLE	BROOMFIELD	CO		80021-3682	YES	NO	NO	NO	SCOTT MCCARTY	3034602103	3411							332431						31.1125	-83.790278	039492962		GAD000771998		GAR000000				BALL CORP.	006419147	NO		
2007	VICE PRESIDENT OF OPERATIONS	DANE L. CLARK	30542BRBMRWESTW	BARBE AMERICA INC.	4208 W WHITE RD	OAKWOOD	HALL	GA	30566	BARBE AMERICA INC.	PO BOX 69	FLOWERY BRANCH	GA		30542	YES	NO	NO	NO	DANE CLARK	7709674305	2899							325998						34.214502	-83.896889	154054290										NO	DANE.CLARK@BARBEAMERICA.COM	
2007	VP OF QUALITY	MARY MAYO	30650BRDMD1211M	BARD MADISON OPERATIONS	1211 MARY MAGNAN BLVD	MADISON	MORGAN	GA	30650	BARD MEDICAL DIV	8195 INDUSTRIAL BLVD	COVINGTON	GA		30014	YES	NO	NO	NO	PAUL MURPHY	7707846717								339112						0	0	042952390								C.R. BARD INC.	006973408	NO	PAUL.MURPHY@CRBARD.COM	
2007	PLANT MANAGER	TERRY MCBRIDE	30650BRDMN1310M	BARD MANUFACTURING CO	1310 MONTICELLO HWY	MADISON	MORGAN	GA	30650	BARD MANUFACTURING CO	1310 MONTICELLO HWY	MADISON	GA		30650	YES	NO	NO	NO	CHRIS ANDERSON	7063428441	3585							333415						33.568475	-83.494329									BARD MANUFACTURING CO	005034541	NO	CHRIS@BARDHVAC.COM	
2007	VP OF QUALITY	MARY MAYO	30209CRBRD8195N	BARD MEDICAL DIV	8195 INDUSTRIAL BLVD	COVINGTON	NEWTON	GA	30014	BARD MEDICAL DIV	8195 INDUSTRIAL BLVD	COVINGTON	GA		30014	YES	NO	NO	NO	PAUL MURPHY	7707846717	3841							339112						33.611637	-83.836538	042952390								C.R. BARD INC.	006973408	NO	PAUL.MURPHY@CRBARD.COM	
2007	SITE MANAGER	SCOTT POUNDS	31715NGLHRDEPOT	BASF CATALYSTS ATTAPULGUS OPS	141 ENGELHARD RD	ATTAPULGUS	DECATUR	GA	39815	BASF CATALYSTS LLC	PO BOX 220	ATTAPULGUS	GA		39815	YES	NO	NO	NO	ERIC BARBOUR	2294652268	3295	2819	2873					327992	331311	325311				30.738333	-84.49388	053194023								BASF CORP	071014385	NO	ERIC.BARBOUR@BASF.COM	
2007	SITE MANAGER	GERALD BURCH	31404KTLST1800E	BASF CATALYSTS LLC - SAVANNAH OPERATIONS	1800 E PRESIDENT ST	SAVANNAH	CHATHAM	GA	31404	BASF CATALYSTS LLC - SAVANNAH OPERATIONS	1800 E PRESIDENT ST	SAVANNAH	GA		31404	YES	NO	NO	NO	MICHELLE NOONEY	9126443856	3295	2819						327992	331311					32.078609	-81.054443	877442285								BASF CORP	071014385	NO	MICHELLE.NOONEY@BASF.COM	
2007	SITE MANAGER	PHIL LEMON	30102DGSSC1103N	BASF CONSTRUCTION CHEMICALS LLC	1103 NORTHPOINT PKWY	ACWORTH	BARTOW	GA	30102	BASF CONSTRUCTION CHEMICALS LLC	1103 NORTHPOINT PKWY	ACWORTH	GA		30102	YES	NO	NO	NO	PHIL LEMON	6785743778	2851							325510						34.085491	-84.670036	151345444								BASF CORP	071014385	NO	PHIL.LEMON@BASF.COM	
2001	OPERATIONS MGR.	MARK H. BRANDT	30336RTHNT40ENT	BASF CORP	40 ENTERPRISE BLVD.	ATLANTA	FULTON	GA	30336	BASF CORP	40 ENTERPRISE BLVD.	ATLANTA	GA		30336	NO	NO	NO		MARK H. BRANDT	7703872525	2821							325211						33.754989	-84.549937	071014385								BASF CORP	071014385	NO		
1994	GENERAL MANAGER	PATRICK C. SMITH	30467BSFCR405MI	BASF CORP SYLVANIA PLANT	405 MIMS RD.	SYLVANIA	SCREVEN	GA	304671687	BASF CORP. SYLVANIA PLANT	P.O. BOX 1687	SYLVANIA	GA		30467-1687	YES	NO	NO		EDWARD K. OVERSTREET	9125647183	2281							313111						32.752653	-81.648485	166695585		GAD045473220		GAR000000				BASF CORP	071014385	NO		
2007	VICE PRESIDENT MANUFACTURING	MR. RONALD G. MATHIS	31647MCRFLROUTE	BASF SPARKS LLC	14284 HWY 41 N	SPARKS	COOK	GA	31647	BASF SPARKS LLC	14284 HWY 41 N	SPARKS	GA		31647	YES	NO	NO	NO	RONALD G. MATHIS	2295498245	2879							325320						31.223333	-83.457778	071014385								BASF CORP	071014385	NO	RON.MATHIS@BASF.COM	
2003	PLANT MANAGER	MICHAEL S. DUNN	31206BSSTT7501A	BASSETT FURNITURE INDUSTRIES OF NC INC	7501 AIRPORT DR	MACON	BIBB	GA	31216	BASSETT FURNITURE INDUSTRIES OF NC INC	PO BOX 4427	MACON	GA		31208	YES	NO	NO	NO	MICHAEL S DUNN	4787887173	2511							337122						32.708226	-83.649607	003124617		GAD046892824						BASSETT FURNITURE INDUSTRIES OF NC INC	003124617	NO		
2002	EXECUTIVE VP OF OPERATIONS	KEITH SANDERS	31040BSSTTPOBOX	BASSETT FURNITURE INDUSTRIES OF NORTH CAROLINA INC DUBLIN	INDUSTRIAL BLVD.	DUBLIN	LAURENS	GA	31021	BASSETT FURNITURE INDS. OF NORTH CAROLINA INC.-DUBLIN	P.O. BOX 1267	DUBLIN	GA		31021	YES	NO	NO	NO	LYNWOOD SCOTT	2766296240	2511							337122						32.51859	-82.931438	073421695		GAD073421695						BASSETT FURNITURE INDUSTRIES OF NORTH CAROLINA	003124617	NO		
2007	V.P./GENERAL MGR.	JOHNNIE HAMBRICK	31601BTHCR1610J	BATHCRAFT INC.	1610 JAMES P. RODGERS DR	VALDOSTA	LOWNDES	GA	31601	BATHCRAFT INC.	1610 JAMES P. RODGERS DR	VALDOSTA	GA		31601	YES	NO	NO	NO	JIM KUTZLI	2293330805	3088							326191						30.802878	-83.278118									JACUZZI WHIRLPOOL BATH INC.		NO	JKUTZLI@BATHCRAFT.COM	
2007	PRES./OWNER	CHARLES B. HEFNER, JR.	30084BTHRM2267M	BATHROOM DESIGNS	2267 MOON ST	TUCKER	DE KALB	GA	30084	BATHROOM DESIGNS	PO BOX 1086	TUCKER	GA		30085	YES	NO	NO	NO	CHARLES B. HEFNER, JR.	6785340900	3088							339999						33.848752	-84.228633	040696791								ASSOCIATED AGENTS D/B/A BATHROOM DESIGNS	040696791	NO	BRDESIGNS@BELLSOUTH.NET	
2004	PRESIDENT	CHARLES B. HEFNER, JR.	30307BTHRM964DE	BATHROOM DESIGNS	964 DEKALB AVE	ATLANTA	FULTON	GA	30307	BATHROOM DESIGNS	P.O.BOX 1086	TUCKER	GA		30085	YES	NO	NO	NO	CHARLES B. HEFNER, JR.	6785340900	3088							326191						33.755272	-84.356249	040696791								ASSOCIATED AGENTS D/B/A HEFNER & ASSOCIATES	040696791	NO		
1992	PRES.	LAWTON M. MORRIS SR.	31513BXLYCPOBOX	BAXLEY CREOSOTING CO INC	608 E PARKER ST	BAXLEY	APPLING	GA	31513	BAXLEY CREOSOTING CO INC	608 E PARKER ST	BAXLEY	GA		31513	YES	NO	NO		LAWTON MORRIS	9123674646	2491							321114						31.776032	-82.340892	003266952	003266962	GA0003266962	GA0003266952							NO		
2007	SITE LEADER	JOHN DREW	31569RHNPLEASTE	BAYER CROPSCIENCE WOODBINE PLANT	5954 UNION CARBIDE RD	WOODBINE	CAMDEN	GA	31569	BAYER CROPSCIENCE	5954 UNION CARBIDE RD	WOODBINE	GA		31569	YES	NO	NO	NO	DAVID PITTMAN	9127299304	2879							325320						30.942306	-81.525611	001350263								BAYER CROPSCIENCE USA LP	001350263	NO	DAVID.PITTMAN@BAYERCROPSCIENCE.COM	
2007	PLANT MANAGER	GEORG WAGNER	31907RCPLYONERU	BAYER MATERIALSCIENCE LLC	1 BAYER WAY	COLUMBUS	MUSCOGEE	GA	31907	BAYER MATERIALSCIENCE LLC	1 BAYER WAY	COLUMBUS	GA		31907	YES	NO	NO	NO	MICHAEL A. KRESS	7065620800	2821							325211						32.5075	-84.881667											NO	MIKE.KRESS@BAYERBMS.COM	
2007	PRESIDENT	VICTOR BEADLES	31768BDLSL9006T	BEADLES LUMBER CO	900 6TH ST NE	MOULTRIE	COLQUITT	GA	31768	BEADLES LUMBER CO	PO BOX 3457	MOULTRIE	GA		31776	YES	NO	NO	NO	VICTOR BEADLES	2299856996	2421							321113						31.189722	-83.78	003292448										NO	NA	
2007	DIRECTOR-ENVIRONMENTAL & SAFETY	NANCY VAN EMAN	30721BLFBR750CA	BEAULIEU FIBERS-APC	107 S E CALLAHAN RD	DALTON	WHITFIELD	GA	30721	BEAULIEU FIBERS-APC	107 S E CALLAHAN RD	DALTON	GA		30721	YES	NO	NO	NO	NANCY VAN EMAN	7062727396	2824							325222						34.71188	-84.973421	086971363								BEAULIEU GROUP LLC	086971363	NO	NVANEMAN@BEAULIEU-USA.COM	
2007	DIRECTOR-ENVIRONMENTAL & SAFETY	NANCY VAN EMAN	30721BLFBR600FI	BEAULIEU FIBERS-PLANT 20	509 FIFTH AVE	DALTON	WHITFIELD	GA	30721	BEAULIEU FIBERS-PLANT 20	509 FIFTH AVE	DALTON	GA		30721	YES	NO	NO	NO	NANCY VAN EMAN	7062727396	2824							325222						34.765103	-84.953669	086971363								BEAULIEU GROUP LLC	086971363	NO	NVANEMAN@BEAULIEU-USA.COM	
1998	FACILITIES MANAGER	KYLE SMITH	31904CLMBS4600R	BEAULIEU GROUP LLC COLUMBUS DIV.	4600 RIVER RD.	COLUMBUS	MUSCOGEE	GA	31904	BEAULIEU GROUP L.L.C. COLUMBUS DIV.	P.O. BOX 1560	COLUMBUS	GA		31993-1560	YES	NO	NO		ANGELA DAVIS	7063240111	2273							314110						32.508889	-84.981111	003266053								BEAULIEU OF AMERICA INC.	086971363	NO		
2006	DIRECTOR-ENVIRONMENTAL & SAFETY	NANCY VAN EMAN	30721BLGRP111RI	BEAULIEU GROUP LLC-PLANT 540	1101 RIVERBEND RD	DALTON	WHITFIELD	GA	30721	BEAULIEU GROUP LLC-PLANT 540	1101 RIVERBEND RD	DALTON	GA		30721	YES	NO	NO	NO	NANCY VAN EMAN	7062727396								314110						34.754254	-84.950154	086971363								BEAULIEU GROUP LLC	086971363	NO		
2007	DIRECTOR-ENVIRONMENTAL & SAFETY	NANCY VAN EMAN	30721BLNTD950RI	BEAULIEU OF AMERICA PLANT 560-MODEL	950 RIVERBEND RD	DALTON	WHITFIELD	GA	30721	BEAULIEU OF AMERICA PLANT 560-MODEL	950 RIVERBEND RD	DALTON	GA		30721	YES	NO	NO	NO	NANCY VAN EMAN	7062727396	2273							314110						34.757111	-84.950459	086971363								BEAULIEU GROUP LLC	086971363	NO	NVANEMAN@BEAULIEU-USA.COM	
2003	DIRECTOR-ENVIRONMENTAL AND SAFETY	NANCY VAN EMAN	30720CRNTNCORON	BEAULIEU PLANT 830	1510 CORONET DR	DALTON	WHITFIELD	GA	30720	BEAULIEU PLANT 830	1510 CORONET DR	DALTON	GA		30720	YES	NO	NO	NO	NANCY VAN EMAN	7062727396	2273							314110						34.798706	-84.966238	086971363		GAD981248735		GAR000000				BEAULIEU GROUP LLC	086971363	NO		
2007	TECHNICAL MANAGER	TIM COOPER	30255BVRMN12PIN	BEAVER MANUFACTURING CO. INC.	12 ED NEEDHAM DR	MANSFIELD	NEWTON	GA	30055	BEAVER MANUFACTURING CO. INC.	12 ED NEEDHAM DR	MANSFIELD	GA		30055	YES	NO	NO	NO	BILL LOEBLE	7707847219	2295							313320						33.519817	-83.736599	057293250										NO	NA	
2007	PRESIDENT	JEFFREY D. FILLEY	30253BHRPR130DE	BEHR PROCESS CORP ATLANTA	130 DECLARATION DR	MC DONOUGH	HENRY	GA	30253	BEHR PROCESS CORP	3400 W SEGERSTROM AVE	SANTA ANA	CA		92704	YES	NO	NO	NO	MIKE BUTLER	7145457101	2851							325510						33.396197	-84.163801	008387524								MASCO	005320924	NO	MBUTLER@BEHR.COM	
2007	PRESIDENT, N.A.	RICK MCWHIRT	30162BKRTCHWY41	BEKAERT STEEL	301 DARLINGTON DR	ROME	FLOYD	GA	30161	BEKAERT STEEL	301 DARLINGTON DR	ROME	GA		30161	YES	NO	NO	NO	RICK MCWHIRT	4796317661	3315							331222						34.219368	-85.173649	006841246								BEKAERT CORP	051525129	NO	RICK.MCWHIRT@BEKAERT.COM	
2007	GEORGIA OPERATIONS MANAGER	JEFFREY RICHARDSON	30731BSTMNHIGHW	BEST GLOVE INC.	579 EDISON ST	MENLO	CHATTOOGA	GA	30731	BEST GLOVE INC.	579 EDISON ST	MENLO	GA		30731	YES	NO	NO	NO	JEFFREY RICHARDSON	7068626740	2381	3069						315992						34.486173	-85.472589	807930412										NO	JRICHARDSON@BESTGLOVE.COM	
1995	GENERAL MANAGER OF MANUFACTURING	RAY LOOPER	30105RMCHGPOBOX	BEST MANUFACTURING CO ARMUCHEE DIV.	OLD SUMMERVILLE RD.	ARMUCHEE	FLOYD	GA	30105	BEST MFG. ARMUCHEE DIV.	P.O. BOX 8 EDISON ST.	MENLO	GA		30731	YES	NO	NO		GRAFTON CORBETT III.	6172273368	2381	3069						315000						34.296667	-85.18			GAD073468647						TILLOTSON CORP.	001020791	NO		
2006	PRESIDENT	JAKIE C. JONES	30705BTTRBPOBOX	BETTER BACKERS INC. DYEING DIV.	1122 HWY 411S	CHATSWORTH	MURRAY	GA	30705	BETTER BACKERS INC.	P.O.BOX 37	CHATSWORTH	GA		30705	YES	NO	NO	NO	JAKIE C. JONES	7066957371	2273							314110						34.774	-84.769722											NO		
1996	PLANT MANAGER	TOM LANDRUM	31046THBBBRT1BO	BIBB CO. CAMELLIA PLANT	105 PLANT CAMELLIA RD.	JULIETTE	MONROE	GA	31046	BIBB CO. CAMELLIA PLANT	BOX 1280	JULIETTE	GA		31046	YES	NO	NO		LINDA COOK	9129945183	2261	2262						313311						33.080981	-83.785986	042968743		GAD042968743		GA0002224				BIBB CO. INC.	003270212	NO		
1994	PLANT MGR.	BLOISE WRIGHT	31904THBBB37151	BIBB CO. COLUMBUS PLANT	3715 1ST AVE.	COLUMBUS	MUSCOGEE	GA	31904	BIBB CO. COLUMBUS PLANT	P.O. BOX 1080	COLUMBUS	GA		31993	YES	NO	NO		DON FAIRCHILD	7066493285	2211							313210						32.49822	-84.991254	003270212		GAD080105950						BIBB CO. INC.	003270212	NO		
2003	OWNER/CEO	CINDY L. SIMPUKAS	30318BTKND1380W	BIO-TEK INDUSTRIES INC	1380 W MARIETTA ST NW	ATLANTA	FULTON	GA	30318	BIO-TEK INDUSTRIES INC	1380 W MARIETTA ST NW	ATLANTA	GA		30318	YES	NO	NO	NO	ROBERT MCMAHON	4047992050	2899							325998						33.786111	-84.433056	059556308										NO		
2007	EHS MANAGER	TOM WIDEMAN	30207BLBNC1735D	BIOLAB INC	1735 DOGWOOD DR	CONYERS	ROCKDALE	GA	30012	BIOLAB INC	1700 OLD COVINGTON HWY	CONYERS	GA		30012	YES	NO	NO	NO	TOM WIDEMAN	7704832600	2899							325998						33.670866	-84.044658	088400325								CHEMTURA CORP	088400325	NO	TOM.WIDEMAN@CHEMTURA.COM	
2001	VP - ENGINEERING	ROYAL KING	30903BLCKMPOBOX	BLACKMAN UHLER CHEMICAL CO.	1010 GLASS FACTORY AVE.	AUGUSTA	RICHMOND	GA	30901	BLACKMAN UHLER CHEMICAL CO.	P.O. BOX 660	AUGUSTA	GA		30903	YES	NO	NO	NO	BEN ODELL	8645961590	2865	2869						325199						33.452332	-81.980735	003349065		GAD042125146		GAR000000				SYNALLOY CORP.	003349065	NO		
1994	OPER. MANAGER	JAMES E. HURST	30185TLNTX114MC	BLASTRITE SERVICES INC.	114 MCLARTY RD.	WHITESBURG	CARROLL	GA	30185	BLASTRITE SERVICES INC.	P.O. BOX 1589	CARROLLTON	GA		30117	YES	NO	NO		JAMES E. HURST	4048348733	2892							325920						33.563794	-84.877445									EXPLOSIVES TECHNOLOGIES INTERNATIONAL INC.(ETI)	182051557	NO		
2007	CORPORATED ENVIRONMENAL MANAGER	PAMELA A. MASON	31030BLBRDNORTH	BLUE BIRD BODY CO	402 BLUE BIRD BLVD	FORT VALLEY	PEACH	GA	310300937	BLUE BIRD BODY CO	PO BOX 937	FORT VALLEY	GA		310300937	YES	NO	NO	NO	PAMELA MASON	4788222740	3713	3716						336213	336211					32.558887	-83.883244	003279627										NO	PAM.MASON@BLUE-BIRD.COM	
2007	CORPORATE ENVIRONMENTAL MANAGER	PAMELA A. MASON	30728BLBRDSHATT	BLUE BIRD NORTH GEORGIA	1198 SHATTUCK INDUSTRIAL BLVD	LAFAYETTE	WALKER	GA	30728	BLUE BIRD NORTH GEORGIA	PO BOX 807	LAFAYETTE	GA		30728	YES	NO	NO	NO	PAMELA MASON	4788222740	3713							336211						34.676869	-85.290622	003279627								BLUE BIRD CORP	003276927	NO	PAM.MASON@BLUE-BIRD.COM	
1987	Q.C. MGR.	THOMAS P. WEIR	30540BLRDGPROGR	BLUE RIDGE CARPET MILLS	PROGRESS ROAD	ELLIJAY	GILMER	GA	30540	BLUE RIDGE CARPET MILLS	PROGRESS ROAD	ELLIJAY	GA		30540	NO	NO	NO		THOMAS WEIR	4046352001	2272													34.664349	-84.4996	057286270								LOWY ENTERPRISES		NO		
1994	DISTRIBUTION SUPERINTENDENT	GENE STEPHENS	30901RCNDS1435C	BOC AIRCO INDUSTRIAL GASES	1435 COLUMBIA NITROGEN RD.	AUGUSTA	RICHMOND	GA	309015707	BOC AIRCO INDUSTRIAL GASES	1435 COLUMBIA NITROGEN RD.	AUGUSTA	GA		30901-5707	YES	NO	NO		GENE STEPHENS	7067227236	2813							325120						33.4834	-81.98	030238547		GAD092384528						BOC GROUP INC	173939828	NO		
1999	PLANT MANAGER	TERRANCE BURCZYK	30736RC   RTE83	BOC GROUP INC BOC GASES AMERICAS	54 BIGGS RD.	RINGGOLD	CATOOSA	GA	30736	BOC GROUP INC BOC GASES AMERICAS	54 BIGGS RD.	RINGGOLD	GA		30736	YES	NO	NO		JOHN HOLLAND	7068919385	2813							325120						34.978056	-85.1925	003326432				GA0031135				BOC GROUP INC	001368141	NO		
2007	GENERAL MANAGER	JERRY FLYNT	31774BLDCRHWY12	BOLD CORP OCILLA PLANT	364 FITZGERALD HWY	OCILLA	IRWIN	GA	31774	BOLD CORP OCILLA PLANT	PO BOX 205	OCILLA	GA		31774	YES	NO	NO	NO	JERRY FLYNT	2294685895	2879							325320						31.599767	-83.300064	883723967										NO	JERRY.FLYNT@BOLDCORPORATION.COM	
2007	GENERAL MANAGER	JERRY FLYNT	31794BLDCRMAGNO	BOLD CORP TIFTON PLANT	7745 MAGNOLIA INDUSTRIAL BLVD	TIFTON	TIFT	GA	31794	BOLD CORP TIFTON PLANT	PO BOX 1463	TIFTON	GA		31793	YES	NO	NO	NO	JERRY FLYNT	2294685895	2879							325320						31.416236	-83.494125	010122364										NO	JERRY.FLYNT@BOLDCORPORATION.COM	
2007	PLANT MANAGER	BROOK HAMILTON	30263WLLML25BON	BON L MANUFACTURING CO	25 BONNELL ST	NEWNAN	COWETA	GA	30263	BON L MANUFACTURING CO	BOX 428	NEWNAN	GA		30264	YES	NO	NO	NO	BROOK HAMILTON	7702547637	3354	3341	3446	3471				331316	332813	332323	331314			33.382135	-84.814588	003273224								TREDEGAR CORP	555463785	NO	BWHAMILTON@BONLALUM.COM	
1995	PRESIDENT	W.M. BLAIKLOCK	30264BNRPL125CH	BONAR PLASTICS INC	125 CHRISTOPHER CT	NEWNAN	COWETA	GA	30264	BONAR PLASTICS INC	125 CHRISTOPHER CT	NEWNAN	GA		30264	YES	NO	NO		W M BLAIKLOCK	7702518264	2671	2761						323116						33.405169	-84.748403	243023223										NO		
2007	DIRECTOR RISK MANAGEMENT	JOHN COVER	30288BNSLM4083B	BONSAL AMERICAN INC	4083 BONSAL RD	CONLEY	DE KALB	GA	30288	BONSAL AMERICAN INC	4083 BONSAL RD	CONLEY	GA		30288	YES	NO	NO	NO	JACK COVER	7045294207	3272							327390						33.661896	-84.328914	003149457								OLDCASTLE INC	037176591	NO	JACK.COVER@OLDCASTLEAPG.COM	
2007	REGIONAL PRODUCTION MANAGER	NEAL RUTH	30906GRGCRNEWSA	BORAL BRICKS INC AUGUSTA PL ANT 6	1449 DOUG BARNARD PKWY	AUGUSTA	RICHMOND	GA	30906	BORAL BRICKS AUGUSTA PLANT 6	PO BOX 1957	AUGUSTA	GA		30903-1957	YES	NO	NO	NO	PAUL ZIMMERMAN	7068238864	3251							327121						33.435336	-81.982444	003275682								BORAL INDUSTRIES INC	026389254	NO	NA	
2007	REGIONAL PRODUCTION MANAGER	MIKE KUVINKA	30082BRLBR5472O	BORAL BRICKS INC.            ATLANTA PLANT	5472 OAKDALE RD	SMYRNA	COBB	GA	30082	BORAL BRICKS INC.            ATLANTA PLANT	5472 OAKDALE RD	SMYRNA	GA		30082	YES	NO	NO	NO	PAUL ZIMMERMAN	7068495160	3251							327121						33.821654	-84.498146	003275682								BORAL INDUSTRIES INC.	026389254	NO	PAUL.ZIMMERMAN@BORAL.COM	
2006	REGIONAL PRODUCTION MANAGER	LAMAR HUTCHERSON	31208BRLBR71110	BORAL BRICKS INC.            M ACON GA PLANT	711 10TH ST	MACON	BIBB	GA	31208	BORAL BRICKS INC.            M ACON GA PLANT	711 10TH ST	MACON	GA		31208	YES	NO	NO	NO	PAUL ZIMMERMAN	7706454500	3251							327121						32.825335	-83.620927	003275682								BORAL INDUSTRIES INC.	026389254	NO		
2007	REGIONAL PRODUCTION MANAGER	NEAL RUTH	30913MRRYBARTHE	BORAL BRICKS INC.- AUGUSTA PL ANTS 3 4 5	1630 ARTHERN RD	AUGUSTA	RICHMOND	GA	309013072	BORAL BRICKS AUGUSTA 3 4 & 5	PO BOX 1957	AUGUSTA	GA		309031957	YES	NO	NO	NO	PAUL ZIMMERMAN	7068238864	3251							327121						33.458794	-81.963147	003275682								BORAL INDUSTRIES INC.	026389254	NO	PAUL.ZIMMERMAN@BORAL.COM	
1994	PLANT ENGINEER	PRESTON MILES	31206BRDNN4700P	BORDEN INC.	4700 PIO NONO AVE.	MACON	BIBB	GA	31206	BORDEN INC.	4700 PIO NONO AVE.	MACON	GA		31206	YES	NO	NO		PRESTON MILES	9127885733	2026							311510						32.775368	-83.661088	003281300		GAD003281300		GAD003231				BORDEN INC.	001338797	NO		
1987	PRESIDENT	JAMES T. BOYD	30741BRGTX105MA	BORG TEXTILE CORP	105 MAPLE ST	ROSSVILLE	WALKER	GA	30741	BORG TEXTILE CORP	105 MAPLE ST	ROSSVILLE	GA		30741	YES	NO	NO		CLAY THOMPSON	4048661743	2221	2257	2294											34.978066	-85.290483			GAD003336336								NO		
2001	PLANT MANAGER	FRANK MAXFIELD	30501KYSRC1233P	BORGWARNER COOLING SYSTEMS	1233 PALMOUR DR.	GAINESVILLE	HALL	GA	305016859	BORGWARNER COOLING SYSTEMS	1233 PALMOUR DR.	GAINESVILLE	GA		30501-6859	YES	NO	NO		JOHN W. BULLMAN	6783168188	3714							336000						34.271161	-83.825696	785351552		GAD981236284						BORGWARNER AUTOMOTIVE INC.	139469787	NO		
2002	PLANT MANAGER	JOHN R. GARGARO	30701BCKNG129NA	BOSTIK FINDLEY INC	129 NANCE RD NE	CALHOUN	GORDON	GA	30701	BOSTIK FINDLEY INC	11320 WATERTOWN PLANK RD	WAUWATOSA	WI		53226	NO	NO	NO	NO	TOM HOMACK	7709224545	2891							325520						34.562695	-84.937156	006083364	047955583							B0STIK FINDLEY INC	006083364	NO		
2007	PLANT MANAGER	THOMAS WASENDORF	30207BSTKN1500P	BOSTIK INC	1500 PARKER RD	CONYERS	ROCKDALE	GA	30094	BOSTIK INC	1500 PARKER RD	CONYERS	GA		30094	YES	NO	NO	NO	THOMAS WASENDORF	7709224545	2891							325520						33.653315	-84.020423	787932706								BOSTIK, INC.	787932706	NO	TOMMY.WASENDORF@BOSTIK-US.COM	
1998	SITE MANAGER	JOHN GARGARO	30701LCNC NORTH	BOSTIK INC.	N. INDUSTRIAL BLVD.	CALHOUN	GORDON	GA	30701	BOSTIK INC.	P.O. BOX 128	CALHOUN	GA		30703	YES	NO	NO				2891	2841						325520						34.550064	-84.930469	608650164								BOSTIK INC.	608650164	NO		
2005	PLANT MANAGER	MARK WATERS	30207DPNC 1900R	BOSTIK, INC.	1900 ROCKDALE INDUSTRIAL BLVD	CONYERS	ROCKDALE	GA	30012	BOSTIK, INC.	1900 ROCKDALE INDUSTRIAL BLVD	CONYERS	GA		30012	YES	NO	NO	NO			2891							325520						33.675978	-84.050056	006083364								BOSTIK, INC.	006083364	NO		
2007	VICE PRESIDENT, ENVIRONMENTAL AFFAIRS	CHARLES H. HULING	30120BWNST317CO	BOWEN STEAM ELECTRIC GENERATING PLANT	317 COVERED BRIDGE RD	CARTERSVILLE	BARTOW	GA	30120	BOWEN STEAM ELECTRIC GENERATING PLANT	BIN 10221241 RALPH MCGILL BLVD NE	ATLANTA	GA	1	303083374	YES	NO	NO	NO	RONNY JUST	8775382401	4911							221112						34.125278	-84.92055	006924989								SOUTHERN CO	006925341	NO	RDJUST@SOUTHERNCO.COM	
2002	PLANT MANAGER	JEAN PHANEUF	31539MCFBRALMAH	BP AMOCO FABRICS & FIBERS HAZLEHURST MILLS	95 E. JEFFERSON ST.	HAZLEHURST	JEFF DAVIS	GA	31539	BP AMOCO FABRICS & FIBERS HAZLEHURST MILLS	P.O. BOX 836	HAZLEHURST	GA		31539	YES	NO	NO	NO	DOUG MCNEAL	9123756520	2221							313210						31.860846	-82.60281	056656259		GAD046907689		GAG200000				BP AMERICA INC.	039596507	NO		
2007	TERMINAL MANAGER	ROBERT LOFTON	30340MCLDR6430N	BP PRODUCTS NORTH AMERICA INC. DORAVILLE 1 TERMINAL	6430 NEW PEACHTREE RD	DORAVILLE	DEKALB	GA	30340	BP PRODUCTS NORTH AMERICA INC. DORAVILLE 1 TERMINAL	6430 NEW PEACHTREE RD	DORAVILLE	GA		30340	YES	NO	NO	NO	MARIBETH DOBBINS	7043993925	5171							424710						33.911258	-84.266877	081147170								BP AMERICA INC.	039596507	NO	MARIBETH.DOBBINS@BP.COM	
2007	TERMINAL MANAGER	ROBERT LOFTON	30340MCLDR4064W	BP PRODUCTS NORTH AMERICA INC. DORAVILLE 2 TERMINAL	4064 WINTERS CHAPEL RD	DORAVILLE	DEKALB	GA	30340	BP PRODUCTS NORTH AMERICA INC. DORAVILLE 2 TERMINAL	4064 WINTERS CHAPEL RD	DORAVILLE	GA		30340	YES	NO	NO	NO	MARIBETH DOBBINS	7043993925	5171							424710						33.912012	-84.270396	079374260								BP AMERICA INC.	039596507	NO	MARIBETH.DOBBINS@BP.COM	
2006	PRESIDENT	GEORGE GIEGER	30318BRDDC1590H	BRADDOCK METALLURGICAL INC.	1590 HUBER ST NW	ATLANTA	FULTON	GA	30318	BRADDOCK METALLURGICAL INC.	1590 HUBER ST NW	ATLANTA	GA		30318	YES	NO	NO	NO	TIM WATERS	4043556952	3398							332811						33.800736	-84.424676	046533704										NO		
2007	VICE PRESIDENT, ENVIRONMENTAL AFFAIRS	CHARLES H. HULING	31061BRNCHUSHWY	BRANCH STEAM ELECTRIC GENERATING PLANT	1100 MILLEDGEVILLE RD	MILLEDGEVILLE	PUTNAM	GA	31061	BRANCH STEAM ELECTRIC GENERATING PLANT	BIN 10221241 RALPH MCGILL BLVD NE	ATLANTA	GA	1	303083374	YES	NO	NO	NO	RONNY JUST	8775382401	4911							221112						33.195833	-83.297889	006924989								SOUTHERN CO	006925341	NO	RDJUST@SOUTHERNCO.COM	
2007	VICE PRESIDENT OF OPERATIONS	KENNETH W. JONES	30144BYCHM3200M	BRENNTAG MID-SOUTH INC.	3200 MOON STATION RD	KENNESAW	COBB	GA	30144	BRENNTAG MID-SOUTH INC.	1405 HWY 136 W	HENDERSON	KY		42420	YES	NO	NO	NO	DAVID LEIGH	2708301303	5169							424690						34.031185	-84.61619	041167107								BRENNTAG NA		NO	DLEIGH@BRENNTAG.COM	
2007	VICE PRESIDENT OF OPERATIONS	KENNETH W. JONES	30344PBSCH2225L	BRENNTAG MID-SOUTH INC.	2225 LAWERENCE AVE	EAST POINT	FULTON	GA	30344	BRENNTAG MID-SOUTH INC.	1405 HWY 136 W	HENDERSON	KY		42420	YES	NO	NO	NO	DAVID LEIGH	2708301303	5169							424690						33.69	-84.44	041167107								BRENNTAG NA		NO		
2007	VICE PRESIDENT, MANUFACTURING DESIGN	DENNIS FOX	30223BNDGN801GR	BRIDGESTONE BANDAG LLC GRIFFIN PLANT	801 GREENBELT PKWY	GRIFFIN	SPALDING	GA	30223	BRIDGESTONE BANDAG LLC GRIFFIN PLANT	801 GREENBELT PKWY	GRIFFIN	GA		30223	YES	NO	NO	NO	PAUL CROSSER	5632621368	3011							326211						33.233368	-84.240559	005269758								BRIDGESTONE BANDAG LLC	005269758	NO	PCROSSER@BANDAG.COM	
2007	PLANT MANAGER	JAMES SUCHOVSKY	30458BRGGS7251Z	BRIGGS & STRATTON CORP	7251 ZELL MILLER PKWY	STATESBORO	BULLOCH	GA	30458	BRIGGS & STRATTON CORP	7251 ZELL MILLER PKWY	STATESBORO	GA		30458	YES	NO	NO	NO	DON PUCCI	5736863004	3519							333618						32.381802	-81.8468	879171536								BRIGGS & STRATTON CORP	006082531	NO	PUCCI.DON@BASCO.COM	
2007	PLANT MANAGER	LARRY MINGLEDORFF	30253SNPPR535MA	BRIGGS & STRATTON YARD POWER PRODUCTS MCDONOUGH OPERATIONS	535 MACON RD	MC DONOUGH	HENRY	GA	30253	BRIGGS & STRATTON YARD POWER PRODUCTS MCDONOUGH OPERATIONS	535 MACON RD	MC DONOUGH	GA		30253	YES	NO	NO	NO	LORRAINE TIMM	4142565123	3524							333112						33.43721	-84.146381	024409372								BRIGGS & STRATTON CORP	006082531	NO	TIMM.LAURA@BASCO.COM	
1989	OPERATIONS MGR.	DAVID COLLINS	31082CHMCLINDUS	BRITE CO  A & I CHEMICALS INC	INDUSTRIAL DR	SANDERSVILLE	WASHINGTON	GA	31082	BRITE CO  A & I CHEMICALS INC	INDUSTRIAL DR	SANDERSVILLE	GA		31082	YES	NO	NO		DAVID COLLINS	9125521337	2899							325998						32.965636	-82.796762											NO		
2000	PLANT MANAGER	AL TOTH	30458BRKSNHWY30	BRODIE METER CO LLC	19267 HWY 301 N	STATESBORO	BULLOCH	GA	30461	BRODIE METER CO	PO BOX 450	STATESBORO	GA		30458-0450	YES	NO	NO	NO	JOHNNY PARRISH	9124890203	3823							334513						32.483333	-81.733333	131329711		GAD051012541								NO		
2007	VICE-PRESIDENT AND GENERAL MANAGER	DAVID A. MARTINEZ	31521BRNSW14W9T	BRUNSWICK CELLULOSE INC	1400 W 9TH ST	BRUNSWICK	GLYNN	GA	31521	BRUNSWICK CELLULOSE INC	1400 W 9TH ST	BRUNSWICK	GA		31521	YES	NO	NO	NO	RANDAL MORRIS	9122806804	2611							322110						31.1735	-81.522361	002270239								GP CELLULOSE LLC	139638923	NO	RANDAL.MORRIS@GAPAC.COM	
1989	V.P.	A. L. HOBBS	31520BRNSWPERRY	BRUNSWICK WOOD PRESERVING CO., INC.	RTE. 11 BOX 2-K PERRY LN. RD.	BRUNSWICK	GLYNN	GA	31520	BRUNSWICK WOOD PRESERVING CO., INC.	RTE. 11 BOX 2-K PERRY LN. RD.	BRUNSWICK	GA		31520	YES	NO	NO		A. L. HOBBS	9122640440	2491							321114						31.24222	-81.52805	150634640		GAD98124466	GAD981024466					INTERNATIONAL UTILITY SUPPLY INC.	150807774	NO		
1993	V.P. OF OPERATIONS	TIM SINSKEY	30701BRYNSMAULD	BRYAN/GORDON COUNTY FARM CO.	MAULDIN RD.	CALHOUN	GORDON	GA	30701	BRYAN/GORDON COUNTY FARM CO.	P. O. BOX 1267	CALHOUN	GA		30703	YES	NO	NO		CHARLIE KESSLER	7066252275	2011							311611						34.534956	-84.939759	039125570		GAD981222342						SARA LEE CORP.	005213962	NO		
2007	PLANT MANAGER	DAVID HORTON	31408BLDNG1BRAM	BUILDING MATERIALS MANUFACTURING CORP	1 BRAMPTON RD	SAVANNAH	CHATHAM	GA	31408	GAF MATERIALS CORP	PO BOX 7329	SAVANNAH	GA		31418	YES	NO	NO	NO	FRED BRIGHT	9736283507	2952							324122						32.108184	-81.146892									BUILDING MATERIALS CORP OF AMERICA		NO	FBRIGHT@GAF.COM	
1988	PLANT MANAGER	DAVID MUSSELWHITE	30176BLDNGPEQUA	BUILDING TECHNOLOGY CORP	PEQUANOC ST.	TALLAPOOSA	HARALSON	GA	30176	BUILDING TECHNOLOGY CORP	PEQUANOC ST.	TALLAPOOSA	GA		30176	YES	NO	NO		FRANK CHAPMAN	5135735215	3448							332311						33.741667	-85.291667	103550992								BUILDING TECHNOLOGY CORP		NO		
1994	PLANT MGR.	JAMES R. LEE	30752BLLMS300IN	BULL MOOSE TUBE CO.	102 INDL. DR. N.	TRENTON	DADE	GA	30752	BULL MOOSE TUBE CO.	P.O. BOX 219	TRENTON	GA		30752	YES	NO	NO		JAMES R. LEE	7063983900	3317							331210						34.880471	-85.502533	102013687		GAD981226160		GAR000000				CAPARO INC.		NO		
1997	PLANT MGR.	ROBERT D. TOPP	30340BNGFD3582M	BUNGE FOODS GROUP	3582 MCCALL PL. N.E.	ATLANTA	DE KALB	GA	30340	BUNGE FOODS GROUP	3582 MCCALL PL. N.E.	ATLANTA	GA		30340	YES	NO	NO		KENNETH J. HUGHES	7704553603	2023	2045	2087					311510						33.896618	-84.259674	103303522								BUNGE CORP.	006981435	NO		
2001	PLANT MANAGER	TED M. BOATRIGHT, JR.	31082BRGSS525BE	BURGESS PIGMENT COMPANY	525 BECK BLVD	SANDERSVILLE	WASHINGTON	GA	310820349	BURGESS PIGMENT CO	PO BOX 349	SANDERSVILLE	GA		31082-0349	YES	NO	NO	NO	ANDREW W CULLEN	4785522544	3295							327992						32.969513	-82.821978	003274271		GAR000009704								NO		
1997	VICE PRESIDENT/GENERAL MANAGER	ERIC GRIESEMER	30741BRNRS1200C	BURNER SYSTEMS INTERNATIONAL INC	1200 CARLINE RD	ROSSVILLE	CATOOSA	GA	30741	BURNER SYSTEMS INTERNATIONAL INC	3600 CUMMINGS RD	CHATTANOOGA	TN		37419	NO	YES	NO		BRIAN KIRK	4238223600	3499							332999						34.97081	-85.26704	118547074		GAD984302158								NO		
2007	V/P	ADDISON GOOLSBY	30673WLKSW216BU	BURT LUMBER CO	216 BURT LUMBER RD	WASHINGTON	WILKES	GA	30673	BURT LUMBER CO	PO BOX 220	WASHINGTON	GA		30673	YES	NO	NO	NO	ADDISON B. GOOLSBY	7066781531	2491							321114						33.718986	-82.760217											NO	ABG1344@YAHOO.COM	
2007	PRESIDENT	CLAUDIO BURTIN	30120BRTNP100EN	BURTIN POLYMER LABS	100 ENTERPRISE DR	CARTERSVILLE	BARTOW	GA	30120	BURTIN POLYMER LABS	100 ENTERPRISE DR	CARTERSVILLE	GA		30120	YES	NO	NO	NO	MARK BRANDT	7706070755	2821							325211						34.146081	-84.836807	785078689										NO	MARK@BURTINLABS.COM	
1994	V.P. MFG	JAMES C. NEWMAN SR.	30728BSTRBRTE1B	BUSTER BROWN APPAREL INC	24476 HWY 193 HWY 193 W	LA FAYETTE	WALKER	GA	30728	BUSTER BROWN APPAREL INC	24476 HWY 193 HWY 193 W	LA FAYETTE	GA		30728	YES	NO	NO		BRUCE R RICE	6156292531	2330													34.699444	-85.316944	113043160		GAD981237563								NO		
2007	GENERAL PLANTS MANAGER	RAY HORNER	31634BRCKWHIGHW	BWAY PACKAGING	1601 VALDOSTA HWY	HOMERVILLE	CLINCH	GA	31634	P.O. BOX 336	1601 VALDOSTA HWY	HOMERVILLE	GA		31634	YES	NO	NO	NO	RONNIE CASON	9124874141	3411	3412	3479	3499				332431						31.016667	-82.783333	809993520								BWAY CORP	809993520	NO	RONNIE.CASON@BWAYCORP.COM	
2000	PRESIDENT	BILL SPUHLER	30757BYRNSRTE1B	BYRON'S SPAS INC	RT 1 BOX 378A	WILDWOOD	DADE	GA	30757	BYRON'S SPAS INC	RT 1 BOX 378A	WILDWOOD	GA		30757	YES	NO	NO	NO	ANTHONY PITTMAN	7068204040	3089							326199						34.981861	-85.433472	156947954										NO		
2002	VICE PRESIDENT OF MANUFACTURING	WALLY HAMMEL	30720CLLNS1000V	C&A FLOORCOVERINGS INC	1000 VISTA DR	DALTON	WHITFIELD	GA	30721	C&A FLOORCOVERINGS INC	PO BOX 1447	DALTON	GA		30722	YES	NO	NO	NO	HANK MILLSAPS	7062592151	2273							314110						34.799086	-84.951453	015630668		GAR000007286		GAR000235						NO		
2002	VICE PRESIDENT OF MANUFACTURING	WALLY HAMMEL	30720CLLNSROYAL	C&A FLOORCOVERINGS INC	1210 ROYAL DR	DALTON	WHITFIELD	GA	30721	C&A FLOORCOVERINGS INC	PO BOX 1447	DALTON	GA		30721	YES	NO	NO	NO	HANK MILLSAPS	7062592151	2273							314110						34.790812	-84.957674	015630668				GAR000235						NO		
2007			30207CDCHR1835I	C&D TECHNOLOGIES INC	1835 INDUSTRIAL AVE	CONYERS	ROCKDALE	GA	30012	C&D TECHNOLOGIES INC	1835 INDUSTRIAL AVE	CONYERS	GA		30012	YES	NO	NO	NO	WALTER E. KOZLOWSKI	2156192700	3691							335991						33.6761	-84.048817	102031754								C&D TECHNOLOGIES INC	153987490	NO		
2007	EVP - CFO	MARK HAM	30153CGLSF1750R	CAGLE'S FARMS INC	1750 ROME HWY	ROCKMART	POLK	GA	30153	CAGLE'S INC  ATTN: GARY HUBBARD	2000 HILLS AVENUE, NW	ATLANTA	GA		30318	YES	NO	NO	NO	GARY HUBBARD	4043552820	2048							311119						34.013396	-85.045723	033672312								CAGLE'S INC.	003492519	NO	GHUBBARD@CAGLESINC.COM	
2001	LIVE PRODUCTION MGR.	MARK FISHER	30720STRNPHWY41	CAGLE'S FARMS INC.	U.S. HWY. 41 S.	DALTON	WHITFIELD	GA	30722	CAGLE'S FARMS INC.	P.O. BOX 38	DALTON	GA		30722-0038	NO	YES	NO		RAY C. HOLLOWAY	7062782372	2048							311000						34.753528	-84.9692			GAD984303792						CAGLES INC.	069008737	NO		
2007	EVP - CFO	MARK HAM	31823CGLSNPOBOX	CAGLE,S INC PINE MOUNTAIN VALLEY PROCESSING	14075 HWY 116	PINE MOUNTAIN VALLEY	HARRIS	GA	31823	CAGLE'S INC PINE MOUNTAIN VALLEY PROCESSING	PO BOX 130	PINE MOUNTAIN VALLEY	GA		31823	YES	NO	NO	NO	GARY HUBBARD	4043552820	2015							311615						32.796444	-84.815278	067565648								CAGLE'S INC.	003492519	NO	GHUBBARD@CAGLESINC.COM	
1990	PLANT MANAGER	BILL THOMPSON	31730CGLSNPOBOX	CAGLES INC.	360 NEWTON RD.	CAMILLA	MITCHELL	GA	31730	CAGLES INC.	360 NEWTON RD.	CAMILLA	GA		31730	YES	NO	NO		KEN NIX	4043552820	2015							311000						31.232682	-84.217775	056205644								CAGLES INC.	003492519	NO		
1990	PLANT MANAGER	BRAD WILLIAMS	31213CGLSN2125S	CAGLES INC.	2125 7TH ST.	MACON	BIBB	GA	31213	CAGLES INC.	2125 7TH ST.	MACON	GA		31213	YES	NO	NO		KEN NIX	4043552820	2015							311000						32.813645	-83.632283	033772773								CAGLES INC.	003492519	NO		
2007	DIR ENV HEALTH & SAFETY	WILSON FRAZIER	30263BRWNS57EBR	CALDWELL TANKS ALLIANCE LLC - BROAD STREET FACILITY	57 E BROAD ST	NEWNAN	COWETA	GA	30263	CALDWELL TANKS ALLIANCE LLC - BROAD STREET FACILITY	PO BOX 608	NEWNAN	GA		30263	YES	NO	NO	NO	BRIAN S. HOPE	7702533232	3443							332313						33.374018	-84.797462	006375141								CALDWELL TANKS INC.	006375141	NO	BHOPE@CALDWELLTANKS.COM	
2005	V.P. MANUFACTURING	RICHARD D. SUEL	30264BRWNS521LO	CALDWELL TANKS ALLIANCE LLC - LOWER FAYETTEVILLE FACILITY	521 LOWER FAYETTEVILLE RD	NEWNAN	COWETA	GA	30264	CALDWELL TANKS ALLIANCE LLC - LOWER FAYETTEVILLE FACILITY	PO BOX 608	NEWNAN	GA		30264	YES	NO	NO	NO	BRIAN S. HOPE	7702533232	3443							332420						33.36891	-84.774863	006375141								CALDWELL TANKS INC.	006375141	NO		
2006	OWNER	KENNETH PARKER	30701CLHNP1139N	CALHOUN PLASTICS & CHEMICALS	1139 NEWTOWN LOOP NE	CALHOUN	GORDON	GA	30701	CALHOUN PLASTICS & CHEMICALS	1139 NEWTOWN LOOP NE	CALHOUN	GA		30701	YES	NO	NO	NO	DAVID THRELKELD	7066299077	2821							325211						34.525833	-84.886667											NO		
1989	PRESIDENT	DANIEL C. HOUSTON, JR.	31730CMLLW131EA	CAMILLA WOOD PRESERVING CO., INC.	131 E. BENNETT ST.	CAMILLA	MITCHELL	GA	31730	CAMILLA WOOD PRESERVING CO., INC.	131 E. BENNETT ST.	CAMILLA	GA		31730	YES	NO	NO		DANIEL C. HOUSTON JR.	9123360400	2491							321114						31.2225	-84.20333	150984797		GAD981024409		WQIP037				INTERNATIONAL UTILITY SUPPLY INC.	150807774	NO		
2000	PUBLIC  WORKS  ACTING DIRECTOR	TIM  EQUELS	30349CMPCR7520C	CAMP CREEK WPCP	7520 COCHRAN RD.	COLLEGE PARK	FULTON	GA	30349	CAMP CREEK WPCP	7520 COCHRAN RD.	COLLEGE PARK	GA		30349	YES	NO	NO	NO	TIM  EQUELS	4047307442	9511							924110						33.677472	-84.634889	172440018		GAD000865584		GA0025381		N/A		FULTON COUNTY GOVERNMENT	066465071	NO		
1994	VICE PRESIDENT	MARTIN KIRBY	30722CPTLD209RO	CAPITOL ADHESIVES INC	209 ROSEN DR	DALTON	WHITFIELD	GA	30720	CAPITOL ADHESIVES INC	PO BOX 2023	DALTON	GA		30722	YES	NO	NO		LISA VILAND	7062776241	2891							325520						34.797892	-84.964968			GATMP001598								NO		
2007	PLANT MANAGER	CHARLES G. WALL, JR	30001STLLB3100W	CARAUSTAR MILL GROUP INC AUSTE LL BOXBOARD MILLS	3400 JOE JERKINS BLVD	AUSTELL	COBB	GA	301063227	AUSTELL BOXBOARD MILL 2	PO BOX 157	AUSTELL	GA		301680157	YES	NO	NO	NO	HOWARD SINYARD	7709483100	2631							322130						33.816111	-84.640556									CARAUSTAR INDUSTRIES INC	039497029	NO	HSINYARD@CARAUSTAR.COM	
2002	GENERAL MANAGER	BOB PECK	30125JFFRS101PI	CARAUSTAR/CEDARTOWN PAPERBOARD	101 PINE ST.	CEDARTOWN	POLK	GA	30125	CARAUSTAR/CEDARTOWN PAPERBOARD	101 PINE ST.	CEDARTOWN	GA		30125	YES	NO	NO	NO	BOB PECK	7707492972	2631							322130						34.014134	-85.264298	039497029								CARAUSTAR INDUSTRIES INC	039497029	NO		
2007	VICE PRESIDENT MANUFACTURING	RUSSELL HOUSTON	31709CRVLL111MA	CARAVELLE POWERBOATS INC.	111 MATHEWS DR	AMERICUS	SUMTER	GA	31709	CARAVELLE POWERBOATS INC.	P. O. BOX 1899	AMERICUS	GA		31709	YES	NO	NO	NO	RUSSELL HOUSTON	2299241185	3732							336612						32.053285	-84.201597	155214224										NO	RUSTY@CARAVELLEBOATS.COM	
2007	FACILITY SUPERINTENDENT	MATT PEARSON	30501CRGLL949RI	CARGILL GAINESVILLE	862 W RIDGE RD	GAINESVILLE	HALL	GA	30501	CARGILL GAINESVILLE	862 W RIDGE RD	GAINESVILLE	GA		30501	YES	NO	NO	NO	MATT PEARSON	7705314731	2075	2079						311222	311225					34.283905	-83.81429	033909719										NO	MATT_PEARSON@CARGILL.COM	
1990	GENERAL MANAGER	KEVIN BROLSMA	30318CRGLL762MA	CARGILL INC.	762 MARIETTA BLVD. N.W.	ATLANTA	FULTON	GA	30318	CARGILL INC.	100 COTTAGE AVE.	CARPENTERSVILLE	IL		60110	YES	NO	NO		THOMAS SCHIFFER	4043624000	2851							325510						33.775159	-84.426105	006249189		GAD057288144		GA0000361				CARGILL INC.	006249189	NO		
2002	ASST GENERAL SUPERINTENDENT-NORTH AMERICA	JAMES BELL	31742CRGLL715NM	CARGILL PEANUT PRODS.	715 N. MAIN ST.	DAWSON	TERRELL	GA	317420272	CARGILL PEANUT PRODS.	P.O. BOX 272	DAWSON	GA		31742-0272	YES	NO	NO	NO	JAMES BELL	9527426738	2076							311911						31.782493	-84.446628									CARGILL INC.	006249189	NO		
1989	COMPLIANCE MANAGER	VERNON G. ELLIOTT	31498CRBBNHUTCH	CARIBBEAN LUMBER CO. INC.	HUTCHINSON ISLAND	SAVANNAH	CHATHAM	GA	314982687	CARIBBEAN LUMBER CO. INC.	HUTCHINSON ISLAND	SAVANNAH	GA		31498-2687	YES	NO	NO		VERNON G. ELLIOTT	9122343485	2491							321114						32.068056	-81.084167	065347007		GAD065347007						HAWTHORNE LUMBER CO. INC.	001705623	NO		
1992	COMPLIANCE MANAGER	VERNON G ELLIOTT	31322CRBBN6AJGA	CARIBBEAN LUMBER CO. INC.	#6 A J GARCIA RD.	POOLER	CHATHAM	GA	31322	CARIBBEAN LUMBER CO. INC.	P.O. BOX 2687	SAVANNAH	GA		31498-2687	YES	NO	NO		SAME	9127487800	2491							321114						32.101944	-81.226389	065347007		GAD981271539						HAWTHORNE LUMBER CO. INC.	001705623	NO		
2006	GENERAL MANAGER	JAMES F. GARRITY	30108TRNTX500WE	CARLISLE TIRE & WHEEL CO	500 WEDOWEE ST	BOWDON	CARROLL	GA	30108	CARLISLE TIRE & WHEEL CO	PO BOX 309	BOWDON	GA		30108	YES	NO	NO	NO	JAMES  F. GARRITY	7702585551	3011	3089						326211	326199					33.532485	-85.253465	607587037								CARLISLE COS	003005766	NO		
2007	PLANT MANAGER	MR. MATTHEW D. WALKER	30083CRLYT1440R	CARLYLE COMPRESSOR	1440 ROCK MOUNTAIN BLVD	STONE MOUNTAIN	DE KALB	GA	30083	CARLYLE COMPRESSOR	1440 ROCK MOUNTAIN BLVD	STONE MOUNTAIN	GA		30083	YES	NO	NO	NO	SCOTT RAZZINO	7704928312	3585							333415						33.822022	-84.183748									UNITED TECHNOLOGIES CORP	001344142	NO	SCOTT.RAZZINO@CARRIER.UTC.COM	
2007	CEO/PRESIDENT	JOSEPH I. KIRKLAND, III	31503CRLNS3231F	CAROLINA SKIFF LLC	3231 FULFORD RD	WAYCROSS	WARE	GA	31503	CAROLINA SKIFF LLC	3231 FULFORD RD	WAYCROSS	GA		31503	YES	NO	NO	NO	JOSEPH KIRKLAND	9122970547	3732							336612						31.245763	-82.420504	622247824										NO	JOEKIRKLAND@CAROLINASKIFF.COM	
2007	V.P. OPERATIONS	MR. MIKE SKOGLUND	30553CRRYN101JO	CARRY-ON TRAILER CORP	101 JOE HARVEY ST	LAVONIA	FRANKLIN	GA	30553	CARRY-ON TRAILER CORP	101 JOE HARVEY ST	LAVONIA	GA		30553	YES	NO	NO	NO	MR. MIKE SKOGLUND	7063565379	3715							336212						34.423967	-83.105825											NO	MIKE.SKOGLUND@CARRY-ONTRAILER.COM	
1999	HEALTH, SAFETY & ENVIRONMENT MANAGER	C. HENRY COBB	31405CRSNP64ROS	CARSON PRODUCTS COMPANY	64 ROSS RD	SAVANNAH	CHATHAM	GA	31405	CARSON PRODUCTS COMPANY	PO BOX 22309	SAVANNAH	GA		31403	YES	NO	NO		C HENRY COBB	9126513800	2844							325620						32.053732	-81.123175	003293073		GAD003293073		GAR000000						NO		
1988	V.P. PERSONNEL	DAVID J. WEAVER	31516CRTRS106NI	CARTER SOUTH CO.	106 NICHOLS ST.	BLACKSHEAR	PIERCE	GA	31516	CARTER SOUTH CO.	106 NICHOLS ST.	BLACKSHEAR	GA		31516	YES	NO	NO		BOB LIPSCOMB	7178242434	3021							316211						31.301811	-82.237213									CARTER FOOTWEAR INC.		NO		
2007	PLANT MANAGER	LARRY READ	31088CSCDC104IN	CASCADE CORP	104 INDUSTRIAL PARK BLVD	WARNER ROBINS	HOUSTON	GA	31088	CASCADE CORP	104 INDUSTRIAL PARK BLVD	WARNER ROBINS	GA		31088	YES	NO	NO	NO	LARRY READ	4789227173	3537							333924						32.582311	-83.588107	009031378								CASCADE CORP	009031378	NO	NA	
2007	FACILITY MANAGER	DAN SUNDELL	30224CTRPL560RE	CATERPILLAR INC GRIFFIN GEORGIA	560 REHOBOTH RD	GRIFFIN	SPALDING	GA	30224	CATERPILLAR INC GRIFFIN GEORGIA	560 REHOBOTH RD	GRIFFIN	GA		30224	YES	NO	NO	NO	MARY LERSCHEN	7702335838	3519							333618						33.191408	-84.16856	456893155								CATERPILLAR INC	456893155	NO		
2005	FACILITY MANAGER	PAUL J. RIVERA	30241CTRPL1SLWH	CATERPILLAR INC LAGRANGE	100 SL WHITE BLVD	LAGRANGE	TROUP	GA	30241	CATERPILLAR INC LAGRANGE	100 SL WHITE BLVD	LAGRANGE	GA		30241	YES	NO	NO	NO	PAUL RIVERA	7068804301	3531							333120						33.035699	-84.962577	456893155										NO		
2007	OPERATIONS MANAGER	KEVIN HAYES	30577CTRPL203AR	CATERPILLAR SEALS METALCASTING FACILITY	203 ARROWHEAD DR	TOCCOA	STEPHENS	GA	30577	CATERPILLAR SEALS METALCASTING FACILITY	203 ARROWHEAD DR	TOCCOA	GA		30577	YES	NO	NO	NO	KEVIN HAYES	7067794621	3321							332312						34.549722	-83.243889	005070479								CATERPILLAR INC	005070479	NO	HAYES_KEVIN_D@CAT.COM	
2000	GENERAL MGR.	CHARLIE DEMPSEY	31002CVLRNHWY80	CAVALIER INDUSTRIES INC ADRIAN HOMES DIV.	HWY. 80 E.	ADRIAN	JOHNSON	GA	31002	CAVALIER HOMES INC.	P.O. BOX 540	ADDISON	AL		35540-0540	YES	NO	NO	NO			2451							321991						32.538056	-82.58									CAVALIER HOMES INC.	118046796	NO		
2001	GENERAL MANAGER	CHARLIE DEMPSEY	30442BLLCR206MA	CAVALIER INDUSTRIES INC BELLCREST HOMES DIV.	206 MAGNOLIA ST.	MILLEN	JENKINS	GA	30442	BELLCREST HOMES INC.	P.O. BOX 540	ADDISON	AL		35540	NO	NO	NO		ERIC DAVIS	2567479800	2451							321991						32.817222	-81.945556					GAR000000				CAVALIER HOMES INC.	118046796	NO		
2001	DIV. PRESIDENT	MIXON HOBBS	31015HMSTDMIDWA	CAVALIER INDUSTRIES INC HOMESTEAD HOMES DIV.	501 S. MIDWAY RD.	CORDELE	CRISP	GA	31015	CAVALIER HOMES INC.	P.O. BOX 540	ADDISON	AL		35540	YES	NO	NO		ERIC DAVIS	2567479800	2451							321991						31.957436	-83.745914	109264234				GAR000000				CAVALIER HOMES INC.	118046796	NO		
1996	PRES. CHIEF OPERATING OFFICER	MICHAEL RIEGER LESIOW	31706CLLFL1801O	CELLO-FOIL PRODS. INC.	1801 OAKHAVEN DR.	ALBANY	DOUGHERTY	GA	317063229	CELLO-FOIL PRODS. INC.	P.O. BOX 3229	ALBANY	GA		31706-3229	YES	NO	NO		RICH LAVOSKY	9124354777	2754							323111						31.524696	-84.210821	622820199		GAD984310755		GAR000000				CELLO-FOIL PRODS. INC.	006004246	NO		
1988	PLANT MGR.	W.S. COLE	30207CLTXC1917R	CELOTEX CORP.	1917 ROCKDALE INDUSTRIAL BLVD.	CONYERS	ROCKDALE	GA	30207	CELOTEX CORP.	1917 ROCKDALE INDUSTRIAL BLVD.	CONYERS	GA		30207	YES	NO	NO		WILLIAM S. COLE	4049220035	3079							326150						33.676944	-84.050556	005092820								JIM WALTER CORP.	006924310	NO		
2007	PLANT MANAGER	ANTONIO DELUCA	31013STHDW2720H	CEMEX SOUTHEAST LLC	2720 HWY 341 S	CLINCHFIELD	HOUSTON	GA	31013	CEMEX SOUTHEAST LLC	PO BOX 120	CLINCHFIELD	GA		31013	YES	NO	NO	NO	LILLIAN DEPRIMO	8655415506	3241							327310						32.414722	-83.636944	189840945										NO	LILLIANF.DEPRIMO@CEMEX.COM	
2007	OPERATIONS SUPPORT MANAGER	CHARLES DOUGLAS HOULDITCH	31792VRNYP216OA	CENTEK INDUSTRIES INC.	116 PLANTATION OAK DR	THOMASVILLE	THOMAS	GA	31792	CENTEK INDUSTRIES INC.	PO BOX 3028	THOMASVILLE	GA		31799	YES	NO	NO	NO	DOUG HOULDITCH	2292287653	3069							339999						30.860802	-84.004679	004271961								INNOTECH INDUSTRIES INC.		NO	DOUGH@CENTEKINDUSTRIES.COM	
2006	GENERAL MANAGER	LOU MCTALL	30324FLVRC2121F	CENTENNIAL FARMS DAIRY	2121 FAULKNER RD	ATLANTA	FULTON	GA	30324	CENTENNIAL FARMS DAIRY	2121 FAULKNER RD	ATLANTA	GA		30324	YES	NO	NO	NO	FAYE GALBREATH	4043154310	2026							311511						33.811389	-84.365	006999528								THE KROGER CO.	006999528	NO		
2007	PLANT MANAGER	DAVE HADLEY	30116RVNWR140FR	CERRO WIRE & CABLE	140 FRASHIER RD	CARROLLTON	CARROLL	GA	30116	CERRO WIRE & CABLE	140 FRASHIER RD	CARROLLTON	GA		30116	YES	NO	NO	NO	DAVE HADLEY	2567732522	3351							331422	331421					33.619946	-85.019022	868597295										NO	DHADLEY@CERROWIRE.COM	
2007	PLANT MANAGER	RICK HOLT	30279CRTNTRONTH	CERTAINTEED CORP	200 RONTHOR DR	SOCIAL CIRCLE	WALTON	GA	30025	CERTAINTEED CORP	PO BOX 988	SOCIAL CIRCLE	GA		30025	YES	NO	NO	NO	RICK HOLT	7704643343	3089							326199						33.665712	-83.705208	047936398								CERTAINTEED CORP	002358265	NO	RICK.A.HOLT@SAINT-GOBAIN.COM	
2007	PLANT MANAGER	THOMAS WEIGERT	30613CRTNT425AT	CERTAINTEED CORP	425 ATHENA DR	ATHENS	CLARKE	GA	306011618	CERTAINTEED CORP	425 ATHENA DR	ATHENS	GA		30601-1618	YES	NO	NO	NO	KAREN CAWKWELL	6103417428	3296							327993						33.979078	-83.342618	002358265								SAINT-GOBAIN CORP	380024737	NO	KAREN.CAWKELL@SAINT-GOBAIN.COM	
2007	GENERAL MANAGER	SEERLEY LOWERY	31907PRCSN4800C	CESSNA AIRCRAFT CO	4800 CARGO DR	COLUMBUS	MUSCOGEE	GA	31907	CESSNA AIRCRAFT CO	4800 CARGO DR	COLUMBUS	GA		31907	YES	NO	NO	NO	SEERLEY LOWERY	7065692100	3728							336411						32.508777	-84.878166	007233596								TEXTRON INC	001338979	NO		
2007	MAINTENANCE MANAGER	TIM HARRIS	30120LVRBR218IN	CETCO	218 INDUSTRIAL PARK DR	CARTERSVILLE	BARTOW	GA	30121	CETCO	218 INDUSTRIAL PARK DR	CARTERSVILLE	GA		30121	YES	NO	NO	NO	TIM HARRIS	7703877717	2841							313230	327992					34.233333	-84.8	784473183								AMCOL INTERNATIONAL		NO	TIM.HARRIS@CETCO.COM	
1995	V.P. & DIVISION MGR.	RICHARD C. RONQUIST	30603CHMPN600DA	CHAMPION INTERNATIONAL CORP	600 DAIRYPAK RD.	ATHENS	CLARKE	GA	30607	CHAMPION INTERNATIONAL CORP	ONE CHAMPION PLAZA, NA	STAMFORD	CT		06921	YES	NO	NO		FRANK WESTMARK	9049684225	2656							322215						33.977916	-83.392188	001212901		GAD069213486						CHAMPION INTERNATIONAL CORP	001212901	NO		
2007	VICE PRESIDENT FOR MANUFACTURING	EARL BLACKWELL	31639CHPRRINDUS	CHAPARRAL BOATS INC	300 INDUSTRIAL BLVD	NASHVILLE	BERRIEN	GA	31639	CHAPARRAL BOATS INC	PO DRAWER 928	NASHVILLE	GA		316390928	YES	NO	NO	NO	EARL BLACKWELL	2296867481	3732							336612						31.207419	-83.231109	004149951										NO	EBLACKWELL@CHAPARRALBOATS.COM	
1998	PRESIDENT/V. PRESIDENT	RAYMOND KLINE JR/ARLENE PINSTON	30720CHPCS1702K	CHAPCO SOUTH	1702 KIMBERLY PARK DR	DALTON	WHITFIELD	GA	30720	CHICAGO ADHESIVE PRODDUCTS CO	1165 ARBOR DR	ROMEOVILLE	IL		60446	YES	NO	NO				2891							325520						34.800062	-85.000128	005064258										NO		
2007	ENVIRONMENTAL MANAGER	TERESA WEBSTER	30114MVNC I575A	CHART INDUSTRIES INC.	1300 AIRPORT DR	BALL GROUND	CHEROKEE	GA	30107	CHART INDUSTRIES INC.	PO BOX 4310	CANTON	GA		30114	YES	NO	NO	NO	TERESA WEBSTER	7707206777	3443							332420						34.295564	-84.418588	796093458								CHART INDUSTRIES INC	796093458	NO	TERRY.WEBSTER@CHART-IND.COM	
1993	CORPORATE SAFETY MGR.	KENNETH F. FUTCH	31750CHKBV255JA	CHEK BEVERAGE INC.	255 JACKSONVILLE HWY.	FITZGERALD	BEN HILL	GA	31750	CHEK BEVERAGE INC.	255 JACKSONVILLE HWY.	FITZGERALD	GA		31750	YES	NO	NO		MICKEY CLERC	9047835409	2086							312111						31.713056	-83.23	006921902								WINN-DIXIE STORES INC.	066921902	NO		
2007	OWNER	BRYAN PEEPLES	30722CHMTC1904S	CHEM-TECH FINISHERS INC.	1904 S HAMILTON ST	DALTON	WHITFIELD	GA	307222083	CHEM-TECH FINISHERS INC.	1904 S HAMILTON ST	DALTON	GA		30722-2083	YES	NO	NO	NO	BRYAN PEEPLES	7062773778	2273							314110						34.74139	-84.964996	066506163										NO	NA	
2007	HUMAN RESOURCES MANAGER	JIM BOCK	30005CHMNC185BL	CHEMENCE INC	185 BLUEGRASS VALLEY PAKWAY	ALPHARETTA	FULTON	GA	300052222	CHEMENCE INC	185 BLUEGRASS VALLEY PAKWAY	ALPHARETTA	GA		30005-2222	YES	NO	NO	NO	JIM BOCK	7706646624	2891							325520						34.11317	-84.217999	621894633										NO	JBOCK@CHEMENCE-US.COM	
2007	PRESIDENT	LLOYD MAULDIN	30120CHMCLTENNE	CHEMICAL PRODUCTS CORP	102 OLD MILL RD	CARTERSVILLE	BARTOW	GA	301201692	CHEMICAL PRODUCTS CORP	102 OLD MILL RD PO BOX 2470	CARTERSVILLE	GA		301201692	YES	NO	NO	NO	TIMOTHY MC COWN	7703822144	2819							325188						34.146306	-84.782722	003275468										NO	TMCCOWN@CPC-US.COM	
1989	PLANT MANAGER	GLEN M. STARLING	31601CHMCLOLDCL	CHEMICAL SPECIALTIES INC.	OLD CLYATTVILLE RD.	VALDOSTA	LOWNDES	GA	31601	CHEMICAL SPECIALTIES INC.	OLD CLYATTVILLE RD.	VALDOSTA	GA		31601	YES	NO	NO		CHARLES M. DAVIS	7044555181	2819							325188						30.8	-83.2889	042973133		GAD980843155						LAPORTE INC.		NO		
1999	C.O.O.	JIM WILLIAMS	30057CHMST120IN	CHEMSTAR CORP	120 INTERSTATE PKWY # 100	LITHIA SPRINGS	DOUGLAS	GA	30122	CHEMSTAR CORP	120 INTERSTATE PKWY # 100	LITHIA SPRINGS	GA		30122	YES	NO	NO				2841	2842						325611						33.769043	-84.600132	131237546		GAO000019927								NO		
2007	ENVIRONMENTAL & SAFETY MANAGER	BRENT HANSON	31323CHMTLCHEMI	CHEMTALL INC	CHEMICAL PLANT RD	RICEBORO	LIBERTY	GA	31323	CHEMTALL INC	PO BOX 250	RICEBORO	GA		31323	YES	NO	NO	NO	BRENT HANSON	9128848736	2821							325998						31.742778	-81.43305	045569190								SNF HOLDING CO	878930965	NO	BHANSON@SNFHC.COM	
2007	GEN.MGR.	JAMES OWENS	31206CHRKB3250W	CHEROKEE BRICK & TILE CO	3250 WATERVILLE RD	MACON	BIBB	GA	312061246	CHEROKEE BRICK & TILE CO	PO BOX 4567	MACON	GA		312084567	YES	NO	NO	NO	JAMES V. OWENS	4787816800	3251							327121						32.806258	-83.637066	003321916										NO	JIM.OWENS@CHEROKEEBRICK.COM	
1988	2ND V. P.	JERRY J. BLOODWORTH	31033CHRKPPOBOX	CHEROKEE PRODUCTS CO	GA HWY 22 E	GRAY	JONES	GA	31032	CHEROKEE PRODUCTS CO	PO BOX 98	GRAY	GA		31032	YES	NO	NO		JERRY J BLOODWORTH	9129325211	2033							311421						33.038333	-83.401667	003303807				000004235						NO		
2007	TERMINAL MANAGER	D.S. FORBES	30360DRVLL4026W	CHEVRON DORAVILLE TERMINAL	4026 WINTERS CHAPEL RD	DORAVILLE	DEKALB	GA	30360	CHEVRON DORAVILLE TERMINAL	4026 WINTERS CHAPEL RD	DORAVILLE	GA		30360	YES	NO	NO	NO	PETER PRATHER	9258426142	5171							424710						33.911481	-84.270406									CHEVRON USA INC.	009140559	NO		
2004	TERMINAL MANAGER	JOEL HALL	31216MCNTR2476A	CHEVRON MACON TERMINAL	2476 ALLEN RD	MACON	BIBB	GA	31216	CHEVRON MACON TERMINAL	2476 ALLEN RD	MACON	GA		31216	YES	NO	NO	NO	PETER PRATHER	9258426142	5171													32.741163	-83.659936			GAD000616029						CHEVRON USA INC.	009140559	NO		
2006	PRESIDENT	ANDY BOREM	31794CHCKS109JO	CHICKASHA OF GEORGIA	109 JORDAN RD	TIFTON	TIFT	GA	31793	CHICKASHA OF GEORGIA	PO BOX 1927	TIFTON	GA		31793	YES	NO	NO	NO	ANDY BOREM	2293888008	2074							311223						31.423431	-83.522354	874461999										NO		
1991	ENVIRONMENTAL MANAGER	JESSE HINES	30217TRBNSHWY34	CHROMALLOY GAS TURBINE CORP.  TURBINE SUPPORT DIV.	HWY. 34  FRANKLIN INDUSTRIAL PARK	FRANKLIN	HEARD	GA	30217	CHROMALLOY GAS TURBINE CORP.  TURBINE SUPPORT DIV.	30 DART RD.	NEWNAN	GA		30265	YES	NO	NO		JESSE HINES	4042546200	3724							336412						33.285278	-85.095278	095102141		GAD981268808						CHROMALLOY GAS TURBINE CORP.	095102141	NO		
1991	ENVIRONMENTAL MANAGER	JESSE HINES	30241TRBNS1664F	CHROMALLOY GAS TURBINE CORP. TURBINE SUPPORT DIV.	1664 LUKKEN INDUSTRIAL DR. W.	LAGRANGE	TROUP	GA	30241	CHROMALLOY GAS TURBINE CORP. TURBINE SUPPORT DIV.	1664 LUKKEN INDUSTRIAL DR. W.	LAGRANGE	GA		30241	YES	NO	NO		JESSE HINES	4042546200	3471							332813						33.012986	-85.05739	095102141		GAD981270226						CHROMALLOY GAS TURBINE CORP.	095102141	NO		
1993	MANAGER	SCOTT WEINER	30360CBVSN2910A	CIBA-GEIGY CIBA VISION CORP.	2910 AMWILER CT.	ATLANTA	GWINNETT	GA	30360	CIBA-GEIGY CIBA VISION CORP.	2910 AMWILER CT.	ATLANTA	GA		30360	YES	NO	NO		JEFF CALLENDER	4044183656	3851							339115						33.928845	-84.257281	603843632		GAD981268733	GAD037881539					CIBA-GEIGY CORP.	001221845	NO		
2007	GENERAL MANAGER, NUSTAR ASPHALT REFINING, LLC	DANIEL STATILE	31408MCLCMFOUND	CITGO ASPHALT REFINING CO OWNER AS OF 12/31/07	7 FOUNDATION DR	SAVANNAH	CHATHAM	GA	31408	NUSTAR ASPHALT REFINING LLC CURRENT OWNER	P. O. BOX 1881	SAVANNAH	GA		314021881	YES	NO	NO	NO	DANIEL STATILE, GENERAL MANAGER	9129666606	2911							324110						32.101467	-81.138935	003292877								CITGO PETROLEUM CORP	102417268	NO	DANIEL.STATILE@NUSTARENERGY.COM	
2007	PLANT MANAGER	BRENDA RHOADES	30354CTLND3480B	CITGO ATLANTA  LUBRICANTS PLANT	3480 BROWNS MILL RD	ATLANTA	FULTON	GA	30354	CITGO ATLANTA  LUBRICANTS PLANT	3480 BROWNS MILL RD	ATLANTA	GA		30354	YES	NO	NO	NO	TONY PAPP	4045596733	2992							324191						33.66048	-84.384907	069221547								CITGO PETROLEUM	102417268	NO		
1989	SUPERINTENDENT OF WASTEWATER	CLEVE EDENFIELD	30401CTYFSINDUS	CITY OF SWAINSBORO WPCP	INDUSTRIAL WAY	SWAINSBORO	EMANUEL	GA	30401	CITY OF SWAINSBORO WPCP	INDUSTRIAL WAY	SWAINSBORO	GA		30401	YES	NO	NO		CLEVE EDENFIELD	9122376738														32.573444	-82.332278					GA0020346						NO		
1990	WATER PLANT SUPERVISOR	JAMES C. JONES JR.	31799CTYFT411WE	CITY OF THOMASVILLE WATER TREATMENT PLANT	411 W JACKSON ST	THOMASVILLE	THOMAS	GA	31799	CITY OF THOMASVILLE WATER TREATMENT PLANT	PO BOX 1397	THOMASVILLE	GA		31799	YES	NO	NO		TOM BERRY	9122263518	8900													30.873972	-83.98175			GAD000869255		GA0024180						NO		
2005	GENERAL MANAGER	CRAIG ALDERMAN	31792CVSSTPOBOX	CIVES STEEL CO SOUTHERN DIV	102 AIRPORT RD	THOMASVILLE	THOMAS	GA	31757	CIVES STEEL CO	PO BOX 7750	THOMASVILLE	GA		31758	YES	NO	NO	NO			3441							332312						30.897734	-83.892656									CIVES CORP	046545398	NO		
2007	PRESIDENT	R. CLINTON BEELAND, JR.	31601CJBND2114C	CJB INDUSTRIES INC.	2114 CYPRESS ST	VALDOSTA	LOWNDES	GA	31601	CJB INDUSTRIES INC.	PO BOX 1362	VALDOSTA	GA		31603	YES	NO	NO	NO	R. CLINTON BEELAND, JR.	2292930800	2899							325998	325510					30.844591	-83.253901	176569366										NO	CBEELAND@CJBINDUSTRIES.COM	
2001	GENERAL MANAGER	WILLIAM CRAWFORD	30243SPCTR1005P	CLARIANT CORP. MASTERBATCHES DIV.	1005 PROGRESS CIRCLE	LAWRENCEVILLE	GWINNETT	GA	30243	CLARIANT MASTERBATCH DIV.	745 MCCOOLEY ST. ATTN: DOROTHY LEHMAN	MILFORD	DE		19963	YES	NO	NO	NO	BILL CRAWFORD	5088296321	3087							325991						33.996407	-83.959718	624209318		GAD984308312						CLARIANT CORP.	108706425	NO		
2007	PERSONNEL MANAGER	JEFF EDWARDS	30458CLDHW600PA	CLAUDE HOWARD LUMBER CO INC	600 PARK AVE	STATESBORO	BULLOCH	GA	30458	CLAUDE HOWARD LUMBER CO INC	P. O. BOX 1669	STATESBORO	GA		30459	YES	NO	NO	NO	JEFF EDWARDS	9127645407	2421							321113						32.435853	-81.777225	003325768										NO	JEDWARDS96@YAHOO.COM	
2002	ENVIROMENTAL	RICHARD BOURGEOIS	30417CLXTNPOBOX	CLAXTON POULTRY FARMS INC	US HWY 301N	CLAXTON	EVANS	GA	30417	CLAXTON POULTRY FARMS INC	PO BOX 428	CLAXTON	GA		30417	YES	NO	NO	NO	RICHARD BOURGEOIS	9127393181	2015							311615						32.182066	-81.8897			GAD033630526						N W FRIES INC		NO		
2007	GENERAL MANAGER	GARY TAYLOR	31501CLYTN3350I	CLAYTON HOMES WAYCROSS	3350 INDUSTRIAL BLVD	WAYCROSS	WARE	GA	31503	CLAYTON HOMES WAYCROSS	3350 INDUSTRIAL BLVD	WAYCROSS	GA		31503	YES	NO	NO	NO	MARTY BOSTROM	8653803000	2451							321991						31.24	-82.428056	181101072								CMH MANUFACTURING INC.	118119528	NO	MARTY.BOSTROM@CLAYTON.NET	
2007	VP OPERATIONS	BRETT T. KIEFFER	31792CLVRB221LA	CLEAVER BROOKS THOMASVILLE	221 LAW ST	THOMASVILLE	THOMAS	GA	31792	CLEAVER BROOKS THOMASVILLE	221 LAW ST	THOMASVILLE	GA		31792	YES	NO	NO	NO	BILL SICELOFF	2292275300	3443							332410						30.831594	-83.990681	799171582								CLEAVER BROOKS	006083927	NO	BSICELOFF@CLEAVER-BROOKS.COM	
2007	DIRECTOR OF MANUFACTURING	TIM SMITH	30050CLRXC17LAK	CLOROX PRODUCTS MANUFACTURING CO	17 LAKE MIRROR RD	FOREST PARK	CLAYTON	GA	30297	CLOROX PRODUCTS MANUFACTURING CO	17 LAKE MIRROR RD	FOREST PARK	GA		30297	YES	NO	NO	NO	TIM SMITH	4043638300	2842	3085						325612	326160					33.627222	-84.38683	051039402								CLOROX CO	051039402	NO	TIM.SMITH@CLOROX.COM	
1993	OPERATIONS MANAGER	JIM WILLLIAMS	31401CSTLC2500W	CLOWHITE CO	2500 W GWINNETT ST	SAVANNAH	CHATHAM	GA	31401	CLOWHITE CO	PO BOX 456	HAMPTON	GA		30228	YES	NO	NO		LEE ALLEN	4049464216	2842	2841						325612						32.070066	-81.107293	109254961										NO		
2007	VICE PRESIDENT HUMAN RESOURCES	KEVIN ERICKSON	30917CLBCR4152W	CLUB CAR INC	4125 WASHINGTON RD	EVANS	COLUMBIA	GA	30809	CLUB CAR INC	PO BOX 204658	EVANS	GA		30809	YES	NO	NO	NO	JOHN FORRESTER	7062287173	3799							336999						33.537897	-82.129393	088605787								INGERSOLL RAND	001368026	NO		
2007	FACILITY  MANAGER	KEVIN NEENAN	30246WNFGR251HO	CMC REBAR GEORGIA	251  HOSEA RD	LAWRENCEVILLE	GWINNETT	GA	30045	CMC REBAR GEORGIA	PO BOX 368	LAWRENCEVILLE	GA		30046	YES	NO	NO	NO	GLENN SHEALY	8039363792	3441							332312						33.970038	-83.971589	003482999								COMMERCIAL METALS CO	007925845	NO	GLENN.SHEALY@CMC.COM	
2007	FACILITY  MANAGER	QUANG DAM	30336STHMT631LA	CMC REBAR GEORGIA	6031 LAGRANGE BLVD., SW	ATLANTA	FULTON	GA	30336	CMC REBAR GEORGIA	PO BOX 43206	ATLANTA	GA		30336	YES	NO	NO	NO	GLENN SHEALY	8039363792	3441							332312						33.722454	-84.590926	003482999								COMMERCIAL METALS CO	007925845	NO	GLENN.SHEALY@CMC.COM	
2007	PLANT MANAGER	JEFF PIROZZOLI	31021NWHLL325FI	CNH AMERICA LLCDUBLIN	325 FIRETOWER RD	DUBLIN	LAURENS	GA	31021	CNH AMERICA LLCDUBLIN	325 FIRETOWER RD	DUBLIN	GA		31021	YES	NO	NO	NO	TOM WITOM	6308872345	3523							333111						32.509286	-82.948672	001315019								CASE NEW HOLLAND INC.		NO	THOMAS.WITOM@CNH.COM	
1999	ENVIRONMENTAL MANAGER	ROBERT H. ST. JOHN	30253CSTLN122IN	COASTAL UNILUBE INC	122 INDUSTRIAL BLVD	MC DONOUGH	HENRY	GA	30253	COASTAL UNILUBE INC	122 INDUSTRIAL BLVD	MC DONOUGH	GA		30253	YES	NO	NO		ROBERT  ST.JOHN	8707327874	5171							424710						33.414313	-84.159327	070775655								COASTAL CORP	062883079	NO		
1995	V.P. ENGINEERING & ENVIRONMENTAL SVCS.	W. R. STUCKEY	31705CTSCL901CL	COATS & CLARK  ALBANY PLANT	901 CLARK AVE.	ALBANY	DOUGHERTY	GA	31703	COATS & CLARK  ALBANY PLANT	PO BOX 1530	ALBANY	GA		31702	YES	NO	NO		DAVID HALSTEAD	9124326211	2269	2284						313113						31.579996	-84.133957	069007599		GAD003324696						COATS & CLARK INC	001482975	NO		
1998	V. P. ENGINEERING & ENVIRONMENTAL SERVICES	W. R. STUCKEY	30577CTSCLROSEL	COATS AMERICAN TOCCOA PLANT	6212 ROSE LN	TOCCOA	STEPHENS	GA	305771410	COATS AMERICAN LPG PLANT	PO BOX 670	TOCCOA	GA		30577-1410	YES	NO	NO		JERRY SMITH	7068862141	2269	2284						313113						34.546389	-83.30525	001339373		GAD991275470		GA0002038				COATS AMERICAN	001339373	NO		
1998	GEN. MGR.	GEORGINA K. MCELGUNN	30336CCCLS1001G	COCA-COLA CO	1001 GREAT SW PKWY	ATLANTA	FULTON	GA	30336	COCA-COLA CO	1001 GREAT SW PKWY	ATLANTA	GA		30336	YES	NO	NO		RONALD COLEMAN	4046762793	2087							312111						33.733628	-84.570429	120939038		GAD991274960		GAR000000				COCA-COLA CO INC	003296175	NO		
1998	GEN. MGR.	JAMES E. GIULIANI	30354CCCLS3791B	COCA-COLA USA FOUNTAIN ATLANTA SYRUP PLANT	3791 BROWNS MILL RD	ATLANTA	FULTON	GA	303542946	COCA-COLA USA FOUNTAIN ATLANTA SYRUP PLANT	3791 BROWNS MILL RD	ATLANTA	GA		30354-2946	YES	NO	NO		RON COLEMAN	4046762793	2087							333415						33.653725	-84.393155	183502574		GAD000827402		GAR000000				COCA-COLA CO INC	003296175	NO		
