TRIFID	DOCUMENT CONTROL NUMBER	CAS NUMBER	CHEMICAL NAME	CLASSIFICATION	REPORTING YEAR	FACILITY NAME	FACILITY STREET	FACILITY CITY	FACILITY COUNTY	FACILITY STATE	FACILITY ZIP CODE	ENTIRE FACILITY IND	PARTIAL FACILITY IND	FEDERAL FACILITY IND	GOCO FACILITY IND	PRIMARY SIC CODE	SIC CODE 2	SIC CODE 3	SIC CODE 4	SIC CODE 5	SIC CODE 6	NAICS ORIGIN	PRIMARY NAICS CODE	NAICS CODE 2	NAICS CODE 3	NAICS CODE 4	NAICS CODE 5	NAICS CODE 6	LATITUDE	LONGITUDE	DB NR A	DB NR B	RCRA NR A	RCRA NR B	NPDES NR A	NPDES NR B	UIC NR A	UIC NR B	PARENT COMPANY NAME	PARENT COMPANY DB NR	ADDITION INFORMATION - SOURCE REDUCTION	ASSIGNED FED. FACILITY FLAG	PUBLIC CONTACT EMAIL	REVISION CODE 1	REVISION CODE 2	METAL INDICATOR
85707SDDSFINTER	1307205318037	007439921	LEAD	PBT	2007	US AIR FORCE DAVIS-MONTHAN AFB AZ	INTERSECTION OF CRAYCROFT & GOLF LINKS RD	TUCSON	PIMA	AZ	85707	YES	NO	YES	NO								928110						32.164002	-110.838997									U.S. DEPARTMENT OF DEFENSE		RECYCLING OF AMMUNITION AFTER DISCHARGE AT SHOOTING RANGES.	YES				YES	
85707SDDSFINTER	1307205318049	000091203	NAPHTHALENE	TRI	2007	US AIR FORCE DAVIS-MONTHAN AFB AZ	INTERSECTION OF CRAYCROFT & GOLF LINKS RD	TUCSON	PIMA	AZ	85707	YES	NO	YES	NO								928110						32.164002	-110.838997									U.S. DEPARTMENT OF DEFENSE		FUGITIVE EMISSIONS FROM REFUELING CERTAIN AIRCRAFT AS DESIGNATED IN USAF REGULATONS.	YES				NO	
85222HXCLC1214W	1307205772332	007429905	ALUMINUM (FUME OR DUST)	TRI	2007	HEXCEL CORP	1214 W HWY 84	CASA GRANDE	PINAL	AZ	85222	YES	NO	NO	NO								322299						32.879373	-111.770933	003987997								HEXCEL CORP	003987997	ALUMINUM DUST IS GENERATED FROM SAWING OF ALUMINUM HONEYCOMB CORE.  THE ALUMINUM DUST IS COLLECTED FOR RECYCLING.	NO	DAVID.LIMA@HEXCEL.COM			YES	
85222HXCLC1214W	1307205772357	000872504	N-METHYL-2-PYRROLIDONE	TRI	2007	HEXCEL CORP	1214 W HWY 84	CASA GRANDE	PINAL	AZ	85222	YES	NO	NO	NO								322299						32.879373	-111.770933	003987997								HEXCEL CORP	003987997	SOURCE REDUCTION - INCREASED CAPTURE EFFICIENCY IN PROCESSING AREA, THUS SENDING MORE NMP TO THE CONTROL DEVICE FOR DESTRUCTION.  RELEASE INCREASE - CALCULATIONS SHOW AN INCREASE IN ONSITE RELEASE AMOUNT OVER LAST YEAR.  REASON FOR THIS IS REFINEMENT AND ADJUSTMENT OF CALCULATIONAL TECHNIQUE MADE POSSIBLE BY ACTUAL EMISSIONS TESTING THAT WAS CONDUCTED IN 2007.  PREVIOUS YEAR'S ESTIMATES, ALTHOUGH BASED UPON THE BEST INFORMATION AVAILABLE AT THE TIME, UNDERESTIMATED EMISSIONS.	NO	DAVID.LIMA@HEXCEL.COM			NO	
85222HXCLC1214W	1307205772369	000108952	PHENOL	TRI	2007	HEXCEL CORP	1214 W HWY 84	CASA GRANDE	PINAL	AZ	85222	YES	NO	NO	NO								322299						32.879373	-111.770933	003987997								HEXCEL CORP	003987997	EMISSIONS TESTING FOR PHENOL CONDUCTED IN 2007 ENABLED MORE PRECISE QUANTIFICATION OF THE AMOUNT OF PHENOL USED, CONSUMED, AND EMITTED FROM THE PROCESS.  THIS TESTING INDICATED THAT, ALTHOUGH BASED UPON THE BEST INFORMATION AVAILABLE AT THE TIME, PHENOL EMISSIONS WERE SIGNIFICANTLY OVERESTIMATED IN PREVIOUS YEARS.	NO	DAVID.LIMA@HEXCEL.COM			NO	
85222HXCLC1214W	1307205772383	000108883	TOLUENE	TRI	2007	HEXCEL CORP	1214 W HWY 84	CASA GRANDE	PINAL	AZ	85222	YES	NO	NO	NO								322299						32.879373	-111.770933	003987997								HEXCEL CORP	003987997	INSTALLED A PERMANENT TOTAL ENCLOSURE AROUND THE PROCESS TO BETTER CAPTURE PROCESS EMISSIONS, WHICH ARE DESTROYED VIA A REGENERATIVE THERMAL OXIDIZER.	NO	DAVID.LIMA@HEXCEL.COM			NO	
85222HXCLC1214W	1307205772395	001330207	XYLENE (MIXED ISOMERS)	TRI	2007	HEXCEL CORP	1214 W HWY 84	CASA GRANDE	PINAL	AZ	85222	YES	NO	NO	NO								322299						32.879373	-111.770933	003987997								HEXCEL CORP	003987997	INSTALLED PERMANENT TOTAL ENCLOSURES AROUND PROCESS TO BETTER CAPTURE EMISSIONS SO THEY COULD BE DESTROYED VIA A REGENERATIVE THERMAL OXIDIZER.	NO	DAVID.LIMA@HEXCEL.COM			NO	
85034FLPCH3701E	1307205466814	007439921	LEAD	PBT	2007	FLIPCHIP INTERNATIONAL LLC	3701 E UNIVERSITY DR	PHOENIX	MARICOPA	AZ	85034	YES	NO	NO	NO								334413						33.421624	-112.001587	947585394										REF. 8.10.1- EFFORTS TO INCREASE USAGE OF NON-LEADED SOLDER PASTE AND SPHERES CONTINUES.  MUCH OF THIS EFFORT IS CUSTOMER-DRIVEN FOR ROHS-COMPLIANCE.	NO	PAUL.MASON@FLIPCHIP.COM			YES	
85034FLPCH3701E	1307205466826	000872504	N-METHYL-2-PYRROLIDONE	TRI	2007	FLIPCHIP INTERNATIONAL LLC	3701 E UNIVERSITY DR	PHOENIX	MARICOPA	AZ	85034	YES	NO	NO	NO								334413						33.421624	-112.001587	947585394										REDUCTIONS IN N-MP CHEMICALS WERE IMPLEMENTED IN 2006, WITH SUCCESSFUL REPLACEMENT OF ONE CHEMICAL WITH A NON-N-MP CHEMICAL.  THE FINAL STOCK OF THE REPLACED N-MP CHEMICAL WAS IN USE UNTIL FEBRUARY 2007.  OVERALL REDUCTION OF N-MP CHEMICAL USAGE ACCOUNTS FOR THE SIGNIFICANT DECREASES IN REPORTED RELEASES.  IT IS POSSIBLE THAT USAGE OF THESE CHEMICALS MAY BE BELOW THE REPORTING THRESHOLD FOR 2008.	NO	PAUL.MASON@FLIPCHIP.COM			NO	
85034HMLTN17EUN	1307205896931	007439921	LEAD	PBT	2007	HAMILTON SUNDSTRAND	1007 E UNIVERSITY DR	PHOENIX	MARICOPA	AZ	850346513	YES	NO	NO	NO								336411						33.42321	-112.05984	071767334								UNITED TECHNOLOGIES	001344142	WE RECYCLE THE LEAD DROSS IN 2007.	NO	RUDOLPH.DAWSON@HS.UTC.COM			YES	
85040CNTNN3502E	1307206138051	N100	COPPER COMPOUNDS	TRI	2007	SANMINA-SCI CORP PHOENIX DIV	5020 S 36TH ST	PHOENIX	MARICOPA	AZ	85040	YES	NO	NO	NO								334412						33.400595	-112.004051	063274609								SANMINA-SCI CORP	798778395	FACILITY SHUT DOWN IN AUGUST 2007CLEAN-UP ACTIVITIES INCLUDE REMOVAL AND DISPOSAL OF SOIL CONTAMINATED WITH COPPERCLEAN-UP AND CLOSURE WILL CONCLUDE IN 2008.	NO	STEVE.THORNE@SANMINA-SCI.COM			YES	
85040CNTNN3502E	1307206138063	000050000	FORMALDEHYDE	TRI	2007	SANMINA-SCI CORP PHOENIX DIV	5020 S 36TH ST	PHOENIX	MARICOPA	AZ	85040	YES	NO	NO	NO								334412						33.400595	-112.004051	063274609								SANMINA-SCI CORP	798778395	FACILITY SHUT DOWN IN AUGUST 2007	NO	STEVE.THORNE@SANMINA-SCI.COM			NO	
85040CNTNN3502E	1307206138075	007647010	HYDROCHLORIC ACID (1995 AND AFTER "ACID AEROSOLS" ONLY)	TRI	2007	SANMINA-SCI CORP PHOENIX DIV	5020 S 36TH ST	PHOENIX	MARICOPA	AZ	85040	YES	NO	NO	NO								334412						33.400595	-112.004051	063274609								SANMINA-SCI CORP	798778395	FACILITY SHUT DOWN IN AUGUST 2007	NO	STEVE.THORNE@SANMINA-SCI.COM			NO	
85040CNTNN3502E	1307206138087	N420	LEAD COMPOUNDS	PBT	2007	SANMINA-SCI CORP PHOENIX DIV	5020 S 36TH ST	PHOENIX	MARICOPA	AZ	85040	YES	NO	NO	NO								334412						33.400595	-112.004051	063274609								SANMINA-SCI CORP	798778395	FACILITY SHUT DOWN IN AUGUST 2007	NO	STEVE.THORNE@SANMINA-SCI.COM			YES	
85040CNTNN3502E	1307206138099	N511	NITRATE COMPOUNDS	TRI	2007	SANMINA-SCI CORP PHOENIX DIV	5020 S 36TH ST	PHOENIX	MARICOPA	AZ	85040	YES	NO	NO	NO								334412						33.400595	-112.004051	063274609								SANMINA-SCI CORP	798778395	FACILITY SHUT DOWN IN AUGUST 2007	NO	STEVE.THORNE@SANMINA-SCI.COM			NO	
85040CNTNN3502E	1307206138101	007697372	NITRIC ACID	TRI	2007	SANMINA-SCI CORP PHOENIX DIV	5020 S 36TH ST	PHOENIX	MARICOPA	AZ	85040	YES	NO	NO	NO								334412						33.400595	-112.004051	063274609								SANMINA-SCI CORP	798778395	FACILITY SHUT DOWN IN AUGUST 2007	NO	STEVE.THORNE@SANMINA-SCI.COM			NO	
85043NNDST622SO	1307205356759	N420	LEAD COMPOUNDS	PBT	2007	UNION DISTRIBUTING CO INC	622 S 56TH AVE	PHOENIX	MARICOPA	AZ	850434622	YES	NO	NO	NO								424710						33.442613	-112.180625	120247796										PRODUCTION RATIO IS HIGH BECAUSE WE SWITCHED TO ANOTHER BRAND OF RACE GAS THAT DETERMINES LEAD CONTENT DIFFERENTLY. (HIGHER) OUR THROUGH-PUT OF RACE GAS WAS NOT MUCH DIFFERENT THAN LAST YEAR.	NO	MARK@UNIONDISTRIBUTING.COM			YES	
85252MTRLN8201E	1307205210002	007439921	LEAD	PBT	2007	GENERAL DYNAMICS C4 SYSTEMS	8201 E MCDOWELL RD	SCOTTSDALE	MARICOPA	AZ	85257	YES	NO	NO	NO								334220	334210	334290	334418	336419		33.465747	-111.904114	046863929		AZD008399636						GENERAL DYNAMICS CORP	001381284	GDC4 SYSTEMS SCOTTSDALE HAS AN EXTENSION POLLUTION PREVENTION PROGRAM AND THE UPDATED "POLLUTION PREVENTION PROGRAM / SUMMARY SHEET" WILL BE SENT TO ADEQ AND THE ARIZONA EMERGECY RESPONSE COMMISSION WITH THE HARD COPY FORM R SUBMITTAL.	NO				YES	
85706DSTNC5333E	1307205540053	000100425	STYRENE	TRI	2007	DISTINCTIVE MARBLE INC	5333 E DREXEL RD	TUCSON	PIMA	AZ	85706	YES	NO	NO	NO								326191						32.148571	-110.879101	620453894										THIS WILL BE THE LAST REPORT FILED.  THIS FACILITY CEASED ALL OPERATIONS AND CLOSED DECEMBER 21, 2007 THE BUILDING IS BEING SOLD.	NO	NA			NO	
85706LRJTC1255E	1307205421908	000100414	ETHYLBENZENE	TRI	2007	LEARJET INC	1255 E AERO PARK BLVD	TUCSON	PIMA	AZ	85706	YES	NO	NO	NO								336411						32.110678	-110.951186	007234313										FUEL RELATED ISO 14001 WORK INSTRUCTIONS WERE REVIEWED AND UPDATED.	NO	LEO.KNAAPEN@AERO.BOMBARDIER.COM			NO	
85714NNDST4000E	1307205356924	000108883	TOLUENE	TRI	2007	UNION DISTRIBUTING CO INC	4000 E MICHIGAN ST	TUCSON	PIMA	AZ	857146667	YES	NO	NO	NO								424710						32.171417	-110.908078	120247796								UNION DISTRIBUTING CO INC	120247796	2006 SUBMISSION WAS FORM A.   2007 SUBMISSION IS FORM R ONLY DUE TO THROUGHT PUT OF OVER A 1,000,000 IBS.	NO	MARK@UNIONDISTRIBUTING.COM			NO	
85714NNDST4000E	1307205356936	001330207	XYLENE (MIXED ISOMERS)	TRI	2007	UNION DISTRIBUTING CO INC	4000 E MICHIGAN ST	TUCSON	PIMA	AZ	857146667	YES	NO	NO	NO								424710						32.171417	-110.908078	120247796								UNION DISTRIBUTING CO INC	120247796	PRIOR YEARS SUBMISSIONS WERE FORM A.  2007 SUBMISSION IS FORM R, ONLY DUE TO THROUGHPUT OF OVER 1,000,000 IBS. THIS WAS DUE TO AN INCREASE IN XYLENE CONTENT IN THE GASOLINE WE USE.	NO	MARK@UNIONDISTRIBUTING.COM			NO	
86023SNTNLALBRI	1307205888009	007439921	LEAD	PBT	2007	US NATL PARK SERVICE GRAND CANYON NATIONAL PARK	1575 SHUTTLE BUS RD	GRAND CANYON	COCONINO	AZ	86023	YES	NO	YES	NO								924120	712190					36.035	-111.820277									U.S. DEPARTMENT OF THE INTERIOR		NATIONAL PARKS ARE REQUIRED TO PHASE OUT USE OF LEADED AMMUNITION AT ALL OUTDOOR FIRING RANGES BY OCTOBER 1, 2008.  THIS PARK USED 943 LBS OF NON-LEADED (GREEN) AMMUNITION IN RY07.	YES	GRCA_SUPERINTENDENT@NPS.GOV			YES	
86028SNTLP1PARK	1307205889660	007439921	LEAD	PBT	2007	US NATL PARK SERVICE PETRIFIED FOREST NP	1 PARK RD	PETRIFIED FOREST NATL PK	NAVAJO	AZ	86028	YES	NO	YES	NO								924120						0	0									U.S. DEPARTMENT OF THE INTERIOR		NATIONAL PARKS ARE REQUIRED TO PHASE OUT THE USE OF LEADED AMMUNITION AT ALL OUTDOOR FIRING RANGES BY OCTOBER 1, 2008.	YES	PEFO_SUPERINTENDENT@NPS.GOV			YES	
86040SNTLPPBX15	1307205888151	007439921	LEAD	PBT	2007	U.S. NATL PARK SERVICE GLEN CANYON NRA (GRCA)	GLEN CANYON NATIONAL RECREATION AREA	PAGE	COCONINO	AZ	86040	YES	NO	YES	NO								924120						36.921944	-111.476388									U.S. DEPARTMENT OF THE INTERIOR		NATIONAL PARKS ARE REQUIRED TO PHASE OUT THE USE OF LEADED AMMUNITION AT ALL OUTDOOR FIRING RANGES BY OCTOBER 1, 2008.  THIS PARK USED 4 POUNDS OF NON-LEADED (GREEN) AMMUNITION IN RY07.	YES	GLCA_SUPERINTENDENT@NPS.GOV			YES	
86301STRMRRUGER	1307206129544	N090	CHROMIUM COMPOUNDS(EXCEPT CHROMITE ORE MINED IN THE TRANSVAAL REGION)	TRI	2007	STURM RUGER & CO INC	200 RUGER RD	PRESCOTT	YAVAPAI	AZ	863016181	YES	NO	NO	NO								331528	331512	332994				34.64761	-112.433015	001162569								STURM RUGER & CO INC.	001162569	PROCESS FOR FOUNDRY WAS CLOSED MARCH 31, 2007.	NO	MLANG@RUGER.COM			YES	
85281RCKFR546SR	1307205826934	N420	LEAD COMPOUNDS	PBT	2007	ROCKFORD CORP	546 S ROCKFORD DR	TEMPE	MARICOPA	AZ	85281	YES	NO	NO	NO								334310						33.425189	-111.897031	038439477										During 2007, the facility reduced the frequency of lead solder machine operation from 80 hours per week to 40 hours per week.  The facility plans to cease production of lead-containing products by November 1, 2008.	NO	RICH.VASEK@ROCKFORDCORP.COM			YES	
85226SHLND6839W	1307205887641	000067561	METHANOL	TRI	2007	ASHLAND INC - CHANDLER	6839 W CHICAGO ST	CHANDLER	MARICOPA	AZ	85226	YES	NO	NO	NO								424690						33.300322	-111.959565	092671981								ASHLAND INC	005003264	REVISED SUBMISSION DUE TO DATA ENTRY ERRORS.	NO	JEVITAK@ASHLAND.COM	RR5		NO	
