Year,TRI Facility ID,Facility Name,Street Address,City,County,ST,ZIP,Latitude,Longitude,Primary SIC,SIC 2,SIC 3,SIC 4,SIC 5,SIC 6,Primary NAICS,NAICS 2,NAICS 3,NAICS 4,NAICS 5,NAICS 6,Doc_Ctrl_Num,Chemical,CAS #/Compound ID,Clean Air Act Chemical,Classification,Metal,Metal Category,Carcinogen,Form Type,Unit of Measure,5.1 Fugitive Air,5.2 Stack Air,5.3 Water,5.4.1 Underground Class I,5.4.2 Underground Class II-V,5.5.1A RCRA C Landfills,5.5.1B Other Landfills,5.5.2 Land Treatment,5.5.3 Surface Impoundment,5.5.3A RCRA C Surface Impoundment,5.5.3B Other Surface Impoundment,5.5.4 Other Disposal,On-site Release Total,6.1 POTW - Metals and Metal Compounds,6.1 POTW - Non-Metals,6.1 POTW - Total Transfers,6.2 M10,6.2 M41,6.2 M62,6.2 M71,6.2 M81,6.2 M82,6.2 M72,6.2 M63,6.2 M66,6.2 M67,6.2 M64,6.2 M65,6.2 M73,6.2 M79,6.2 M90,6.2 M94,6.2 M99,Off-Site Release Total,6.2 M20,6.2 M24,6.2 M26,6.2 M28,6.2 M93,Off-Site Recycled Total,6.2 M56,6.2 M92,Off-Site Recovery Total,6.2 M40,6.2 M50,6.2 M54,6.2 M61,6.2 M69,6.2 M95,Off-Site Treated Total,Total Releases,8.1 Releases,8.1a On-site Contained Releases,8.1b On-site Other Releases,8.1c Off-site Contained Releases,8.1d Off-site Other Releases,8.2 Energy Recovery On-site,8.3 Energy Recovery Off-site,8.4 Recycling On-Site,8.5 Recycling Off-Site,8.6 Treatment On-site,8.7 Treatement Off-site,Production Waste (8.1 thru 8.7),8.8 One-time Release,8.9 Production Ratio,Parent Company Name,Parent Company DB Number,3/3/2012 v10
1989,46394MCLC 2815I,BP PRODUCTS NORTH AMERICA WHITING,2815 INDIANAPOLIS BLVD,WHITING,LAKE,IN,46394,41.663034,-87.484057,5171,,,,,,324000,,,,,,1389035000773,TOLUENE,000108883,YES,NON-PBT,NO,0,NO,R,Pounds,0,9700,0,0,0,0,0,0,0,0,0,0,9700,0,0,0,0,0,0,0,0,0,0,0,0,0,0,0,0,0,0,0,0,0,0,0,0,0,0,0,0,0,0,0,0,0,0,0,0,0,9700,0,0,0,0,0,0,0,0,0,0,0,0,0,,BP PRODUCTS NORTH AMERICA INC,039596507
1989,47240JMSRVHIWAY,JAMES RIVER II INC.,HWY. 46 WEST,GREENSBURG,DECATUR,IN,47240,39.336259,-85.507271,2821,,,,,,325211,,,,,,1389035046630,CHROMIUM COMPOUNDS(EXCEPT CHROMITE ORE MINED IN THE TRANSVAAL REGION),N090,YES,NON-PBT,YES,1,NO,R,Pounds,0,0,0,0,0,0,0,0,0,0,0,0,0,0,0,0,0,0,0,0,0,0,0,0,0,0,0,0,0,0,0,0,0,0,0,0,0,0,0,0,0,0,0,0,0,0,0,0,0,0,0,0,0,0,0,0,0,0,0,0,0,0,0,0,,JAMES RIVER CORP OF VA,046156626
1989,47274PNTST624BA,HOLM INDUSTRIES INC,624 B AVE. E.,SEYMOUR,JACKSON,IN,47274,38.9349,-85.894583,3089,,,,,,339999,,,,,,1389035046743,COPPER COMPOUNDS,N100,NO,NON-PBT,YES,1,NO,R,Pounds,0,0,250,0,0,0,0,0,0,0,0,0,250,0,0,0,0,0,0,0,0,0,250,0,0,0,0,0,0,0,0,0,0,250,0,0,0,0,0,0,0,0,0,0,0,0,0,0,0,0,500,0,0,0,0,0,0,0,0,0,0,0,0,0,,STANDARD PRODUCTS CO,004183273
1989,46580BSFCROLDRO,FLINT GROUP NA CORP,3025 W OLD RD 30,WARSAW,KOSCIUSKO,IN,46581,41.244,-85.900917,2893,,,,,,325910,,,,,,1389035114899,TOLUENE,000108883,YES,NON-PBT,NO,0,NO,R,Pounds,70000,22000,0,0,0,0,0,0,0,0,0,0,92000,0,0,0,0,0,0,0,0,0,0,0,0,0,0,0,0,0,0,0,0,0,0,0,0,0,0,0,0,0,0,0,4900,0,0,0,0,4900,92000,0,0,0,0,0,0,0,0,0,0,0,0,0,,FLINT GROUP NA CORP,005355854
1989,46580BSFCROLDRO,FLINT GROUP NA CORP,3025 W OLD RD 30,WARSAW,KOSCIUSKO,IN,46581,41.244,-85.900917,2893,,,,,,325910,,,,,,1389035114937,COPPER COMPOUNDS,N100,NO,NON-PBT,YES,1,NO,R,Pounds,0,0,0,0,0,0,0,0,0,0,0,0,0,0,0,0,0,0,0,0,0,0,45,0,0,0,0,0,0,0,0,0,0,45,0,0,0,0,0,0,0,0,0,0,27,0,0,0,0,27,45,0,0,0,0,0,0,0,0,0,0,0,0,0,,FLINT GROUP NA CORP,005355854
1989,47904TRWNC800HE,TRW COMMERCIAL STEERING,800 HEATH ST,LAFAYETTE,TIPPECANOE,IN,47904,40.42884,-86.88831,3714,,,,,,336330,,,,,,1389035139005,TOLUENE,000108883,YES,NON-PBT,NO,0,NO,R,Pounds,3388,7782,0,0,0,0,0,0,0,0,0,0,11170,0,0,0,0,0,0,0,0,0,0,0,0,0,0,0,0,0,0,0,0,0,0,0,0,0,0,0,0,0,0,0,750,0,0,0,0,750,11170,0,0,0,0,0,0,0,0,0,0,0,0,0,,TRW AUTOMOTIVE (US) LLC,004179453
1989,47546JSPRC1180E,F-JASPER 16TH STREET,1180 E 16TH ST,JASPER,DUBOIS,IN,47549,38.40184,-86.923866,2517,,,,,,337129,,,,,,1389030001515,ALUMINUM (FUME OR DUST),007429905,NO,NON-PBT,YES,4,NO,R,Pounds,250,0,0,0,0,0,0,0,0,0,0,0,250,0,0,0,0,0,0,0,0,0,0,0,0,0,0,0,0,0,0,0,0,0,0,0,0,0,0,0,0,0,0,0,0,0,0,0,0,0,250,0,0,0,0,0,0,0,0,0,0,0,0,0,,KIMBALL INTERNATIONAL INC,006365803
1989,47546JSPRC1180E,F-JASPER 16TH STREET,1180 E 16TH ST,JASPER,DUBOIS,IN,47549,38.40184,-86.923866,2517,,,,,,337129,,,,,,1389030001578,VANADIUM (EXCEPT WHEN CONTAINED IN AN ALLOY),007440622,NO,NON-PBT,YES,4,NO,R,Pounds,250,0,0,0,0,0,0,0,0,0,0,0,250,0,0,0,0,0,0,0,0,0,0,0,0,0,0,0,0,0,0,0,0,0,0,0,0,0,0,0,0,0,0,0,0,0,0,0,0,0,250,0,0,0,0,0,0,0,0,0,0,0,0,0,,KIMBALL INTERNATIONAL INC,006365803
1989,47549JSPRC2704N,JASPER CORP,2704 NEWTON ST,JASPER,DUBOIS,IN,47549,38.412366,-86.93791,2517,2511,2531,,,,337129,,,,,,1389030006148,METHYL ETHYL KETONE,000078933,NO,NON-PBT,NO,0,NO,R,Pounds,250,29413,0,0,0,0,0,0,0,0,0,0,29663,0,0,0,0,0,0,0,0,0,0,0,0,0,0,0,0,0,0,0,0,0,0,0,0,0,0,0,0,0,0,0,630,0,0,0,0,630,29663,0,0,0,0,0,0,0,0,0,0,0,0,0,,KIMBALL INTERNATIONAL INC,006365803
1989,47167KMBLLHWY56,KIMBALL OFFICE - SALEM,HWY 56 E 200 KIMBALL BLVD,SALEM,WASHINGTON,IN,47167,38.611534,-86.085589,2521,,,,,,337211,,,,,,1389030006199,METHYL ETHYL KETONE,000078933,NO,NON-PBT,NO,0,NO,R,Pounds,250,35701,0,0,0,0,0,0,0,0,0,0,35951,0,0,0,0,0,0,0,0,0,0,0,0,0,0,0,0,0,0,0,0,0,0,0,0,0,0,0,0,0,0,0,7220,0,0,0,0,7220,35951,0,0,0,0,0,0,0,0,0,0,0,0,0,,KIMBALL INTERNATIONAL INC,006365803
1989,47710KNTPL1528N,KENT PLASTICS INC.,1528 N. FULTON AVE.,EVANSVILLE,VANDERBURGH,IN,477102365,37.992437,-87.580898,3079,,,,,,326199,,,,,,1389035023201,METHYL ETHYL KETONE,000078933,NO,NON-PBT,NO,0,NO,R,Pounds,32000,0,0,0,0,0,0,0,0,0,0,0,32000,0,0,0,0,0,0,0,0,0,0,0,0,0,0,0,0,0,0,0,0,0,0,0,0,0,0,0,0,0,0,0,0,0,0,0,0,0,32000,0,0,0,0,0,0,0,0,0,0,0,0,0,,NA,NA
1989,46825PLSTC8301N,PLASTIC COMPOSITES CO,8301 N CLINTON PARK DR,FORT WAYNE,ALLEN,IN,46825,41.158974,-85.106508,3079,,,,,,326199,,,,,,1389035031665,STYRENE,000100425,YES,NON-PBT,NO,0,YES,R,Pounds,13000,4900,0,0,0,0,0,0,0,0,0,0,17900,0,0,0,0,0,0,0,0,0,0,0,0,0,0,0,0,0,0,0,0,0,0,0,0,0,0,0,0,0,0,0,0,0,0,0,0,0,17900,0,0,0,0,0,0,0,0,0,0,0,0,0,,PLASTIC COMPOSITES CO,164174414
1989,47150SPWNM2049I,SPAWN MATE INC,2049 INDIANA AVE,NEW ALBANY,FLOYD,IN,47150,38.310625,-85.815496,2895,,,,,,325311,,,,,,1389035088297,FORMALDEHYDE,000050000,YES,NON-PBT,NO,0,YES,R,Pounds,0,12000,0,0,0,0,0,0,0,0,0,0,12000,0,0,0,0,0,0,0,0,0,0,0,0,0,0,0,0,0,0,0,0,0,0,0,0,0,0,0,0,0,0,0,0,0,0,0,0,0,12000,0,0,0,0,0,0,0,0,0,0,0,0,0,,MONTEREY MUSHROOMS INC,088595186
1989,46350RMTLSPOBOX,AERO METALS INC,1201 E LINCOLN WAY,LA PORTE,LA PORTE,IN,46350,41.625022,-86.697189,3324,,,,,,331512,,,,,,1389035105081,COPPER COMPOUNDS,N100,NO,NON-PBT,YES,1,NO,R,Pounds,0,0,0,0,0,0,0,0,0,0,0,0,0,0,0,0,0,0,0,0,0,0,0,0,0,0,0,0,0,0,0,0,0,0,0,0,0,0,0,0,0,0,0,0,0,0,0,0,0,0,0,0,0,0,0,0,0,0,0,0,0,0,0,0,,AERO METALS INC,048994131
1989,47960MCGLL705N6,EMERSON POWER TRANSMISSION,705 N 6TH ST,MONTICELLO,WHITE,IN,47960,40.751564,-86.775215,3562,,,,,,332991,,,,,,1389035089895,"1,1,1-TRICHLOROETHANE",000071556,YES,NON-PBT,NO,0,NO,R,Pounds,0,0,0,0,0,0,0,0,0,0,0,0,0,0,0,0,0,0,0,0,0,0,0,0,0,0,0,0,0,0,0,0,0,0,0,0,0,0,0,0,0,0,0,0,16127,0,0,0,0,16127,0,0,0,0,0,0,0,0,0,0,0,0,0,0,,EMERSON ELECTRIC CO,006269633
1989,46323HMMND3100M,HAMMOND GROUP INC - HALSTAB DIV,3100 MICHIGAN ST,HAMMOND,LAKE,IN,46323,41.609969,-87.456397,2819,,,,,,325000,,,,,,1389035146238,"SULFURIC ACID (1994 AND AFTER ""ACID AEROSOLS"" ONLY)",007664939,NO,NON-PBT,NO,0,NO,R,Pounds,0,0,0,0,0,0,0,0,0,0,0,0,0,0,0,0,0,0,0,0,0,0,0,0,0,0,0,0,0,0,0,0,0,0,0,0,0,0,0,0,0,0,0,0,0,0,0,0,0,0,0,0,0,0,0,0,0,0,0,0,0,0,0,0,,HAMMOND GROUP INC,005226790
1989,46952GMCCP2400W,GENERAL MOTORS MANUFACTURING STAMPING MARION METAL CENTER,2400 W SECOND ST,MARION,GRANT,IN,46952,40.55973,-85.69307,3412,,,,,,332439,,,,,,1389030009637,"TOLUENE-2,6-DIISOCYANATE",000091087,NO,NON-PBT,NO,0,YES,R,Pounds,250,250,0,0,0,0,0,0,0,0,0,0,500,0,0,0,0,0,0,0,0,0,0,0,0,0,0,0,0,0,0,0,0,0,0,0,0,0,0,0,0,0,0,0,0,0,0,0,0,0,500,0,0,0,0,0,0,0,0,0,0,0,0,0,,GENERAL MOTORS LLC,831247536
1989,47579HRTGHPOBOX,N.O.F. SANTA CLAUS,1255 W CHRISTMAS BLVD,SANTA CLAUS,SPENCER,IN,47579,38.1252,-86.9039,2517,,,,,,337129,,,,,,1389030007520,TOLUENE,000108883,YES,NON-PBT,NO,0,NO,R,Pounds,250,85054,0,0,0,0,0,0,0,0,0,0,85304,0,0,0,0,0,0,0,0,0,0,0,0,0,0,0,0,0,0,0,0,0,0,0,0,0,0,0,0,0,0,0,4862,0,0,0,0,4862,85304,0,0,0,0,0,0,0,0,0,0,0,0,0,,KIMBALL INTERNATIONAL INC,006365803
1989,47106KMBLLHWY60,KIMBALL OFFICE - BORDEN,555 E WATER ST,BORDEN,CLARK,IN,47106,38.464898,-85.941216,2500,2521,,,,,337211,,,,,,1389030007658,TOLUENE,000108883,YES,NON-PBT,NO,0,NO,R,Pounds,250,41980,0,0,0,0,0,0,0,0,0,0,42230,0,0,0,0,0,0,0,0,0,0,0,0,0,0,0,0,0,0,0,0,0,0,0,0,0,0,0,0,0,0,0,1813,0,0,0,0,1813,42230,0,0,0,0,0,0,0,0,0,0,0,0,0,,KIMBALL INTERNATIONAL INC,006365803
1989,47307HYDRM1200W,MANUAL TRANSMISSIONS OF MUNCIE  LLC,1200 W EIGHTH AVE,MUNCIE,DELAWARE,IN,47302,40.182017,-85.399267,3714,,,,,,336000,,,,,,1389030027888,AMMONIA,007664417,NO,NON-PBT,NO,0,NO,R,Pounds,1700,0,0,0,0,0,0,0,0,0,0,0,1700,0,0,0,0,0,0,0,0,0,0,0,0,0,0,0,0,0,0,0,0,0,0,0,0,0,0,0,0,0,0,0,0,0,0,0,0,0,1700,0,0,0,0,0,0,0,0,0,0,0,0,0,,GENERAL MOTORS CORP,005356613
1989,46774NWHVN1605S,NEW HAVEN WIRE & CABLE INC.,1605 STATE RD. 14 EAST,NEW HAVEN,ALLEN,IN,46774,41.070745,-84.991221,3357,,,,,,336111,,,,,,1389035063039,O-CRESOL,000095487,YES,NON-PBT,NO,0,NO,R,Pounds,0,750,0,0,0,0,0,0,0,0,0,0,750,0,0,0,0,0,0,0,0,0,0,0,0,0,0,0,0,0,0,0,0,0,0,0,0,0,0,0,0,0,0,0,750,0,0,0,0,750,750,0,0,0,0,0,0,0,0,0,0,0,0,0,,NORTHERN IMPERIAL CORP,NA
1989,46563YNGDR25210,DOORCRAFT OF INDIANA,2526 N.W. AVE.,PLYMOUTH,MARSHALL,IN,46563,41.364213,-86.316297,2431,,,,,,321911,,,,,,1389035132125,METHYL ETHYL KETONE,000078933,NO,NON-PBT,NO,0,NO,R,Pounds,0,15300,0,0,0,0,0,0,0,0,0,0,15300,0,0,0,0,0,0,0,0,0,0,0,0,0,0,0,0,0,0,0,0,0,0,0,0,0,0,0,0,0,0,0,0,0,0,0,0,0,15300,0,0,0,0,0,0,0,0,0,0,0,0,0,,JELD-WEN INC,009040288
1989,46737LCLDM550FE,FREMONT WIRE CO.,600 W. SWAGER DR. P.O. BOX 629,FREMONT,STEUBEN,IN,46737,41.723341,-84.929111,3313,,,,,,331112,,,,,,1389035132164,MANGANESE,007439965,YES,NON-PBT,YES,1,NO,R,Pounds,0,0,0,0,0,0,0,0,0,0,0,0,0,0,0,0,0,0,0,0,0,0,0,0,0,0,0,0,0,0,0,0,0,0,0,0,0,0,0,0,0,0,0,0,0,0,0,0,0,0,0,0,0,0,0,0,0,0,0,0,0,0,0,0,,LEGGETT & PLATT INC,007140064
1989,47348M    0304S,3M CO - HARTFORD CITY,0304S   075E,HARTFORD CITY,BLACKFORD,IN,473481536,40.450051,-85.355891,3861,,,,,,322222,,,,,,1389030010957,ACETONE,000067641,NO,NON-PBT,NO,0,NO,R,Pounds,410,1900000,0,0,0,0,0,0,0,0,0,0,1900410,0,0,0,0,0,0,0,0,0,0,0,0,0,0,0,0,0,0,0,0,0,0,0,0,0,0,0,0,0,0,0,140000,0,0,0,0,140000,1900410,0,0,0,0,0,0,0,0,0,0,0,0,0,,3M CO,006173082
1989,47348M    0304S,3M CO - HARTFORD CITY,0304S   075E,HARTFORD CITY,BLACKFORD,IN,473481536,40.450051,-85.355891,3861,,,,,,322222,,,,,,1389030011023,METHYL ETHYL KETONE,000078933,NO,NON-PBT,NO,0,NO,R,Pounds,130,840000,0,0,0,0,0,0,0,0,0,0,840130,0,0,0,0,0,0,0,0,0,0,0,0,0,0,0,0,0,0,0,0,0,0,0,0,0,0,0,0,0,0,0,150000,0,0,0,0,150000,840130,0,0,0,0,0,0,0,0,0,0,0,0,0,,3M CO,006173082
1989,46135MLLRYINDIA,MALLORY SONALERT PRODUCTS INC.,1701 INDIANAPOLIS RD.,GREENCASTLE,PUTNAM,IN,461350489,39.6462,-86.8255,3675,,,,,,334414,,,,,,1389035026158,"HYDROCHLORIC ACID (1995 AND AFTER ""ACID AEROSOLS"" ONLY)",007647010,YES,NON-PBT,NO,0,NO,R,Pounds,250,250,0,0,0,0,0,0,0,0,0,0,500,0,0,0,0,0,0,0,0,0,0,0,0,0,0,0,0,0,0,0,0,0,0,0,0,0,0,0,0,0,0,0,0,0,0,0,0,0,500,0,0,0,0,0,0,0,0,0,0,0,0,0,,NA,NA
1989,46714MRMNMCORNI,ADM ALLIANCE NUTRITION INC,1800 W WESTERN RD,BLUFFTON,WELLS,IN,46714,40.733109,-85.194156,2048,,,,,,311119,,,,,,1389035026350,COPPER COMPOUNDS,N100,NO,NON-PBT,YES,1,NO,R,Pounds,0,0,0,0,0,0,0,0,0,0,0,0,0,0,0,0,0,0,0,0,0,0,0,0,0,0,0,0,0,0,0,0,0,0,0,0,0,0,0,0,0,0,0,0,0,0,0,0,0,0,0,0,0,0,0,0,0,0,0,0,0,0,0,0,,ARCHER DANIELS MIDLAND CO,001307586
1989,47803WBSHP1600H,WABASH PRODUCTS,1600 HULMAN ST,TERRE HAUTE,VIGO,IN,47802,39.44835,-87.39201,2851,,,,,,325510,,,,,,1389035064599,METHYL ETHYL KETONE,000078933,NO,NON-PBT,NO,0,NO,R,Pounds,0,0,0,0,0,0,0,0,0,0,0,0,0,0,0,0,0,0,0,0,0,0,0,0,0,0,0,0,0,0,0,0,0,0,0,0,0,0,0,0,0,0,0,0,0,0,0,0,0,0,0,0,0,0,0,0,0,0,0,0,0,0,0,0,,NA,NA
1989,47167FRRLYBECKS,GKN SINTER METALS,198 S IMPERIAL DR,SALEM,WASHINGTON,IN,47167,38.593056,-86.102778,3714,,,,,,332117,,,,,,1389035108164,COPPER,007440508,NO,NON-PBT,YES,1,NO,R,Pounds,750,0,0,0,0,0,0,0,0,0,0,0,750,0,0,0,0,0,0,0,0,0,9072,0,0,0,0,0,0,0,0,0,0,9072,0,0,0,0,0,0,0,0,0,0,0,0,0,0,0,0,9822,0,0,0,0,0,0,0,0,0,0,0,0,0,,GKN NA INC,NA
1989,47532RSTKRSTHEN,MBCI - FERDINAND OPERATION,614 W 3RD ST,FERDINAND,DUBOIS,IN,47532,38.220277,-86.869166,2434,,,,,,337110,,,,,,1389035116779,ETHYLBENZENE,000100414,YES,NON-PBT,NO,0,NO,R,Pounds,250,10437,0,0,0,0,0,0,0,0,0,0,10687,0,0,0,0,0,0,0,0,0,0,0,0,0,0,0,0,0,0,0,0,0,0,0,0,0,0,0,0,0,0,0,0,0,0,0,0,0,10687,0,0,0,0,0,0,0,0,0,0,0,0,0,,FORTUNE BRANDS INC,001265768
1989,47532RSTKRSTHEN,MBCI - FERDINAND OPERATION,614 W 3RD ST,FERDINAND,DUBOIS,IN,47532,38.220277,-86.869166,2434,,,,,,337110,,,,,,1389035116831,METHYL ETHYL KETONE,000078933,NO,NON-PBT,NO,0,NO,R,Pounds,250,27572,0,0,0,0,0,0,0,0,0,0,27822,0,0,0,0,0,0,0,0,0,0,0,0,0,0,0,0,0,0,0,0,0,0,0,0,0,0,0,0,0,0,0,0,0,0,0,0,0,27822,0,0,0,0,0,0,0,0,0,0,0,0,0,,FORTUNE BRANDS INC,001265768
1989,46406CNSMR5300W,ONE SHOT LLC,5300 W 5TH AVE,GARY,LAKE,IN,464060339,41.60186,-87.40233,2851,,,,,,325510,,,,,,1389035165796,CHROMIUM COMPOUNDS(EXCEPT CHROMITE ORE MINED IN THE TRANSVAAL REGION),N090,YES,NON-PBT,YES,1,NO,R,Pounds,0,0,0,0,0,0,0,0,0,0,0,0,0,0,0,0,0,0,0,0,0,0,0,0,0,0,0,0,0,0,0,0,0,0,0,0,0,0,0,0,0,0,0,0,0,0,0,0,0,0,0,0,0,0,0,0,0,0,0,0,0,0,0,0,,SPRAYLAT CORP,001248723
1989,46733GLDSH2004P,GOLDSHIELD FIBERGLASS INC 43-2,2004 PATTERSON,DECATUR,ADAMS,IN,46733,40.824776,-84.942239,3089,,,,,,326199,,,,,,1389035183831,TOLUENE,000108883,YES,NON-PBT,NO,0,NO,R,Pounds,4100,5300,0,0,0,0,0,0,0,0,0,0,9400,0,0,0,0,0,0,0,0,0,0,0,0,0,0,0,0,0,0,0,0,0,0,0,0,0,0,0,0,0,0,0,0,0,0,0,0,0,9400,0,0,0,0,0,0,0,0,0,0,0,0,0,,AIP,NA
1989,46506HPCPN1345W,HOP-CAP INC,1345 W N ST,BREMEN,MARSHALL,IN,46506,41.447326,-86.161792,3792,,,,,,336214,,,,,,1389035020650,ACETONE,000067641,NO,NON-PBT,NO,0,NO,R,Pounds,34042,0,0,0,0,0,0,0,0,0,0,0,34042,0,0,0,0,0,0,0,0,0,0,0,0,0,0,0,0,0,0,0,0,0,0,0,0,0,0,0,0,0,0,0,0,0,0,0,0,0,34042,0,0,0,0,0,0,0,0,0,0,0,0,0,,NA,NA
1989,47501PRDFREDWAR,PERDUE FARMS WASHINGTON FEED M ILL,1510 W & 450 N,WASHINGTON,DAVIESS,IN,47501,38.67167,-87.18489,2048,,,,,,311119,,,,,,1389035066289,COPPER COMPOUNDS,N100,NO,NON-PBT,YES,1,NO,R,Pounds,0,7,0,0,0,0,0,0,0,0,0,0,7,0,0,0,0,0,0,0,0,0,0,0,0,0,0,0,0,0,0,0,0,0,0,0,0,0,0,0,0,0,0,0,0,0,0,0,0,0,7,0,0,0,0,0,0,0,0,0,0,0,0,0,,PERDUE FARMS INC,782989800
1989,46312NLNDS3210W,ARCELORMITTAL USA LLC,3210 WATLING ST MAIL CODE (8-130),EAST CHICAGO,LAKE,IN,46312,41.651778,-87.462722,3312,3274,,,,,331111,,,,,,1389035124066,"1,2,4-TRIMETHYLBENZENE",000095636,NO,NON-PBT,NO,0,NO,R,Pounds,250,0,0,0,0,0,0,0,0,0,0,0,250,0,0,0,0,0,0,0,0,0,0,0,0,0,0,0,0,0,0,0,0,0,0,0,0,0,0,0,0,0,0,0,0,0,0,0,0,0,250,0,0,0,0,0,0,0,0,0,0,0,0,0,,ARCELORMITTAL USA LLC,107970886
1989,46312NLNDS3210W,ARCELORMITTAL USA LLC,3210 WATLING ST MAIL CODE (8-130),EAST CHICAGO,LAKE,IN,46312,41.651778,-87.462722,3312,3274,,,,,331111,,,,,,1389035124130,QUINOLINE,000091225,YES,NON-PBT,NO,0,NO,R,Pounds,250,0,0,0,0,0,0,0,0,0,0,0,250,0,0,0,0,0,0,0,0,0,0,0,0,0,0,0,0,0,0,0,0,0,0,0,0,0,0,0,0,0,0,0,0,0,0,0,0,0,250,0,0,0,0,0,0,0,0,0,0,0,0,0,,ARCELORMITTAL USA LLC,107970886
1989,46394MCLC 2815I,BP PRODUCTS NORTH AMERICA WHITING,2815 INDIANAPOLIS BLVD,WHITING,LAKE,IN,46394,41.663034,-87.484057,2911,2951,2992,,,,324110,,,,,,1389030012280,LEAD COMPOUNDS,N420,YES,PBT,YES,1,NO,R,Pounds,0,18,0,0,0,0,0,0,660,0,0,0,678,0,0,0,0,0,0,0,0,0,19500,0,0,0,0,0,0,0,0,0,0,19500,0,0,0,0,0,0,0,0,0,0,0,0,0,0,0,0,20178,0,0,0,0,0,0,0,0,0,0,0,0,0,,BP PRODUCTS NORTH AMERICA INC,039596507
1989,46394MCLC 2815I,BP PRODUCTS NORTH AMERICA WHITING,2815 INDIANAPOLIS BLVD,WHITING,LAKE,IN,46394,41.663034,-87.484057,2911,2951,2992,,,,324110,,,,,,1389030012379,TOLUENE,000108883,YES,NON-PBT,NO,0,NO,R,Pounds,560000,21000,2,0,0,0,0,0,250,0,0,440,581692,0,0,0,0,0,0,0,0,0,390,0,0,0,0,0,0,0,0,0,0,390,0,0,0,0,0,0,0,0,0,0,0,0,0,0,0,0,582082,0,0,0,0,0,0,0,0,0,0,0,0,0,,BP PRODUCTS NORTH AMERICA INC,039596507
1989,46947LCNDSUS29B,A RAYMOND TINNERMAN MANUFACTURING INC,800 W COUNTY RD 250 S,LOGANSPORT,CASS,IN,469470660,40.728992,-86.381955,3469,3366,3429,3471,3479,,332813,,,,,,1389035013251,CHROMIUM,007440473,YES,NON-PBT,YES,1,YES,R,Pounds,250,0,0,0,0,0,0,0,0,0,0,0,250,0,0,0,0,0,0,0,0,0,0,0,0,0,0,0,0,0,0,0,0,0,0,0,0,0,0,0,0,0,0,0,0,0,0,0,0,0,250,0,0,0,0,0,0,0,0,0,0,0,0,0,,A RAYMOND TINNERMAN MANUFACTURING INC,098063683
1989,46383KPPRS2852R,ARCH WOOD PROTECTION INC.,2852 RAYSTONE DR,VALPARAISO,PORTER,IN,46383,41.442668,-87.009853,2879,,,,,,325320,,,,,,1389035054687,ARSENIC COMPOUNDS,N020,YES,NON-PBT,YES,1,NO,R,Pounds,0,0,0,0,0,0,0,0,0,0,0,0,0,0,0,0,0,0,0,0,0,0,1575,0,0,0,0,0,0,0,0,0,0,1575,0,0,0,0,0,0,0,0,0,0,0,0,0,0,0,0,1575,0,0,0,0,0,0,0,0,0,0,0,0,0,,ARCH WOOD PROTECTION INC,603577578
1989,46755FLNTW95NOA,FLINT & WALLING INC,95 N OAK ST,KENDALLVILLE,NOBLE,IN,46755,41.444514,-85.262825,3639,,,,,,333911,,,,,,1389035106842,XYLENE (MIXED ISOMERS),001330207,YES,NON-PBT,NO,0,NO,R,Pounds,1200,10700,0,0,0,0,0,0,0,0,0,0,11900,0,0,0,0,0,0,0,0,0,0,0,0,0,0,0,0,0,0,0,0,0,0,0,0,0,0,0,0,0,0,0,0,0,0,0,0,0,11900,0,0,0,0,0,0,0,0,0,0,0,0,0,,MASCO CORP,005146329
1989,47918RDMTREASTP,RADIO MATERIALS CORP.,1090 E. SUMMIT ST.,ATTICA,FOUNTAIN,IN,479180339,40.29426,-87.238319,3675,,,,,,334414,,,,,,1389035095898,BARIUM COMPOUNDS,N040,NO,NON-PBT,YES,3,NO,R,Pounds,0,750,0,0,0,0,0,0,0,0,0,0,750,250,0,250,0,0,0,0,0,0,0,0,0,0,0,0,0,0,0,0,0,0,0,0,0,0,0,0,0,0,0,0,0,0,0,0,0,0,1000,0,0,0,0,0,0,0,0,0,0,0,0,0,,NA,NA
1989,46135HPRTS2200S,CHIYODA-USA,2200 SR 240 E,GREENCASTLE,PUTNAM,IN,46135,39.646068,-86.809576,3499,,,,,,336111,,,,,,1389035136769,"1,1,1-TRICHLOROETHANE",000071556,YES,NON-PBT,NO,0,NO,R,Pounds,0,43914,0,0,0,0,0,0,0,0,0,0,43914,0,0,0,0,0,0,0,0,0,0,0,0,0,0,0,0,0,0,0,0,0,0,0,0,0,0,0,0,0,0,0,0,0,0,0,0,0,43914,0,0,0,0,0,0,0,0,0,0,0,0,0,,CHIYODA MANUFACTURING INC,NA
1989,46516CPLSN435HA,NEWLETT INC D/B/A GEMSTONE,435 HARRISON ST,ELKHART,ELKHART,IN,46516,41.680627,-85.97596,INVA,,,,,,326199,,,,,,1389035136819,STYRENE,000100425,YES,NON-PBT,NO,0,YES,R,Pounds,2845,250,0,0,0,0,0,0,0,0,0,0,3095,0,250,250,0,0,0,0,0,0,0,0,0,0,0,0,0,0,0,0,0,0,0,0,0,0,0,0,0,0,0,0,0,0,0,0,0,0,3095,0,0,0,0,0,0,0,0,0,0,0,0,0,,NA,NA
1989,47903LCLFYEASTM,ALCOA LAFAYETTE OPERATIONS,3131 E MAIN ST,LAFAYETTE,TIPPECANOE,IN,47905,40.395778,-86.859639,3354,3341,,,,,331316,,,,,,1389035171356,LEAD,007439921,YES,PBT,YES,1,YES,R,Pounds,250,250,250,0,0,0,0,0,0,0,0,0,750,0,0,0,0,0,0,0,0,0,250,0,0,0,0,0,0,0,0,0,0,250,0,0,0,0,0,0,0,0,0,0,0,0,0,0,0,0,1000,0,0,0,0,0,0,0,0,0,0,0,0,0,,ALCOA INC,001339472
1989,46320KLDVS3000S,DOVER CHEMICAL HAMMOND WORKS,3000 SHEFFIELD AVE,HAMMOND,LAKE,IN,46327,41.659444,-87.513056,2869,,,,,,325199,,,,,,1389030014296,METHANOL,000067561,YES,NON-PBT,NO,0,NO,R,Pounds,250,750,0,0,0,0,0,0,0,0,0,0,1000,0,20000,20000,0,0,0,0,0,0,0,0,0,0,0,0,0,0,0,0,0,0,0,0,0,0,0,0,0,0,0,0,0,0,0,0,0,0,1000,0,0,0,0,0,0,0,0,0,0,0,0,0,,DOVER CORP,004210563
1989,46158FDRLM451CO,FEDERAL-MOGUL CORP.,451 COUNTY LINE RD.,MOORESVILLE,MORGAN,IN,461580399,39.630278,-86.366667,3365,3366,3471,,,,331524,,,,,,1389035014911,COPPER,007440508,NO,NON-PBT,YES,1,NO,R,Pounds,250,1700,0,0,0,0,0,0,0,0,0,0,1950,250,0,250,0,0,0,0,0,0,250,0,0,0,0,0,0,0,0,0,0,500,0,0,0,0,0,0,0,0,0,250,0,0,0,0,0,0,2700,0,0,0,0,0,0,0,0,0,0,0,0,0,,FEDERAL-MOGUL CORP,006457045
1989,46383PFZRP4901E,CATHAY PIGMENTS USA INC,4901 EVANS AVE,VALPARAISO,PORTER,IN,46383,41.478927,-87.002148,2816,,,,,,325100,,,,,,1389035125640,"SULFURIC ACID (1994 AND AFTER ""ACID AEROSOLS"" ONLY)",007664939,NO,NON-PBT,NO,0,NO,R,Pounds,0,0,0,0,0,0,0,0,0,0,0,0,0,0,0,0,0,0,0,0,0,0,0,0,0,0,0,0,0,0,0,0,0,0,0,0,0,0,0,0,0,0,0,0,0,0,0,0,0,0,0,0,0,0,0,0,0,0,0,0,0,0,0,0,,CATHAY PIGMENTS USA INC,NA
1989,46347MRTSTSTATE,MERIT STEEL CO,STATE RD 8 W,KOUTS,PORTER,IN,46347,41.317528,-87.031972,3315,,,,,,331222,,,,,,1389035087725,"SULFURIC ACID (1994 AND AFTER ""ACID AEROSOLS"" ONLY)",007664939,NO,NON-PBT,NO,0,NO,R,Pounds,0,250,0,0,0,0,0,0,0,0,0,0,250,0,0,0,0,0,0,0,0,0,0,0,0,0,0,0,0,0,0,0,0,0,0,0,0,0,0,0,0,0,0,0,0,0,0,0,0,0,250,0,0,0,0,0,0,0,0,0,0,0,0,0,,LEGGETT & PLATT INC,007140064
1989,46312NLNDS3210W,ARCELORMITTAL USA LLC,3210 WATLING ST MAIL CODE (8-130),EAST CHICAGO,LAKE,IN,46312,41.651778,-87.462722,3312,3274,,,,,331111,,,,,,1389035124282,CHROMIUM COMPOUNDS(EXCEPT CHROMITE ORE MINED IN THE TRANSVAAL REGION),N090,YES,NON-PBT,YES,1,NO,R,Pounds,750,1100,0,0,0,0,1400000,0,0,0,0,0,1401850,0,0,0,0,0,0,0,0,0,25500,0,0,0,0,0,0,0,0,0,0,25500,0,0,0,0,0,0,0,0,0,0,0,0,0,53000,0,53000,1427350,0,0,0,0,0,0,0,0,0,0,0,0,0,,ARCELORMITTAL USA LLC,107970886
1989,46312NLNDS3210W,ARCELORMITTAL USA LLC,3210 WATLING ST MAIL CODE (8-130),EAST CHICAGO,LAKE,IN,46312,41.651778,-87.462722,3312,3274,,,,,331111,,,,,,1389035124344,ANTIMONY,007440360,YES,NON-PBT,YES,1,NO,R,Pounds,0,250,0,0,0,0,3800,0,0,0,0,0,4050,0,0,0,0,0,0,0,0,0,0,0,0,0,0,0,0,0,0,0,0,0,0,0,0,0,0,0,0,0,0,0,0,0,0,0,0,0,4050,0,0,0,0,0,0,0,0,0,0,0,0,0,,ARCELORMITTAL USA LLC,107970886
1989,46241MDNMD5721P,PROLIANCE INTERNATIONAL INC,5712 PROGRESS DR,INDIANAPOLIS,MARION,IN,46241,39.740978,-86.259636,3714,,,,,,336399,,,,,,1389035155062,COPPER,007440508,NO,NON-PBT,YES,1,NO,R,Pounds,3,101,0,0,0,0,0,0,0,0,0,0,104,1,0,1,0,0,0,0,0,0,0,0,0,0,0,0,0,0,0,0,0,0,0,0,0,0,0,0,0,0,0,0,0,0,0,0,0,0,105,0,0,0,0,0,0,0,0,0,0,0,0,0,,PROLIANCE INTERNATIONAL INC,928467166
1989,46041CRSNSSTRT2,DSM NEORESINS INC,3110 W ST RD 28,FRANKFORT,CLINTON,IN,460411877,40.279226,-86.564229,2821,,,,,,325211,,,,,,1389030037485,METHYL METHACRYLATE,000080626,YES,NON-PBT,NO,0,NO,R,Pounds,59,14,0,0,0,0,0,0,0,0,0,0,73,0,9,9,0,0,0,0,0,0,6,0,0,0,0,0,0,0,0,0,0,6,0,0,0,0,0,0,0,0,0,1,0,0,0,0,0,1,79,0,0,0,0,0,0,0,0,0,0,0,0,0,,DSM RESINS BUSINESS GROUP,074726402
1989,47446CRPNT1500W,CARPENTER MANUFACTURING INC,1500 WEST MAIN ST,MITCHELL,LAWRENCE,IN,47446,38.73168,-86.4842,3713,,,,,,336211,,,,,,1389035006055,NICKEL,007440020,YES,NON-PBT,YES,1,YES,R,Pounds,250,250,0,0,0,0,0,0,0,0,0,0,500,0,0,0,0,0,0,0,0,0,250,0,0,0,0,0,0,0,0,0,0,250,0,0,0,0,0,0,0,0,0,0,0,0,0,0,0,0,750,0,0,0,0,0,0,0,0,0,0,0,0,0,,NA,NA
1989,46738STNDY301NT,STANADYNE DISTRIBUTION DIV.,301 N. TAYLOR RD.,GARRETT,DEKALB,IN,46738,41.35259,-85.11658,3714,5074,3079,3449,,,326199,,,,,,1389035038342,TRICHLOROETHYLENE,000079016,YES,NON-PBT,NO,0,YES,R,Pounds,0,14000,0,0,0,0,0,0,0,0,0,0,14000,0,0,0,0,0,0,0,0,0,0,0,0,0,0,0,0,0,0,0,0,0,0,0,0,0,0,0,0,0,0,0,0,0,0,5000,0,5000,14000,0,0,0,0,0,0,0,0,0,0,0,0,0,,STANADYNE AUTOMOTIVE CORP,198547390
1989,47905CTRPL3701S,CATERPILLAR INC,3701 STATE RD 26 E,LAFAYETTE,TIPPECANOE,IN,47905,40.417491,-86.843769,3519,,,,,,333618,,,,,,1389035111451,METHANOL,000067561,YES,NON-PBT,NO,0,NO,R,Pounds,0,0,0,0,0,0,0,0,0,0,0,0,0,0,250,250,0,0,0,0,0,0,0,0,0,0,0,0,0,0,0,0,0,0,0,0,0,0,0,0,0,0,0,0,0,0,0,0,0,0,0,0,0,0,0,0,0,0,0,0,0,0,0,0,,CATERPILLAR INC,005070479
1989,47303NTRFR1200W,GKN AEROSPACE MUNCIE,3901 S DELAWARE DR,MUNCIE,DELAWARE,IN,47302,40.15808,-85.42123,3463,,,,,,332112,,,,,,1389035118342,NICKEL COMPOUNDS,N495,YES,NON-PBT,YES,1,NO,R,Pounds,0,750,0,0,0,0,0,0,0,0,0,0,750,0,0,0,0,0,0,0,0,0,750,0,0,0,0,0,0,0,0,0,0,750,0,0,0,0,0,0,0,0,0,0,0,0,0,0,0,0,1500,0,0,0,0,0,0,0,0,0,0,0,0,0,,GKN PLC,NA
1989,46250BSTLC6161E,STANLEY SECURITY SOLUTIONS - BEST ACCESS SYSTEMS,6161 E 75TH ST,INDIANAPOLIS,MARION,IN,46250,39.890646,-86.061662,3999,,,,,,332510,,,,,,1389035171762,COPPER,007440508,NO,NON-PBT,YES,1,NO,R,Pounds,250,0,0,0,0,0,0,0,0,0,0,0,250,250,0,250,0,0,0,0,0,0,750,0,0,0,0,0,0,0,250,0,0,1000,0,0,0,0,0,0,0,0,0,0,0,0,0,0,0,0,1500,0,0,0,0,0,0,0,0,0,0,0,0,0,,THE STANLEY WORKS,001152461
1989,47250MDSNCSTRD6,MADISON CHEMICAL CO INC,3141 CLIFTY DR,MADISON,JEFFERSON,IN,47250,38.752087,-85.44991,2841,2842,2819,,,,325611,,,,,,1389035028214,"HYDROCHLORIC ACID (1995 AND AFTER ""ACID AEROSOLS"" ONLY)",007647010,YES,NON-PBT,NO,0,NO,R,Pounds,0,0,0,0,0,0,0,0,0,0,0,0,0,0,250,250,0,0,0,0,0,0,0,0,0,0,0,0,0,0,0,0,0,0,0,0,0,0,0,0,0,0,0,0,0,0,0,0,0,0,0,0,0,0,0,0,0,0,0,0,0,0,0,0,,NA,NA
1989,46218BWSSL5902E,BOWES INDUSTRIES INC,5902 E 34TH ST,INDIANAPOLIS,MARION,IN,46218,39.818353,-86.068411,3069,3499,,,,,336000,,,,,,1389035003161,TRICHLOROETHYLENE,000079016,YES,NON-PBT,NO,0,YES,R,Pounds,250,250,0,0,0,0,0,0,0,0,0,250,750,0,0,0,0,0,0,0,0,0,0,0,0,0,0,0,0,0,0,0,0,0,0,0,0,0,0,0,0,0,0,0,0,0,0,0,0,0,750,0,0,0,0,0,0,0,0,0,0,0,0,0,,NA,NA
1989,46706BTRCCRR228,BEATRICE CHEESE INC.,R.R. 2 CR 72 2839,AUBURN,DEKALB,IN,46706,41.264274,-85.11085,2022,,,,,,311513,,,,,,1389035053851,NITRIC ACID,007697372,NO,NON-PBT,NO,0,NO,R,Pounds,0,0,0,0,0,0,0,0,0,0,0,0,0,0,0,0,0,0,0,0,0,0,0,0,0,0,0,0,0,0,0,0,0,0,0,0,0,0,0,0,0,0,0,0,0,0,0,0,0,0,0,0,0,0,0,0,0,0,0,0,0,0,0,0,,BEATRICE CHEESE INC,006431084
1989,47903LNDSG3601S,LANDIS & GYR,3601 SAGAMORE PKY. N.,LAFAYETTE,TIPPECANOE,IN,479041090,40.451722,-86.8805,3699,,,,,,334515,,,,,,1389035160581,"HYDROCHLORIC ACID (1995 AND AFTER ""ACID AEROSOLS"" ONLY)",007647010,YES,NON-PBT,NO,0,NO,R,Pounds,0,0,0,0,0,0,0,0,0,0,0,0,0,0,0,0,0,0,0,0,0,0,0,0,0,0,0,0,0,0,0,0,0,0,0,0,0,0,0,0,0,0,0,0,0,0,0,0,0,0,0,0,0,0,0,0,0,0,0,0,0,0,0,0,,NA,NA
1989,47201CMMNS1900M,CUMMINS ENGINE CO. TECHNICAL CENTER,1900 MCKINLEY AVE.,COLUMBUS,BARTHOLOMEW,IN,47201,39.2002,-85.9039,3519,,,,,,333618,,,,,,1389035174604,"SULFURIC ACID (1994 AND AFTER ""ACID AEROSOLS"" ONLY)",007664939,NO,NON-PBT,NO,0,NO,R,Pounds,0,0,0,0,0,0,0,0,0,0,0,0,0,0,75000,75000,0,0,0,0,0,0,0,0,0,0,0,0,0,0,0,0,0,0,0,0,0,0,0,0,0,0,0,0,0,0,0,0,0,0,0,0,0,0,0,0,0,0,0,0,0,0,0,0,,CUMMINS ENGINE CO INC,006415160
1989,46526FMCRF2506I,FOAMCRAFT INC. GOSHEN BRANCH,2506 INDL. PARK DR.,GOSHEN,ELKHART,IN,46526,41.552987,-85.820405,3086,,,,,,326100,,,,,,1389035192741,"1,1,1-TRICHLOROETHANE",000071556,YES,NON-PBT,NO,0,NO,R,Pounds,0,70470,0,0,0,0,0,0,0,0,0,0,70470,0,0,0,0,0,0,0,0,0,0,0,0,0,0,0,0,0,0,0,0,0,0,0,0,0,0,0,0,0,0,0,0,0,0,0,0,0,70470,0,0,0,0,0,0,0,0,0,0,0,0,0,,FOAMCRAFT INC,006419113
1989,47532MBLNC2130I,MOBEL INC,2130 INDUSTRIAL PARK RD,FERDINAND,DUBOIS,IN,475329470,38.232066,-86.873981,2511,,,,,,337215,,,,,,1389035205552,METHANOL,000067561,YES,NON-PBT,NO,0,NO,R,Pounds,0,12625,0,0,0,0,0,0,0,0,0,0,12625,0,0,0,0,0,0,0,0,0,0,0,0,0,0,0,0,0,0,0,0,0,0,0,0,0,0,0,0,0,0,0,0,0,0,0,0,0,12625,0,0,0,0,0,0,0,0,0,0,0,0,0,,NA,NA
1989,47542STNKMNCHES,STEINKAMP WAREHOUSE INC (DBA SOUTHERN INDIANA TREATING),N CHESTNUT ST,HUNTINGBURG,DUBOIS,IN,47542,38.30467,-86.96089,2491,,,,,,321114,,,,,,1389035012347,ARSENIC COMPOUNDS,N020,YES,NON-PBT,YES,1,NO,R,Pounds,0,0,0,0,0,0,0,0,0,0,0,0,0,0,0,0,0,0,0,0,0,0,0,0,0,0,0,0,0,0,0,0,0,0,0,0,0,0,0,0,0,0,0,0,0,0,0,0,0,0,0,0,0,0,0,0,0,0,0,0,0,0,0,0,,NA,NA
1989,47712BNDLN500NW,BONDLINE ADHESIVES INC,500 N WOODS AVE,EVANSVILLE,VANDERBURGH,IN,47712,37.983073,-87.620439,2891,,,,,,325520,,,,,,1389035004884,XYLENE (MIXED ISOMERS),001330207,YES,NON-PBT,NO,0,NO,R,Pounds,250,250,0,0,0,0,0,0,0,0,0,0,500,0,0,0,0,0,0,0,0,0,0,0,0,0,0,0,0,0,0,0,0,0,0,0,0,0,0,0,0,0,0,0,0,0,0,0,0,0,500,0,0,0,0,0,0,0,0,0,0,0,0,0,,NA,NA
1989,46563BMRKN1955N,BOMARKO INC.,1955 N. OAK RD.,PLYMOUTH,MARSHALL,IN,46563,41.358374,-86.328861,2621,2671,2679,3497,,,326112,,,,,,1389035101738,ACETONE,000067641,NO,NON-PBT,NO,0,NO,R,Pounds,64000,0,0,0,0,0,0,0,0,0,0,0,64000,0,0,0,0,0,0,0,0,0,0,0,0,0,0,0,0,0,0,0,0,0,0,0,0,0,0,0,0,0,0,0,0,0,0,0,0,0,64000,0,0,0,0,0,0,0,0,0,0,0,0,0,,BOMARKO INC,005144019
1989,47131KTCHNPOBOX,KITCHEN KOMPACT,911 E 11TH ST,JEFFERSONVILLE,CLARK,IN,47130,38.285626,-85.73652,2434,,,,,,337110,,,,,,1389035055197,TOLUENE,000108883,YES,NON-PBT,NO,0,NO,R,Pounds,35978,107933,0,0,0,0,0,0,0,0,0,0,143911,0,0,0,0,0,0,0,0,0,0,0,0,0,0,0,0,0,0,0,0,0,0,0,0,0,0,0,0,0,0,0,0,0,0,750,0,750,143911,0,0,0,0,0,0,0,0,0,0,0,0,0,,NA,NA
1989,46947MDNMN600WA,MODINE MANUFACTURING CO,600 WATER ST,LOGANSPORT,CASS,IN,46947,40.76072,-86.37504,3714,,,,,,336350,,,,,,1389035155148,CHROMIUM,007440473,YES,NON-PBT,YES,1,YES,R,Pounds,0,0,0,0,0,0,0,0,0,0,0,0,0,1,0,1,0,0,0,0,0,0,1,0,0,0,0,0,0,0,0,0,0,1,0,0,0,0,0,0,0,0,0,0,0,0,0,0,0,0,2,0,0,0,0,0,0,0,0,0,0,0,0,0,,MODINE MANUFACTURING CO,006092555
1989,46312NTNLP4506W,NATIONAL PROCESSING CO,4506 W CLINE AVE PO BOX 29,EAST CHICAGO,LAKE,IN,46312,41.631444,-87.432804,3399,,,,,,331221,,,,,,1389035128800,"HYDROCHLORIC ACID (1995 AND AFTER ""ACID AEROSOLS"" ONLY)",007647010,YES,NON-PBT,NO,0,NO,R,Pounds,0,250,0,0,0,0,0,0,0,0,0,0,250,0,0,0,0,0,0,0,0,0,0,0,0,0,0,0,0,0,0,0,0,0,0,0,0,0,0,0,0,0,0,0,0,0,0,0,0,0,250,0,0,0,0,0,0,0,0,0,0,0,0,0,,NATIONAL MATERIALS LP,183295195
1989,46580THDLTCORNE,DALTON CORP WARSAW MANUFACTURING FACILITY,1900 E JEFFERSON ST,WARSAW,KOSCIUSKO,IN,46581,41.236185,-85.831503,3321,,,,,,331511,,,,,,1389035072420,"1,1,1-TRICHLOROETHANE",000071556,YES,NON-PBT,NO,0,NO,R,Pounds,741300,0,0,0,0,0,0,0,0,0,0,0,741300,0,0,0,0,0,0,0,0,0,0,0,0,0,0,0,0,0,0,0,0,0,0,0,0,0,0,0,0,0,0,0,0,0,0,0,0,0,741300,0,0,0,0,0,0,0,0,0,0,0,0,0,,DALTON CORP,NA
1989,46580THDLTCORNE,DALTON CORP WARSAW MANUFACTURING FACILITY,1900 E JEFFERSON ST,WARSAW,KOSCIUSKO,IN,46581,41.236185,-85.831503,3321,,,,,,331511,,,,,,1389035072483,MIXTURE,MIXTURE,NO,NON-PBT,NO,0,NO,R,Pounds,0,10800,0,0,0,0,0,0,0,0,0,0,10800,0,0,0,0,0,0,0,0,0,1300,0,0,0,0,0,0,0,0,0,0,1300,0,0,0,0,0,0,0,0,0,0,0,0,0,0,0,0,12100,0,0,0,0,0,0,0,0,0,0,0,0,0,,DALTON CORP,NA
1989,46368CHRMD6640M,CHROME DEPOSIT CORP,6640 MELTON RD,PORTAGE,PORTER,IN,46368,41.598823,-87.158125,3470,,,,,,332813,,,,,,1389035076672,CHROMIUM COMPOUNDS(EXCEPT CHROMITE ORE MINED IN THE TRANSVAAL REGION),N090,YES,NON-PBT,YES,1,NO,R,Pounds,0,250,0,0,0,0,0,0,0,0,0,0,250,250,0,250,0,0,0,0,0,0,4500,0,0,0,0,0,0,0,0,0,0,4500,0,0,0,0,0,0,0,0,0,0,0,0,0,0,0,0,5000,0,0,0,0,0,0,0,0,0,0,0,0,0,,CHROME DEPOSIT CORP,NA
1989,46383RSCHL2503C,URSCHEL LABORATORIES INC,2503 CALUMET AVE,VALPARAISO,PORTER,IN,46383,41.491314,-87.047357,3556,,,,,,333294,,,,,,1389035159351,COPPER,007440508,NO,NON-PBT,YES,1,NO,R,Pounds,250,0,0,0,0,0,0,0,0,0,0,0,250,0,0,0,0,0,0,0,0,0,250,0,0,0,0,0,0,0,0,0,0,250,0,0,0,0,0,0,0,0,0,0,0,0,0,0,0,0,500,0,0,0,0,0,0,0,0,0,0,0,0,0,,NA,NA
1989,46515DRKLN1010N,DURAKOOL INC.,1010 N. MAIN ST.,ELKHART,ELKHART,IN,46514,41.696072,-85.97638,3679,,,,,,335999,,,,,,1389035019672,MERCURY,007439976,YES,PBT,YES,1,NO,R,Pounds,250,0,0,0,0,0,0,0,0,0,0,0,250,0,0,0,0,0,0,0,0,0,0,0,0,0,0,0,0,0,0,0,0,0,0,0,0,0,0,0,0,0,0,0,0,0,0,0,0,0,250,0,0,0,0,0,0,0,0,0,0,0,0,0,,DANA CORP,005040555
1989,46808THVLS202JA,ENGINEERED POLYMER SOLUTIONS INC. (DBA VALSPAR COATINGS),202 JACOBS AVE.,FORT WAYNE,ALLEN,IN,46808,41.094214,-85.143102,2851,,,,,,325510,,,,,,1389030039426,METHYL ETHYL KETONE,000078933,NO,NON-PBT,NO,0,NO,R,Pounds,0,1000,0,0,0,0,0,0,0,0,0,0,1000,0,0,0,0,0,0,0,0,0,0,0,0,0,0,0,0,0,0,0,0,0,0,0,0,0,0,0,0,0,0,0,12000,0,0,1500,0,13500,1000,0,0,0,0,0,0,0,0,0,0,0,0,0,,VALSPAR CORP,115994790
1989,46808THVLS202JA,ENGINEERED POLYMER SOLUTIONS INC. (DBA VALSPAR COATINGS),202 JACOBS AVE.,FORT WAYNE,ALLEN,IN,46808,41.094214,-85.143102,2851,,,,,,325510,,,,,,1389030039453,TOLUENE,000108883,YES,NON-PBT,NO,0,NO,R,Pounds,0,5000,0,0,0,0,0,0,0,0,0,0,5000,0,0,0,0,0,0,0,0,0,0,0,0,0,0,0,0,0,0,0,0,0,0,0,0,0,0,0,0,0,0,0,750,0,0,750,0,1500,5000,0,0,0,0,0,0,0,0,0,0,0,0,0,,VALSPAR CORP,115994790
1989,47546JSPRC126SO,JASPER CABINET CO.,126 S. JACKSON ST.,JASPER,DUBOIS,IN,47546,38.38704,-86.929827,2511,,,,,,337215,,,,,,1389035049319,N-BUTYL ALCOHOL,000071363,NO,NON-PBT,NO,0,NO,R,Pounds,2900,12000,0,0,0,0,0,0,0,0,0,0,14900,0,0,0,0,0,0,0,0,0,0,0,0,0,0,0,0,0,0,0,0,0,0,0,0,0,0,0,0,0,0,0,0,0,0,0,0,0,14900,0,0,0,0,0,0,0,0,0,0,0,0,0,,NA,NA
1989,47201RVNND17THA,COLUMBUS COMPONENTS GROUP,2020 15TH ST,COLUMBUS,BARTHOLOMEW,IN,47201,39.214053,-85.900686,3469,,,,,,332812,,,,,,1389035089301,XYLENE (MIXED ISOMERS),001330207,YES,NON-PBT,NO,0,NO,R,Pounds,1000,18500,0,0,0,0,0,0,0,0,0,0,19500,0,0,0,0,0,0,0,0,0,0,0,0,0,0,0,0,0,0,0,0,0,0,0,0,0,0,0,0,0,0,0,3450,0,0,0,0,3450,19500,0,0,0,0,0,0,0,0,0,0,0,0,0,,NA,NA
1989,47546NWDFF1108E,INWOOD OFFICE FURNITURE INC.,1108 E. 15TH ST.,JASPER,DUBOIS,IN,47546,38.40068,-86.916246,2521,,,,,,337211,,,,,,1389035074020,METHANOL,000067561,YES,NON-PBT,NO,0,NO,R,Pounds,8400,34000,0,0,0,0,0,0,0,0,0,0,42400,0,0,0,0,0,0,0,0,0,0,0,0,0,0,0,0,0,0,0,0,0,0,0,0,0,0,0,0,0,0,0,250,0,0,0,0,250,42400,0,0,0,0,0,0,0,0,0,0,0,0,0,,INWOOD OFFICE FURNITURE,006367684
1989,47546KMBLL340E1,KIMBALL UPHOLSTERED PRODS.  PLANT 2,1710 KIMBALL BLVD.,JASPER,DUBOIS,IN,47549,38.36492,-86.95136,2521,,,,,,337211,,,,,,1389030006391,TOLUENE,000108883,YES,NON-PBT,NO,0,NO,R,Pounds,250,28446,0,0,0,0,0,0,0,0,0,0,28696,0,0,0,0,0,0,0,0,0,0,0,0,0,0,0,0,0,0,0,0,0,0,0,0,0,0,0,0,0,0,0,1660,0,0,0,0,1660,28696,0,0,0,0,0,0,0,0,0,0,0,0,0,,KIMBALL INTERNATIONAL INC,006365803
1989,47374WYNCRINDUS,CARPENTER INDUSTRIES INC,1100 INDUSTRIES RD.,RICHMOND,WAYNE,IN,47374,39.86257,-84.91691,3710,,,,,,336211,,,,,,1389035062633,TOLUENE,000108883,YES,NON-PBT,NO,0,NO,R,Pounds,0,40823,0,0,0,0,0,0,0,0,0,0,40823,0,0,0,0,0,0,0,0,0,0,0,0,0,0,0,0,0,0,0,0,0,0,0,0,0,0,0,0,0,0,0,0,0,0,0,0,0,40823,0,0,0,0,0,0,0,0,0,0,0,0,0,,NA,NA
1989,46360TRPLX1500E,TRIPLEX PLATING CO INC,1555 US 12 E,MICHIGAN CITY,LA PORTE,IN,46360,41.722282,-86.886421,3471,,,,,,332813,,,,,,1389035066986,ZINC (FUME OR DUST),007440666,NO,NON-PBT,YES,4,NO,R,Pounds,0,0,0,0,0,0,0,0,0,0,0,0,0,250,0,250,0,0,0,0,0,0,750,0,0,0,0,0,0,0,0,0,0,750,0,0,0,0,0,0,0,0,0,0,0,0,0,0,0,0,1000,0,0,0,0,0,0,0,0,0,0,0,0,0,,NA,NA
1989,46268DWBRN9550Z,DOWBRANDS LP,9550 ZIONSVILLE RD.,INDIANAPOLIS,MARION,IN,46268,39.924569,-86.259888,2842,,,,,,325612,,,,,,1389035151291,"SULFURIC ACID (1994 AND AFTER ""ACID AEROSOLS"" ONLY)",007664939,NO,NON-PBT,NO,0,NO,R,Pounds,0,0,0,0,0,0,0,0,0,0,0,0,0,0,0,0,0,0,0,0,0,0,0,0,0,0,0,0,0,0,0,0,0,0,0,0,0,0,0,0,0,0,0,0,0,0,0,0,0,0,0,0,0,0,0,0,0,0,0,0,0,0,0,0,,DOW CHEMICAL CO,001381581
1989,46542PRNMLSTATE,LAND O'LAKES PURINA FEED LLC - MILFORD,346 W 1350 N,MILFORD,KOSCIUSKO,IN,46542,41.428685,-85.836799,2048,,,,,,311119,,,,,,1389035169349,MANGANESE COMPOUNDS,N450,YES,NON-PBT,YES,1,NO,R,Pounds,0,0,0,0,0,0,0,0,0,0,0,0,0,0,0,0,0,0,0,0,0,0,250,0,0,0,0,0,0,0,0,0,0,250,0,0,0,0,0,0,0,0,0,0,0,0,0,0,0,0,250,0,0,0,0,0,0,0,0,0,0,0,0,0,,LAND O LAKES INC,006253835
1989,47402STSMC415NO,"ST-SEMICONDUCTORS OF INDIANA, INC.",415 N. COLLEGE AVE.,BLOOMINGTON,MONROE,IN,47402,39.169646,-86.534841,3674,,,,,,334413,,,,,,1389035133418,"1,1,1-TRICHLOROETHANE",000071556,YES,NON-PBT,NO,0,NO,R,Pounds,5100,0,0,0,0,0,0,0,0,0,0,0,5100,0,0,0,0,0,0,0,0,0,0,0,0,0,0,0,0,0,0,0,0,0,0,0,0,0,0,0,0,0,0,0,0,0,0,0,0,0,5100,0,0,0,0,0,0,0,0,0,0,0,0,0,,NA,NA
1989,46203CTZNS2950E,CITIZENS GAS & COKE UTILITY - MANUFACTURING DIVISIONS,2950 PROSPECT ST,INDIANAPOLIS,MARION,IN,46203,39.756139,-86.113278,4925,,,,,,333000,,,,,,1389035141670,"SULFURIC ACID (1994 AND AFTER ""ACID AEROSOLS"" ONLY)",007664939,NO,NON-PBT,NO,0,NO,R,Pounds,0,0,0,0,0,0,0,0,0,0,0,0,0,0,0,0,0,0,0,0,0,0,0,0,0,0,0,0,0,0,0,0,0,0,0,0,0,0,0,0,0,0,0,0,0,0,0,0,0,0,0,0,0,0,0,0,0,0,0,0,0,0,0,0,,NA,NA
1989,47804BFGDR3100N,POLYONE CORP,3100 N 35TH ST,TERRE HAUTE,VIGO,IN,47804,39.505339,-87.367532,3087,,,,,,325991,,,,,,1389035150010,BARIUM COMPOUNDS,N040,NO,NON-PBT,YES,3,NO,R,Pounds,0,0,0,0,0,0,0,0,0,0,0,0,0,0,0,0,0,0,0,0,0,0,0,0,0,0,0,0,0,0,0,0,0,0,0,0,0,0,0,0,0,0,0,0,0,0,0,0,0,0,0,0,0,0,0,0,0,0,0,0,0,0,0,0,,POLYONE CORP,800967705
1989,46404GRGPC2NDPL,GEORGIA-PACIFIC CORP.,2ND PL. & WAITE ST.,GARY,LAKE,IN,46404,41.606103,-87.37601,2621,,,,,,322122,,,,,,1389035222506,CERTAIN GLYCOL ETHERS,N230,YES,NON-PBT,NO,0,NO,R,Pounds,0,0,0,0,0,0,0,0,0,0,0,0,0,0,1340,1340,0,0,0,0,0,0,10,0,0,0,0,0,0,0,0,0,0,10,0,0,0,0,0,0,0,0,0,0,0,0,0,0,0,0,10,0,0,0,0,0,0,0,0,0,0,0,0,0,,GEORGIA-PACIFIC CORP,009020777
1989,47336NDNGL717ES,INDIANA GLASS CO.,717 E ST.,DUNKIRK,JAY,IN,47336,40.37085,-85.197952,INVA,,,,,,327212,,,,,,1389035235276,ALUMINUM OXIDE (FIBROUS FORMS),001344281,NO,NON-PBT,YES,2,NO,R,Pounds,0,7696,38,0,0,0,0,0,0,0,0,0,7734,0,0,0,0,0,0,0,0,0,3829,0,0,0,0,0,0,0,0,0,0,3829,0,0,0,0,0,0,0,0,0,0,0,0,0,0,0,0,11563,0,0,0,0,0,0,0,0,0,0,0,0,0,,LANCASTER COLONY CORP,001928035
1989,46383MCGLL909NO,MCGILL MANUFACTURING CO. INC.,909 N. LAFAYETTE ST.,VALPARAISO,PORTER,IN,46383,41.475799,-87.06227,3562,,,,,,332991,,,,,,1389035083690,MANGANESE COMPOUNDS,N450,YES,NON-PBT,YES,1,NO,R,Pounds,0,0,0,0,0,0,0,0,0,0,0,0,0,0,0,0,0,0,0,0,0,0,594,0,0,0,0,0,0,0,0,0,0,594,0,0,0,0,0,0,0,0,0,0,0,0,0,0,0,0,594,0,0,0,0,0,0,0,0,0,0,0,0,0,,EMERSON ELECTRIC CO,006269633
1989,47362CMMRC2600T,NEW CASTLE WALLCOVERING LLC,2600 TROY AVE,NEW CASTLE,HENRY,IN,47362,39.909963,-85.347624,2649,,,,,,313320,,,,,,1389035088018,METHYL ETHYL KETONE,000078933,NO,NON-PBT,NO,0,NO,R,Pounds,203000,368000,0,0,0,0,0,0,0,0,0,0,571000,0,0,0,0,0,0,0,0,0,2100,0,0,0,0,0,0,0,0,0,0,2100,0,0,0,0,0,0,0,0,0,0,26293,0,0,0,0,26293,573100,0,0,0,0,0,0,0,0,0,0,0,0,0,,LAMINATING SERVICES INC,NA
1989,47201RVNNR601SO,FAURECIA EMISSION CONTROL TECHNOLOGIES,601 S GLADSTONE AVE,COLUMBUS,BARTHOLOMEW,IN,47201,39.191394,-85.894561,3714,,,,,,336399,,,,,,1389035089440,MANGANESE,007439965,YES,NON-PBT,YES,1,NO,R,Pounds,250,0,0,0,0,0,0,0,0,0,0,0,250,0,0,0,0,0,0,0,0,0,0,0,0,0,0,0,0,0,0,0,0,0,0,0,0,0,0,0,0,0,0,0,0,0,0,0,0,0,250,0,0,0,0,0,0,0,0,0,0,0,0,0,,FAURECIA,800770195
1989,46733THNDR2200W,THUNDERBIRD PRODUCTS,2200 W MONROE ST,DECATUR,ADAMS,IN,46733,40.827235,-84.950482,3732,,,,,,336612,,,,,,1389035176419,DICHLOROMETHANE,000075092,YES,NON-PBT,NO,0,YES,R,Pounds,0,25,0,0,0,0,0,0,0,0,0,0,25,0,0,0,0,0,0,0,0,0,0,0,0,0,0,0,0,0,0,0,0,0,0,0,0,0,0,0,0,0,0,0,49,0,0,0,0,49,25,0,0,0,0,0,0,0,0,0,0,0,0,0,,PORTER INC,NA
1989,46563YNGDR25210,DOORCRAFT OF INDIANA,2526 N.W. AVE.,PLYMOUTH,MARSHALL,IN,46563,41.364213,-86.316297,2431,,,,,,321911,,,,,,1389035132099,METHANOL,000067561,YES,NON-PBT,NO,0,NO,R,Pounds,0,11800,0,0,0,0,0,0,0,0,0,0,11800,0,0,0,0,0,0,0,0,0,0,0,0,0,0,0,0,0,0,0,0,0,0,0,0,0,0,0,0,0,0,0,0,0,0,0,0,0,11800,0,0,0,0,0,0,0,0,0,0,0,0,0,,JELD-WEN INC,009040288
1989,47711NDNND817MA,INDIAN INDUSTRIES INC (DBA ESCALADE SPORTS),817 MAXWELL AVE.,EVANSVILLE,VANDERBURGH,IN,47711,37.99387,-87.551603,3949,,,,,,339920,,,,,,1389035150162,METHYL ISOBUTYL KETONE,000108101,YES,NON-PBT,NO,0,NO,R,Pounds,250,15500,0,0,0,0,0,0,0,0,0,0,15750,0,0,0,0,0,0,0,0,0,0,0,0,0,0,0,0,0,0,0,0,0,0,0,0,0,0,0,0,0,0,0,0,0,0,0,0,0,15750,0,0,0,0,0,0,0,0,0,0,0,0,0,,ESCALADE INC,058312877
1989,47150BLGRS895IN,BLUE GRASS CHEMICAL SPECIALTIE S LLC,895 INDUSTRIAL BLVD,NEW ALBANY,FLOYD,IN,47150,38.336597,-85.827265,2899,,,,,,325998,,,,,,1389035166887,XYLENE (MIXED ISOMERS),001330207,YES,NON-PBT,NO,0,NO,R,Pounds,0,0,0,0,0,0,0,0,0,0,0,0,0,0,0,0,0,0,0,0,0,0,0,0,0,0,0,0,0,0,0,0,0,0,0,0,0,0,0,0,0,0,0,0,0,0,0,0,0,0,0,0,0,0,0,0,0,0,0,0,0,0,0,0,,BLUE GRASS CHEMICAL SPECIALTIES LLC,NA
1989,46516FPCRP223MI,EFP CORP.,223 MIDDLETON RUN RD.,ELKHART,ELKHART,IN,46516,41.691007,-85.917339,3079,,,,,,326150,,,,,,1389035012780,METHYL ISOCYANATE,000624839,YES,NON-PBT,NO,0,NO,R,Pounds,0,0,0,0,0,0,0,0,0,0,0,0,0,0,0,0,0,0,0,0,0,0,0,0,0,0,0,0,0,0,0,0,0,0,0,0,0,0,0,0,0,0,0,0,7800,0,0,0,0,7800,0,0,0,0,0,0,0,0,0,0,0,0,0,0,,EFP CORP,005101860
1989,47933SMMRM315PO,SOMMER METALCRAFT CORP.,315 POSTON DR.,CRAWFORDSVILLE,MONTGOMERY,IN,479330688,40.039174,-86.884386,3471,,,,,,332813,,,,,,1389035109166,"SULFURIC ACID (1994 AND AFTER ""ACID AEROSOLS"" ONLY)",007664939,NO,NON-PBT,NO,0,NO,R,Pounds,0,0,0,0,0,0,0,0,0,0,0,0,0,0,0,0,0,0,0,0,0,0,0,0,0,0,0,0,0,0,0,0,0,0,0,0,0,0,0,0,0,0,0,0,0,0,0,0,0,0,0,0,0,0,0,0,0,0,0,0,0,0,0,0,,SOMMER METALCRAFT CORP,006421143
1989,46540BTBPR219US,LOUISIANA-PACIFIC CORP,219 US HWY 20 W,MIDDLEBURY,ELKHART,IN,46540,41.659848,-85.715399,3089,,,,,,326199,,,,,,1389035089527,METHYL ISOBUTYL KETONE,000108101,YES,NON-PBT,NO,0,NO,R,Pounds,0,11000,0,0,0,0,0,0,0,0,0,0,11000,0,0,0,0,0,0,0,0,0,0,0,0,0,0,0,0,0,0,0,0,0,0,0,0,0,0,0,0,0,0,0,0,0,0,0,0,0,11000,0,0,0,0,0,0,0,0,0,0,0,0,0,,LOUISIANA-PACIFIC CORP,061500534
1989,46702KNKLF407CA,KUNKLE FOUNDRY CO INC,407 CALIFORNIA ST.,ANDREWS,HUNTINGTON,IN,46702,40.86228,-85.596815,3366,,,,,,331525,,,,,,1389035089679,COPPER,007440508,NO,NON-PBT,YES,1,NO,R,Pounds,250,0,0,0,0,0,0,0,0,0,0,0,250,0,0,0,0,0,0,0,0,0,0,0,0,0,0,0,0,0,0,0,0,0,0,0,0,0,0,0,0,0,0,0,0,0,0,0,0,0,250,0,0,0,0,0,0,0,0,0,0,0,0,0,,TYCO INTERNATIONAL (US) INC,001023472
1989,46580WRSWCPOBOX,WARSAW CHEMICAL CO INC,390 ARGONNE RD,WARSAW,KOSCIUSKO,IN,46580,41.234359,-85.823129,2819,2841,2812,,,,325611,,,,,,1389035235340,TOLUENE,000108883,YES,NON-PBT,NO,0,NO,R,Pounds,86,210,0,0,0,0,0,0,0,0,0,0,296,0,0,0,0,0,0,0,0,0,0,0,0,0,0,0,0,0,0,0,0,0,110,0,0,0,0,110,0,0,0,0,0,0,0,0,0,0,296,0,0,0,0,0,0,0,0,0,0,0,0,0,,NA,NA
1989,46580WRSWCPOBOX,WARSAW CHEMICAL CO INC,390 ARGONNE RD,WARSAW,KOSCIUSKO,IN,46580,41.234359,-85.823129,2819,2841,2812,,,,325611,,,,,,1389035235403,DICHLOROMETHANE,000075092,YES,NON-PBT,NO,0,YES,R,Pounds,10,608,0,0,0,0,0,0,0,0,0,0,618,0,0,0,0,0,0,0,0,0,0,0,0,0,0,0,0,0,0,0,0,0,0,0,0,0,0,0,0,0,0,0,0,0,0,0,0,0,618,0,0,0,0,0,0,0,0,0,0,0,0,0,,NA,NA
1989,46770LLSSN180LO,ALL SEASON IND. INC.,180 LOGAN ST.,MARKLE,HUNTINGTON,IN,46770,40.829444,-85.3375,3732,,,,,,336612,,,,,,1389035256015,ACETONE,000067641,NO,NON-PBT,NO,0,NO,R,Pounds,0,6000,0,0,0,0,0,0,0,0,0,0,6000,0,0,0,0,0,0,0,0,0,0,0,0,0,0,0,0,0,0,0,0,0,0,0,0,0,0,0,0,0,0,0,0,0,0,0,0,0,6000,0,0,0,0,0,0,0,0,0,0,0,0,0,,ALL SEASON IND INC,NA
1989,46793NCRBL305IN,NUCOR BUILDING SYSTEMS,305 INDUSTRIAL PKWY,WATERLOO,DEKALB,IN,46793,41.435225,-85.04615,3448,,,,,,332311,,,,,,1389035307382,XYLENE (MIXED ISOMERS),001330207,YES,NON-PBT,NO,0,NO,R,Pounds,0,68700,0,0,0,0,0,0,0,0,0,0,68700,0,0,0,0,0,0,0,0,0,0,0,0,0,0,0,0,0,0,0,0,0,0,0,0,0,0,0,0,0,0,0,0,0,0,0,0,0,68700,0,0,0,0,0,0,0,0,0,0,0,0,0,,NUCOR CORP,003446796
1989,46285LLLLY1555K,LILLY TECHNOLOGY CENTER,1555 S HARDING ST,INDIANAPOLIS,MARION,IN,46221,39.749639,-86.181,2834,,,,,,325412,,,,,,1389035356056,"SULFURIC ACID (1994 AND AFTER ""ACID AEROSOLS"" ONLY)",007664939,NO,NON-PBT,NO,0,NO,R,Pounds,250,0,0,0,0,0,0,0,0,0,0,0,250,0,40,40,0,0,0,0,0,0,0,0,0,0,0,0,0,0,0,0,0,0,0,0,0,0,0,0,0,0,0,0,0,0,0,0,0,0,250,0,0,0,0,0,0,0,0,0,0,0,0,0,,ELI LILLY & CO,006421325
1989,47933MDSTT510SO,MIDSTATES WIRE,510 S. OAK ST.,CRAWFORDSVILLE,MONTGOMERY,IN,47933,40.037099,-86.886739,3496,,,,,,331222,,,,,,1389035563372,LEAD,007439921,YES,PBT,YES,1,YES,R,Pounds,0,0,27,0,0,0,0,0,0,0,0,0,27,0,0,0,0,0,0,0,0,0,26466,0,0,0,0,0,0,0,0,0,0,26466,0,0,0,0,0,0,0,0,0,0,0,0,0,0,0,0,26493,0,0,0,0,0,0,0,0,0,0,0,0,0,,NA,NA
1989,46992CMWBSMILLS,HARVEY INDUSTRIES LLC,3837 W MILL ST EXTENDED,WABASH,WABASH,IN,46992,40.79539,-85.8652,3361,,,,,,331524,,,,,,1389035575796,PHOSPHORIC ACID,007664382,NO,NON-PBT,NO,0,NO,R,Pounds,250,250,0,0,0,0,0,0,0,0,0,0,500,0,0,0,0,0,0,0,0,0,0,0,0,0,0,0,0,0,0,0,0,0,0,0,0,0,0,0,0,0,0,0,0,0,0,0,0,0,500,0,0,0,0,0,0,0,0,0,0,0,0,0,,HARVEY INDUSTRIES LLC,802606330
1989,46360MRCNC1800E,CRITERION CATALYSTS & TECHNOLOGIES LP,1800 E US 12,MICHIGAN CITY,LA PORTE,IN,46360,41.71826,-86.889746,2819,,,,,,325188,,,,,,1389035227014,COBALT COMPOUNDS,N096,YES,NON-PBT,YES,1,YES,R,Pounds,250,250,0,250,0,0,0,0,0,0,0,0,750,0,0,0,0,0,0,0,0,0,12939,0,0,0,0,0,0,0,0,0,0,12939,0,0,0,0,0,0,0,0,0,0,0,0,0,0,0,0,13689,0,0,0,0,0,0,0,0,0,0,0,0,0,,CRITERION CATALYSTS & TECHNOLOGIES LP,186283909
1989,46218VCNDS22452,IVC INDUSTRIAL COATINGS INC,2245-50 VALLEY AVE,INDIANAPOLIS,MARION,IN,46218,39.791333,-86.123196,2851,,,,,,325510,,,,,,1389035238979,ACETONE,000067641,NO,NON-PBT,NO,0,NO,R,Pounds,3678,0,0,0,0,0,0,0,0,0,0,0,3678,0,0,0,0,0,0,0,0,0,0,0,0,0,0,0,0,0,0,0,0,0,0,0,0,0,0,0,0,0,0,0,30637,0,0,0,0,30637,3678,0,0,0,0,0,0,0,0,0,0,0,0,0,,IVC INDUSTRIAL COATINGS INC,NA
1989,46218VCNDS22452,IVC INDUSTRIAL COATINGS INC,2245-50 VALLEY AVE,INDIANAPOLIS,MARION,IN,46218,39.791333,-86.123196,2851,,,,,,325510,,,,,,1389035239033,TOLUENE,000108883,YES,NON-PBT,NO,0,NO,R,Pounds,8316,0,0,0,0,0,0,0,0,0,0,0,8316,0,0,0,0,0,0,0,0,0,0,0,0,0,0,0,0,0,0,0,0,0,0,0,0,0,0,0,0,0,0,0,67402,0,0,0,0,67402,8316,0,0,0,0,0,0,0,0,0,0,0,0,0,,IVC INDUSTRIAL COATINGS INC,NA
1989,46350NWYRK171FA,NEW YORK BLOWER CO,171 FACTORY ST,LA PORTE,LA PORTE,IN,463502622,41.62032,-86.706669,3564,,,,,,333412,,,,,,1389035207669,NICKEL,007440020,YES,NON-PBT,YES,1,YES,R,Pounds,200,0,0,0,0,0,0,0,0,0,0,0,200,0,0,0,0,0,0,0,0,0,0,0,0,0,0,0,0,0,0,0,0,0,0,0,0,0,0,0,0,0,0,0,0,0,0,0,0,0,200,0,0,0,0,0,0,0,0,0,0,0,0,0,,NA,NA
1989,47331CPNC SOUTH,C P INC,196 S WATER,CONNERSVILLE,FAYETTE,IN,47331,39.637555,-85.139255,2851,,,,,,325510,,,,,,1389035200866,BUTYL BENZYL PHTHALATE,000085687,NO,NON-PBT,NO,0,NO,R,Pounds,250,0,0,0,0,0,0,0,0,0,0,0,250,0,0,0,0,0,0,0,0,0,0,0,0,0,0,0,0,0,0,0,0,0,0,0,0,0,0,0,0,0,0,0,0,0,0,0,0,0,250,0,0,0,0,0,0,0,0,0,0,0,0,0,,NA,NA
1989,47331CPNC SOUTH,C P INC,196 S WATER,CONNERSVILLE,FAYETTE,IN,47331,39.637555,-85.139255,2851,,,,,,325510,,,,,,1389035200916,N-BUTYL ALCOHOL,000071363,NO,NON-PBT,NO,0,NO,R,Pounds,250,0,0,0,0,0,0,0,0,0,0,0,250,0,0,0,0,0,0,0,0,0,0,0,0,0,0,0,0,0,0,0,0,0,0,0,0,0,0,0,0,0,0,0,0,0,0,0,0,0,250,0,0,0,0,0,0,0,0,0,0,0,0,0,,NA,NA
1989,47006BTSVLEASTP,BATESVILLE MANUFACTURING INC -DOLL PLANT,1000 E PEARL ST,BATESVILLE,RIPLEY,IN,47006,39.294444,-85.213139,3995,,,,,,339995,,,,,,1389035253463,NICKEL,007440020,YES,NON-PBT,YES,1,YES,R,Pounds,250,250,0,0,0,0,0,0,0,0,0,0,500,250,0,250,0,0,0,0,0,0,750,0,0,0,0,0,0,0,0,0,0,750,0,0,0,0,0,0,0,0,0,0,0,0,0,0,0,0,1500,0,0,0,0,0,0,0,0,0,0,0,0,0,,HILLENBRAND INDUSTRIES,825165132
1989,46285LLLLY1200K,LILLY INDUSTRIAL CENTER 1200 KENTUCKY AVE,1200 KENTUCKY AVE.,INDIANAPOLIS,MARION,IN,46221,39.749639,-86.181,2833,,,,,,325411,,,,,,1389035356207,METHANOL,000067561,YES,NON-PBT,NO,0,NO,R,Pounds,150000,83000,0,0,0,0,0,0,0,0,0,0,233000,0,2000,2000,0,0,0,0,0,0,0,0,0,0,0,0,0,0,0,0,0,0,0,0,0,0,0,0,0,0,0,0,670000,0,0,0,0,670000,233000,0,0,0,0,0,0,0,0,0,0,0,0,0,,ELI LILLY & CO,006421325
1989,46383WNSCR2252I,UGN INC,2252 INDUSTRIAL DR,VALPARAISO,PORTER,IN,46383,41.448764,-87.0172,3079,,,,,,336399,,,,,,1389035372972,DIMETHYL PHTHALATE,000131113,YES,NON-PBT,NO,0,NO,R,Pounds,0,0,0,0,0,0,0,0,0,0,0,0,0,0,0,0,0,0,0,0,0,0,2,0,0,0,0,0,0,0,0,0,0,2,0,0,0,0,0,0,0,0,0,0,160,0,0,0,0,160,2,0,0,0,0,0,0,0,0,0,0,0,0,0,,NA,NA
1989,46161RNDLLUS52W,COLLINS & AIKMAN PRODUCTS,2782 E US HWY 52,MORRISTOWN,SHELBY,IN,46161,39.682583,-85.727167,3086,2821,2851,,,,336370,,,,,,1389035392923,CHROMIUM,007440473,YES,NON-PBT,YES,1,YES,R,Pounds,250,250,44,0,0,0,0,0,0,0,0,0,544,0,0,0,0,0,0,0,0,0,0,0,0,0,0,0,0,0,0,0,0,22784,0,0,0,0,0,0,0,0,0,22784,0,0,0,0,0,0,23328,0,0,0,0,0,0,0,0,0,0,0,0,0,,COLLINS & AIKMAN PRODUCTS INC,198492514
1989,46783GMCTR12200,GM TRUCK GROUP FORT WAYNE ASSEMBLY,12200 LAFAYETTE CENTER RD,ROANOKE,ALLEN,IN,46783,40.96049,-85.306802,3711,,,,,,336112,,,,,,1389035409541,TOLUENE,000108883,YES,NON-PBT,NO,0,NO,R,Pounds,36900,84300,0,0,0,0,0,0,0,0,0,0,121200,0,0,0,0,0,0,0,0,0,12800,0,0,0,0,0,0,0,0,0,8600,21400,0,0,0,0,0,0,0,0,0,0,300,0,0,0,0,300,142600,0,0,0,0,0,0,0,0,0,0,0,0,0,,GENERAL MOTORS LLC,831247536
1989,46783GMCTR12200,GM TRUCK GROUP FORT WAYNE ASSEMBLY,12200 LAFAYETTE CENTER RD,ROANOKE,ALLEN,IN,46783,40.96049,-85.306802,3711,,,,,,336111,,,,,,1389035409628,PHOSPHORUS (YELLOW OR WHITE),007723140,YES,NON-PBT,NO,0,NO,R,Pounds,0,0,0,0,0,0,0,0,0,0,0,0,0,0,0,0,0,0,0,0,0,0,0,0,0,0,0,0,0,0,0,0,0,0,0,0,0,0,0,0,0,0,0,0,1700,0,0,0,0,1700,0,0,0,0,0,0,0,0,0,0,0,0,0,0,,GENERAL MOTORS LLC,831247536
1989,46515NCKLL52627,NICKELL MOULDING CO INC,3015 MOBILE DR,ELKHART,ELKHART,IN,46514,41.727404,-85.978538,2499,,,,,,321999,,,,,,1389035498144,TOLUENE,000108883,YES,NON-PBT,NO,0,NO,R,Pounds,750,47000,0,0,0,0,0,0,0,0,0,0,47750,0,0,0,0,0,0,0,0,0,0,0,0,0,0,0,0,0,0,0,0,0,0,0,0,0,0,0,0,0,0,0,880,0,0,0,0,880,47750,0,0,0,0,0,0,0,0,0,0,0,0,0,,NA,NA
1989,47598STHRNROUTE,STELLA-JONES CORP,3818 S 50 E,WINSLOW,PIKE,IN,47598,38.36631,-87.268903,2491,,,,,,321114,,,,,,1389035483193,NAPHTHALENE,000091203,YES,NON-PBT,NO,0,NO,R,Pounds,250,250,0,0,0,0,0,0,0,0,0,0,500,0,0,0,0,0,0,0,0,0,0,0,0,0,0,0,0,0,0,0,0,0,0,0,0,0,0,0,0,0,0,0,898,0,0,0,0,898,500,0,0,0,0,0,0,0,0,0,0,0,0,0,,STELLA-JONES INC,605929814
1989,47808PFZRNCARLI,PFIZER INC VIGO PLANT,100 PFIZER DR,TERRE HAUTE,VIGO,IN,47802,39.365889,-87.408611,2833,,,,,,325411,,,,,,1389035536921,MALEIC ANHYDRIDE,000108316,YES,NON-PBT,NO,0,NO,R,Pounds,319,3810,0,0,0,0,0,0,0,0,0,0,4129,0,0,0,0,0,0,0,0,0,0,0,0,0,0,0,0,0,0,0,0,0,0,0,0,0,0,0,0,0,0,0,0,0,0,0,0,0,4129,0,0,0,0,0,0,0,0,0,0,0,0,0,,PFIZER INC,001326495
1989,46383TTNDV5103E,POWDER PROCESSING & TECHNOLOGY,5103 EVANS AVE,VALPARAISO,PORTER,IN,46383,41.477995,-86.999118,3499,,,,,,339000,,,,,,1389035538558,MANGANESE COMPOUNDS,N450,YES,NON-PBT,YES,1,NO,R,Pounds,100,50,0,0,0,0,0,0,0,0,0,0,150,0,0,0,0,0,0,0,0,0,600,0,0,0,0,0,0,0,0,0,0,600,0,0,0,0,0,0,0,0,0,0,0,0,0,0,0,0,750,0,0,0,0,0,0,0,0,0,0,0,0,0,,NA,NA
1989,47715WNDSR601NO,GUARDIAN AUTOMOTIVE TRIM INC,601 N CONGRESS AVE,EVANSVILLE,VANDERBURGH,IN,477165109,37.981834,-87.500144,3089,,,,,,326199,,,,,,1389035206376,"HYDROCHLORIC ACID (1995 AND AFTER ""ACID AEROSOLS"" ONLY)",007647010,YES,NON-PBT,NO,0,NO,R,Pounds,2,238,0,0,0,0,0,0,0,0,0,0,240,0,0,0,0,0,0,0,0,0,0,0,0,0,0,0,0,0,0,0,0,0,0,0,0,0,0,0,0,0,0,0,0,0,0,0,0,0,240,0,0,0,0,0,0,0,0,0,0,0,0,0,,SRG GLOBAL INC.,829671473
1989,46947WLSNF35BYP,TYSON FRESH MEATS INC-LOGANSPORT IN,2125 S COUNTY RD 125 W,LOGANSPORT,CASS,IN,46947,40.734,-86.3936,2013,,,,,,311610,,,,,,1389035242977,PHOSPHORIC ACID,007664382,NO,NON-PBT,NO,0,NO,R,Pounds,0,0,0,0,0,0,0,0,0,0,0,0,0,0,0,0,0,0,0,0,0,0,0,0,0,0,0,0,0,0,0,0,0,0,0,0,0,0,0,0,0,0,0,0,0,0,0,0,0,0,0,0,0,0,0,0,0,0,0,0,0,0,0,0,,TYSON FOODS INC,006903702
1989,47805MPCTC3701N,AMPACET CORP,3701 N FRUITRIDGE AVE,TERRE HAUTE,VIGO,IN,47805,39.50949,-87.36027,2821,,,,,,325991,,,,,,1389035243664,ZINC COMPOUNDS,N982,NO,NON-PBT,YES,1,NO,R,Pounds,0,35,0,0,0,0,0,0,0,0,0,0,35,4,0,4,0,0,0,0,0,0,208,0,0,0,0,0,0,0,0,0,0,208,0,0,0,0,0,0,0,0,0,0,0,0,0,0,0,0,247,0,0,0,0,0,0,0,0,0,0,0,0,0,,AMPACET CORP,081002871
1989,46225THQKR2002S,QUAKER OATS CO.,2002 S. EAST ST.,INDIANAPOLIS,MARION,IN,462251897,39.741056,-86.149399,2033,,,,,,311421,,,,,,1389035249198,"SULFURIC ACID (1994 AND AFTER ""ACID AEROSOLS"" ONLY)",007664939,NO,NON-PBT,NO,0,NO,R,Pounds,0,0,0,0,0,0,0,0,0,0,0,0,0,0,355000,355000,0,0,0,0,0,0,0,0,0,0,0,0,0,0,0,0,0,0,0,0,0,0,0,0,0,0,0,0,0,0,0,0,0,0,0,0,0,0,0,0,0,0,0,0,0,0,0,0,,QUAKER OATS CO,001316439
1989,46514RCHTC727RA,"ARCHITECTURAL ANODIZING CORP., OF AMERICA",727 RANDOLPH ST.,ELKHART,ELKHART,IN,46514,41.696791,-85.985842,3471,,,,,,332813,,,,,,1389035249933,NITRIC ACID,007697372,NO,NON-PBT,NO,0,NO,R,Pounds,0,0,0,0,0,0,0,0,0,0,0,0,0,0,0,0,0,0,0,0,0,0,0,0,0,0,0,0,0,0,0,0,0,0,0,0,0,0,0,0,0,0,0,0,0,0,0,0,0,0,0,0,0,0,0,0,0,0,0,0,0,0,0,0,,NA,NA
1989,46802SSXGR1601W,ESSEX GROUP INC FORT WAYNE MAGNET WIRE PLANT,1601 WALL ST,FORT WAYNE,ALLEN,IN,46802,41.0708,-85.1596,3357,,,,,,331422,,,,,,1389035342498,COPPER,007440508,NO,NON-PBT,YES,1,NO,R,Pounds,250,250,0,0,0,0,0,0,0,0,0,0,500,250,0,250,0,0,0,0,0,0,0,0,0,0,0,0,0,0,0,0,0,250,0,0,0,0,0,0,0,0,0,0,0,0,250,0,0,0,1000,0,0,0,0,0,0,0,0,0,0,0,0,0,,SUPERIOR ESSEX INC,153370077
1989,46953THMSN3301S,THOMSON MULTIMEDIA INC.,3301 S ADAMS ST,MARION,GRANT,IN,46953,40.53019,-85.65857,3671,,,,,,334411,,,,,,1389035331469,NITRIC ACID,007697372,NO,NON-PBT,NO,0,NO,R,Pounds,250,250,0,0,0,0,0,0,0,0,0,0,500,0,250,250,0,0,0,0,0,0,0,0,0,0,0,0,0,0,0,0,0,0,0,0,0,0,0,0,0,0,0,0,0,0,140000,0,0,140000,500,0,0,0,0,0,0,0,0,0,0,0,0,0,,NA,NA
1989,46628BRNCR2001W,ROYAL ADHESIVES & SEALANTS,2001 W WASHINGTON ST,SOUTH BEND,ST JOSEPH,IN,46628,41.676876,-86.278801,2851,,,,,,325520,,,,,,1389035456449,XYLENE (MIXED ISOMERS),001330207,YES,NON-PBT,NO,0,NO,R,Pounds,250,250,0,0,0,0,0,0,0,0,0,0,500,0,250,250,0,0,0,0,0,0,0,0,0,0,0,0,0,0,0,0,0,0,0,0,0,0,0,0,0,0,0,0,0,0,0,0,0,0,500,0,0,0,0,0,0,0,0,0,0,0,0,0,,ROYAL ADHESIVES & SEALANTS LLC,101119910
1989,47405GLPCH320SW,ASHLEY INDUSTRIAL MOLDING INC,310 S WABASH,ASHLEY,DEKALB,IN,46705,41.52492,-85.068397,3079,,,,,,326199,,,,,,1389035516917,ACETONE,000067641,NO,NON-PBT,NO,0,NO,R,Pounds,34000,250,0,0,0,0,0,0,0,0,0,0,34250,0,0,0,0,0,0,0,0,0,0,0,0,0,0,0,0,0,0,0,0,0,0,0,0,0,0,0,0,0,0,0,0,0,0,0,0,0,34250,0,0,0,0,0,0,0,0,0,0,0,0,0,,NA,NA
1989,46550BLFNN502WE,BLU-FIN INDUSTRIES,502 W.RANDOLPH,NAPPANEE,ELKHART,IN,46550,41.43981,-86.005721,3732,,,,,,336612,,,,,,1389035566254,DICHLOROMETHANE,000075092,YES,NON-PBT,NO,0,YES,R,Pounds,24000,0,0,0,0,0,0,0,0,0,0,0,24000,0,0,0,0,0,0,0,0,0,0,0,0,0,0,0,0,0,0,0,0,0,0,0,0,0,0,0,0,0,0,0,0,0,0,0,0,0,24000,0,0,0,0,0,0,0,0,0,0,0,0,0,,BRUNSWICK CORP,001307636
1989,47331FRDLCSTATE,VISTEON SYSTEMS LLC,4747 WESTERN AVE,CONNERSVILLE,FAYETTE,IN,47331,39.690328,-85.13839,3714,,,,,,336322,,,,,,1389035542671,CYANIDE COMPOUNDS,N106,YES,NON-PBT,NO,0,NO,R,Pounds,0,0,0,0,0,0,0,0,0,0,0,0,0,0,250,250,0,0,0,0,0,0,1900,0,0,0,0,0,0,0,0,0,0,1900,0,0,0,0,0,0,0,0,0,0,0,0,0,0,0,0,1900,0,0,0,0,0,0,0,0,0,0,0,0,0,,VISTEON CORP,183727804
1989,46206DLXCH5846W,DELUXE CHECK PRINTERS INC.,5846 W. 73RD ST.,INDIANAPOLIS,MARION,IN,462781742,39.884874,-86.263287,2782,2751,2752,,,,323116,,,,,,1389035184845,"1,1,1-TRICHLOROETHANE",000071556,YES,NON-PBT,NO,0,NO,R,Pounds,1803,7260,0,0,0,0,0,0,0,0,0,0,9063,0,0,0,0,0,0,0,0,0,0,0,0,0,0,0,0,0,0,0,1815,1815,0,0,0,0,0,0,0,0,0,0,2280,0,0,0,0,2280,10878,0,0,0,0,0,0,0,0,0,0,0,0,0,,DELUXE CORP,006148597
1989,46516RCRPN195CO,CARPENTER CO ELKHART DIV,195 COUNTY RD 15,ELKHART,ELKHART,IN,46516,41.69151,-85.909385,3086,,,,,,325998,,,,,,1389035199417,"TOLUENE-2,4-DIISOCYANATE",000584849,YES,NON-PBT,NO,0,YES,R,Pounds,250,250,0,0,0,0,0,0,0,0,0,0,500,0,0,0,0,0,0,0,0,0,0,0,0,0,0,0,0,0,0,0,0,0,0,0,0,0,0,0,0,0,0,0,0,0,0,0,0,0,500,0,0,0,0,0,0,0,0,0,0,0,0,0,,CARPENTER CO,003109444
1989,47630LMNMCHIGHW,ALCOA INC - WARRICK OPERATIONS,HWYS 66 & 61,NEWBURGH,WARRICK,IN,476290010,37.915306,-87.331028,3334,3353,,,,,331312,,,,,,1389035188147,HYDROGEN FLUORIDE,007664393,YES,NON-PBT,NO,0,NO,R,Pounds,353100,595050,0,0,0,0,0,0,0,0,0,0,948150,0,0,0,0,0,0,0,0,0,0,0,0,0,0,0,0,0,0,0,0,0,0,0,0,0,0,0,0,0,0,0,0,0,0,0,0,0,948150,0,0,0,0,0,0,0,0,0,0,0,0,0,,ALCOA INC,001339472
1989,46755SSXGR800WM,ESSEX GROUP INC,800 W MITCHELL ST,KENDALLVILLE,NOBLE,IN,46755,41.44271,-85.27521,3357,,,,,,331422,,,,,,1389035310248,ETHYLBENZENE,000100414,YES,NON-PBT,NO,0,NO,R,Pounds,250,886,0,0,0,0,0,0,0,0,0,0,1136,0,0,0,0,0,0,0,0,0,0,0,0,0,0,0,0,0,0,0,0,0,0,0,0,0,0,0,0,0,0,0,1159,0,0,0,0,1159,1136,0,0,0,0,0,0,0,0,0,0,0,0,0,,SUPERIOR ESSEX INC,153370077
1989,46514THCNT27524,TRUCK ACCESSORIES GROUP LLC DBA CENTURY FIBERGLASS,1131 DI DR,ELKHART,ELKHART,IN,46514,41.72672,-85.993552,3792,,,,,,336214,,,,,,1389035371640,ACETONE,000067641,NO,NON-PBT,NO,0,NO,R,Pounds,40370,40370,0,0,0,0,0,0,0,0,0,0,80740,0,0,0,0,0,0,0,0,0,0,0,0,0,0,0,0,0,0,0,0,0,0,0,0,0,0,0,0,0,0,0,71060,0,0,0,0,71060,80740,0,0,0,0,0,0,0,0,0,0,0,0,0,,TRUCK ACCESSORIES GROUP LLC,NA
1989,46285LLLLYLILLY,LILLY CORPORATE CENTER,LILLY CORPORATE CENTER,INDIANAPOLIS,MARION,IN,46285,39.755422,-86.15493,2833,,,,,,325411,,,,,,1389035356296,METHANOL,000067561,YES,NON-PBT,NO,0,NO,R,Pounds,5200,5100,0,0,0,0,0,0,0,0,0,0,10300,0,56000,56000,0,0,0,0,0,0,0,0,0,0,0,0,11000,0,0,0,0,11000,0,0,0,0,0,0,0,0,0,0,125000,0,0,0,0,125000,21300,0,0,0,0,0,0,0,0,0,0,0,0,0,,ELI LILLY & CO,006421325
1989,47394MCCST900NM,ROSS SAND CASTING INDUSTRIES INC PLANT 3,900 N MAIN ST,WINCHESTER,RANDOLPH,IN,47394,40.183111,-84.9815,3321,,,,,,331511,,,,,,1389035433681,NICKEL,007440020,YES,NON-PBT,YES,1,YES,R,Pounds,0,250,0,0,0,0,0,0,0,0,0,0,250,0,0,0,0,0,0,0,0,0,0,0,0,0,0,0,0,0,0,0,0,250,0,0,0,0,0,0,0,0,0,250,0,0,0,0,0,0,500,0,0,0,0,0,0,0,0,0,0,0,0,0,,LAURENCE ROSS,NA
1989,46402SSGRYONENO,USS GARY WORKS,1 N BROADWAY,GARY,LAKE,IN,46402,41.608917,-87.305,3312,,,,,,331111,,,,,,1389035466438,LEAD COMPOUNDS,N420,YES,PBT,YES,1,NO,R,Pounds,770,190,1800,0,0,0,7400,0,0,0,0,0,10160,0,0,0,0,0,0,0,0,0,0,0,0,0,0,0,0,0,0,0,0,0,0,0,0,0,0,0,0,0,0,0,0,0,0,0,0,0,10160,0,0,0,0,0,0,0,0,0,0,0,0,0,,US STEEL CORP,029990699
1989,46402SSGRYONENO,USS GARY WORKS,1 N BROADWAY,GARY,LAKE,IN,46402,41.608917,-87.305,3312,,,,,,331111,,,,,,1389035466489,ANTHRACENE,000120127,NO,NON-PBT,NO,0,NO,R,Pounds,120,17000,0,0,0,0,0,0,0,0,0,0,17120,0,0,0,0,0,0,0,0,0,0,0,0,0,0,0,0,0,0,0,0,0,0,0,0,0,0,0,0,0,0,0,0,0,0,0,0,0,17120,0,0,0,0,0,0,0,0,0,0,0,0,0,,US STEEL CORP,029990699
1989,47240BHNNGHIGHW,ADVANCED BEARING MATERIALS LLC,1515 W MAIN ST,GREENSBURG,DECATUR,IN,47240,39.336252,-85.507645,3568,,,,,,336312,,,,,,1389035518442,LEAD,007439921,YES,PBT,YES,1,YES,R,Pounds,250,250,0,0,0,0,0,0,0,0,0,0,500,250,0,250,0,0,0,0,0,0,250,0,0,0,0,0,0,0,0,0,0,4750,0,0,0,0,0,0,0,0,0,4500,0,0,0,250,0,250,5500,0,0,0,0,0,0,0,0,0,0,0,0,0,,NA,NA
1989,46725RLCRFUSBUS,REELCRAFT INDUSTRIES INC,2842 E BUSINESS HWY 30,COLUMBIA CITY,WHITLEY,IN,46725,41.138861,-85.437528,3499,3052,,,,,332999,,,,,,1389035580113,MANGANESE,007439965,YES,NON-PBT,YES,1,NO,R,Pounds,250,0,0,0,0,0,0,0,0,0,0,0,250,0,0,0,0,0,0,0,0,0,0,0,0,0,0,0,0,0,0,0,0,0,0,0,0,0,0,0,0,0,0,0,0,0,0,0,0,0,250,0,0,0,0,0,0,0,0,0,0,0,0,0,,NA,NA
1989,46507CMPRM51650,DIVERSIFIED MACHINE BRISTOL INC,51650 COUNTY RD 133,BRISTOL,ELKHART,IN,46507,41.743444,-85.736833,3365,,,,,,331524,,,,,,1389035205234,PHENOL,000108952,YES,NON-PBT,NO,0,NO,R,Pounds,250,250,0,0,0,0,0,0,0,0,0,0,500,0,0,0,0,0,0,0,0,0,41950,0,0,0,0,0,0,0,0,0,0,41950,0,0,0,0,0,0,0,0,0,0,0,0,0,0,0,0,42450,0,0,0,0,0,0,0,0,0,0,0,0,0,,DIVERSIFIED MACHINE INC,611828695
1989,47710MRCNN2201W,SILGAN WHITE CAP CORP,2201 W MARYLAND ST,EVANSVILLE,VANDERBURGH,IN,47710,37.98568,-87.59717,3411,,,,,,332431,,,,,,1389035317650,"HYDROCHLORIC ACID (1995 AND AFTER ""ACID AEROSOLS"" ONLY)",007647010,YES,NON-PBT,NO,0,NO,R,Pounds,0,0,0,0,0,0,0,0,0,0,0,0,0,0,0,0,0,0,0,0,0,0,0,0,0,0,0,0,0,0,0,0,0,0,0,0,0,0,0,0,0,0,0,0,0,0,0,0,0,0,0,0,0,0,0,0,0,0,0,0,0,0,0,0,,SILGAN HOLDINGS INC,614201895
1989,47620GPLSTLEXAN,SABIC INNOVATIVE PLASTICS MT VERNON LLC,1 LEXAN LN,MOUNT VERNON,POSEY,IN,476209367,37.909278,-87.922556,2821,,,,,,325211,,,,,,1389035405481,CADMIUM COMPOUNDS,N078,YES,NON-PBT,YES,1,NO,R,Pounds,0,0,250,0,0,0,0,0,0,0,0,0,250,0,0,0,0,0,0,0,0,0,1000,0,0,0,0,0,0,0,0,0,0,1000,0,0,0,0,0,0,0,0,0,0,0,0,0,0,0,0,1250,0,0,0,0,0,0,0,0,0,0,0,0,0,,SABIC INNOVATIVE PLASTICS US LLC,799533617
1989,47620GPLSTLEXAN,SABIC INNOVATIVE PLASTICS MT VERNON LLC,1 LEXAN LN,MOUNT VERNON,POSEY,IN,476209367,37.909278,-87.922556,2821,,,,,,325211,,,,,,1389035405606,PHOSPHORIC ACID,007664382,NO,NON-PBT,NO,0,NO,R,Pounds,0,0,0,0,0,0,0,0,0,0,0,0,0,0,0,0,0,0,0,0,0,0,0,0,0,0,0,0,0,0,0,0,0,0,0,0,0,0,0,0,0,0,0,0,0,0,0,0,0,0,0,0,0,0,0,0,0,0,0,0,0,0,0,0,,SABIC INNOVATIVE PLASTICS US LLC,799533617
1989,47620GPLSTLEXAN,SABIC INNOVATIVE PLASTICS MT VERNON LLC,1 LEXAN LN,MOUNT VERNON,POSEY,IN,476209367,37.909278,-87.922556,2821,,,,,,325211,,,,,,1389035405657,"4,4'-ISOPROPYLIDENEDIPHENOL",000080057,NO,NON-PBT,NO,0,NO,R,Pounds,750,250,250,0,0,0,0,0,0,0,0,0,1250,0,0,0,0,0,0,0,0,0,153263,0,0,0,0,0,0,0,0,0,0,153263,0,0,0,0,0,0,0,0,0,0,0,0,0,0,0,0,154513,0,0,0,0,0,0,0,0,0,0,0,0,0,,SABIC INNOVATIVE PLASTICS US LLC,799533617
1989,46783GMCTR12200,GM TRUCK GROUP FORT WAYNE ASSEMBLY,12200 LAFAYETTE CENTER RD,ROANOKE,ALLEN,IN,46783,40.96049,-85.306802,3711,,,,,,336111,,,,,,1389035409679,CHROMIUM COMPOUNDS(EXCEPT CHROMITE ORE MINED IN THE TRANSVAAL REGION),N090,YES,NON-PBT,YES,1,NO,R,Pounds,0,0,0,0,0,0,0,0,0,0,0,0,0,70,0,70,0,0,0,0,0,0,443,0,0,0,0,0,0,0,0,0,7,450,0,0,0,0,0,0,0,0,0,0,0,0,0,0,0,0,520,0,0,0,0,0,0,0,0,0,0,0,0,0,,GENERAL MOTORS LLC,831247536
1989,47362CSTRN1817I,NC-M CHASSIS SYSTEMS LLC,1817 I AVE,NEW CASTLE,HENRY,IN,47362,39.916886,-85.362924,3714,,,,,,336399,,,,,,1389035450701,ZINC COMPOUNDS,N982,NO,NON-PBT,YES,1,NO,R,Pounds,0,0,0,0,0,0,0,0,0,0,0,0,0,250,0,250,0,0,0,0,0,0,250,0,0,0,0,0,0,0,0,0,0,250,0,0,0,0,0,0,0,0,0,0,0,0,0,0,0,0,500,0,0,0,0,0,0,0,0,0,0,0,0,0,,METALDYNE,119269827
1989,47374LCCLS1701W,SILGAN WHITE CAP CORP,1701 WILLIAMSBURG PIKE,RICHMOND,WAYNE,IN,47375,39.858639,-84.908556,3466,,,,,,332115,,,,,,1389035387327,METHYL ISOBUTYL KETONE,000108101,YES,NON-PBT,NO,0,NO,R,Pounds,13400,176900,0,0,0,0,0,0,0,0,0,0,190300,0,0,0,0,0,0,0,0,0,0,0,0,0,0,0,0,0,0,0,0,0,0,0,0,0,0,0,0,0,0,0,0,0,0,0,0,0,190300,0,0,0,0,0,0,0,0,0,0,0,0,0,,SILGAN HOLDINGS INC,614201895
1989,47362LLGHNPOBOX,ALLEGHENY LUDLUM CORP,RT 38 W  PO BOX  309,NEW CASTLE,HENRY,IN,47362,39.934083,-85.384611,3312,3316,3398,,,,331111,,,,,,1389035400213,"SULFURIC ACID (1994 AND AFTER ""ACID AEROSOLS"" ONLY)",007664939,NO,NON-PBT,NO,0,NO,R,Pounds,250,250,250,0,0,0,0,0,0,0,0,0,750,0,0,0,0,0,0,0,0,0,0,0,0,0,0,0,0,0,0,0,0,0,0,0,0,0,0,0,0,0,0,0,0,0,0,0,0,0,750,0,0,0,0,0,0,0,0,0,0,0,0,0,,ALLEGHENY TECHNOLOGIES INC,949262737
1989,47401WSTNG300NO,ABB POWER T&D CO. INC.,300 N. CURRY PIKE,BLOOMINGTON,MONROE,IN,47404,39.172444,-86.581778,3629,,,,,,335999,,,,,,1389035499920,TRICHLOROETHYLENE,000079016,YES,NON-PBT,NO,0,YES,R,Pounds,0,9500,2,0,0,0,0,0,0,0,0,0,9502,0,1,1,0,0,0,0,0,0,0,0,0,0,0,0,0,0,0,0,0,0,0,0,0,0,0,0,0,0,0,0,0,0,0,0,0,0,9502,0,0,0,0,0,0,0,0,0,0,0,0,0,,ABB POWER T&D CO INC,011885969
1989,47331FRDLCSTATE,VISTEON SYSTEMS LLC,4747 WESTERN AVE,CONNERSVILLE,FAYETTE,IN,47331,39.690328,-85.13839,3714,,,,,,336322,,,,,,1389035542745,TRICHLOROETHYLENE,000079016,YES,NON-PBT,NO,0,YES,R,Pounds,430000,1700000,0,0,0,0,0,0,0,0,0,0,2130000,0,250,250,0,0,0,0,0,0,250,0,0,0,0,0,0,0,0,0,0,250,0,0,0,0,0,0,0,0,0,0,0,0,0,0,0,0,2130250,0,0,0,0,0,0,0,0,0,0,0,0,0,,VISTEON CORP,183727804
1989,46540SYNDC402NO,SYNDICATE SYSTEMS INC,402 N MAIN ST,MIDDLEBURY,ELKHART,IN,465400070,41.683083,-85.6975,3499,3469,3479,3471,,,337000,,,,,,1389035231404,NICKEL COMPOUNDS,N495,YES,NON-PBT,YES,1,NO,R,Pounds,0,0,250,0,0,0,0,0,0,0,0,0,250,0,0,0,0,0,0,0,0,0,0,0,0,0,0,0,0,0,0,0,6900,6900,0,0,0,0,0,0,0,0,0,0,0,0,0,0,0,0,7150,0,0,0,0,0,0,0,0,0,0,0,0,0,,LEGGETT & PLATT INC,007140064
1989,46540SYNDC402NO,SYNDICATE SYSTEMS INC,402 N MAIN ST,MIDDLEBURY,ELKHART,IN,465400070,41.683083,-85.6975,3499,3469,3479,3471,,,337215,,,,,,1389035231467,LEAD,007439921,YES,PBT,YES,1,YES,R,Pounds,0,0,0,0,0,0,0,0,0,0,0,0,0,0,0,0,0,0,0,0,0,0,0,0,0,0,0,0,0,0,0,0,0,0,0,0,0,0,0,0,0,0,0,0,0,0,0,0,0,0,0,0,0,0,0,0,0,0,0,0,0,0,0,0,,LEGGETT & PLATT INC,007140064
1989,46231CRRRC7310W,CARRIER CORP,7310 W MORRIS ST,INDIANAPOLIS,MARION,IN,46231,39.749579,-86.289179,3585,,,,,,333415,,,,,,1389035245505,NICKEL,007440020,YES,NON-PBT,YES,1,YES,R,Pounds,250,0,0,0,0,0,0,0,0,0,0,0,250,250,0,250,0,0,0,0,0,0,250,0,0,0,0,0,0,0,0,0,0,250,0,0,0,0,0,0,0,0,0,0,0,0,0,0,0,0,750,0,0,0,0,0,0,0,0,0,0,0,0,0,,UNITED TECHNOLOGIES CORP,001344142
1989,46231CRRRC7310W,CARRIER CORP,7310 W MORRIS ST,INDIANAPOLIS,MARION,IN,46231,39.749579,-86.289179,3585,,,,,,333415,,,,,,1389035245556,TETRACHLOROETHYLENE,000127184,YES,NON-PBT,NO,0,YES,R,Pounds,270000,250,0,0,0,0,0,0,0,0,0,0,270250,0,250,250,0,0,0,0,0,0,0,0,0,0,0,0,0,0,0,0,0,0,0,0,0,0,0,0,0,0,0,0,0,0,0,0,0,0,270250,0,0,0,0,0,0,0,0,0,0,0,0,0,,UNITED TECHNOLOGIES CORP,001344142
1989,46356GLBND101WE,RIETER AUTOMOTIVE N.A. INC.,101 WEAT OAKLEY AVE.,LOWELL,LAKE,IN,46356,41.28862,-87.42154,3710,,,,,,327993,,,,,,1389035191333,PHENOL,000108952,YES,NON-PBT,NO,0,NO,R,Pounds,15000,0,0,0,0,0,0,0,0,0,0,0,15000,0,0,0,0,0,0,0,0,0,250,0,0,0,0,0,0,0,0,0,0,250,0,0,0,0,0,0,0,0,0,0,0,0,0,0,0,0,15250,0,0,0,0,0,0,0,0,0,0,0,0,0,,NA,NA
1989,47727WHRLPUSHIG,WHIRLPOOL CORP,5401 US HWY 41 N,EVANSVILLE,VANDERBURGH,IN,47727,38.026077,-87.538809,3632,,,,,,335222,,,,,,1389035327547,DICHLOROMETHANE,000075092,YES,NON-PBT,NO,0,YES,R,Pounds,0,18600,0,0,0,0,0,0,0,0,0,0,18600,0,0,0,0,0,0,0,0,0,0,0,0,0,0,0,0,0,0,0,0,0,0,0,0,0,0,0,0,0,0,0,0,0,0,2500,0,2500,18600,0,0,0,0,0,0,0,0,0,0,0,0,0,,WHIRLPOOL CORP,001288075
1989,47727WHRLPUSHIG,WHIRLPOOL CORP,5401 US HWY 41 N,EVANSVILLE,VANDERBURGH,IN,47727,38.026077,-87.538809,3632,,,,,,335222,,,,,,1389035327598,ETHYLENE GLYCOL,000107211,YES,NON-PBT,NO,0,NO,R,Pounds,0,0,0,0,0,0,0,0,0,0,0,0,0,0,19154,19154,0,0,0,0,0,0,0,0,0,0,0,0,0,0,0,0,0,0,0,0,0,0,0,0,0,0,0,0,0,0,0,0,0,0,0,0,0,0,0,0,0,0,0,0,0,0,0,0,,WHIRLPOOL CORP,001288075
1989,46304SCNCMCOBET,U.S. CAN CO. BURNS HARBOR PLANT #10,C/O BETHLEHEM STEEL BURNS HARBOR PLANT,CHESTERTON,PORTER,IN,46304,41.618913,-87.126701,3411,,,,,,332431,,,,,,1389035320326,CERTAIN GLYCOL ETHERS,N230,YES,NON-PBT,NO,0,NO,R,Pounds,30550,54850,0,0,0,0,0,0,0,0,0,0,85400,0,0,0,0,0,0,0,0,0,0,0,0,0,0,0,0,0,0,0,0,0,0,0,0,0,0,0,0,0,0,0,0,0,0,0,0,0,85400,0,0,0,0,0,0,0,0,0,0,0,0,0,,US CAN CO,106938798
1989,46514NCLLY52800,HUNTINGTON ALLOYS CORP,52800 HIGGINS RD,ELKHART,ELKHART,IN,46514,41.72542,-85.96135,3356,,,,,,331491,,,,,,1389035443480,COPPER,007440508,NO,NON-PBT,YES,1,NO,R,Pounds,0,0,0,0,0,0,0,0,0,0,0,0,0,1,0,1,0,0,0,0,0,0,0,0,0,0,0,0,0,0,0,0,0,0,0,0,0,0,0,0,0,0,0,0,0,0,0,0,0,0,1,0,0,0,0,0,0,0,0,0,0,0,0,0,,PRECISION CASTPARTS CORP,002241669
1989,47130DLLSG1402F,DALLAS GROUP OF AMERICA INC.,1402 FABRICON BLVD.,JEFFERSONVILLE,CLARK,IN,47130,38.315849,-85.74989,2819,,,,,,325998,,,,,,1389035400441,"SULFURIC ACID (1994 AND AFTER ""ACID AEROSOLS"" ONLY)",007664939,NO,NON-PBT,NO,0,NO,R,Pounds,0,0,0,0,0,0,0,0,0,0,0,0,0,0,0,0,0,0,0,0,0,0,0,0,0,0,0,0,0,0,0,0,0,0,0,0,0,0,0,0,0,0,0,0,0,0,0,0,0,0,0,0,0,0,0,0,0,0,0,0,0,0,0,0,,DALLAS GROUP OF AMERICA INC,197212954
1989,47905LLLLYLILLY,EVONIK DEGUSSA CORP TIPPECANOE LABORATORIES,1650 LILLY RD,LAFAYETTE,TIPPECANOE,IN,479099201,40.38875,-86.935056,2834,,,,,,325412,,,,,,1389035413032,CYANIDE COMPOUNDS,N106,YES,NON-PBT,NO,0,NO,R,Pounds,0,0,250,0,0,0,0,0,0,0,0,0,250,0,0,0,0,0,0,0,0,0,0,0,0,0,0,0,0,0,0,0,0,0,0,0,0,0,0,0,0,0,0,0,0,0,0,0,0,0,250,0,0,0,0,0,0,0,0,0,0,0,0,0,,EVONIK INDUSTRIES,068209295
1989,46225LLLYN546AB,ENGINEERED POLYMER SOLUTIONS INC D/B/A VALSPAR COATINGS,546 W ABBOTT ST,INDIANAPOLIS,MARION,IN,46225,39.75838,-86.169109,2851,,,,,,325510,,,,,,1389035527062,CERTAIN GLYCOL ETHERS,N230,YES,NON-PBT,NO,0,NO,R,Pounds,35443,250,0,0,0,0,0,0,0,0,0,0,35693,0,250,250,0,0,0,0,0,0,0,0,0,0,0,0,0,0,0,0,0,0,0,0,0,0,0,0,0,0,0,0,0,0,0,0,0,0,35693,0,0,0,0,0,0,0,0,0,0,0,0,0,,THE VALSPAR CORP,050736453
1989,46241BRDGP1800S,BRIDGEPORT BRASS  (DBA OLIN BRASS),1800 S HOLT RD,INDIANAPOLIS,MARION,IN,46241,39.740666,-86.225265,3351,,,,,,331421,,,,,,1389035531348,"SULFURIC ACID (1994 AND AFTER ""ACID AEROSOLS"" ONLY)",007664939,NO,NON-PBT,NO,0,NO,R,Pounds,575,0,0,0,0,0,0,0,0,0,0,0,575,0,0,0,0,0,0,0,0,0,0,0,0,0,0,0,0,0,0,0,0,0,0,0,0,0,0,0,0,0,0,0,0,0,0,0,0,0,575,0,0,0,0,0,0,0,0,0,0,0,0,0,,OLIN CORP,001338086
1989,46201THMSN600NS,THOMSON CONSUMER ELECTRONICS INC.,600 N. SHERMAN DR.,INDIANAPOLIS,MARION,IN,46201,39.775549,-86.102238,3679,,,,,,334000,,,,,,1389035531425,COPPER,007440508,NO,NON-PBT,YES,1,NO,R,Pounds,0,0,0,0,0,0,0,0,0,0,0,0,0,250,0,250,0,0,0,0,0,0,3468,0,0,0,0,0,0,0,0,0,0,3468,0,0,0,0,0,0,0,0,0,0,0,0,0,38816,0,38816,3718,0,0,0,0,0,0,0,0,0,0,0,0,0,,THOMSON SA PARIS FRANCE,NA
1989,47006HLLRMWESTP,HILL-ROM CO. INC. ARCHITECTURAL PLANT,W. PEARL & ELM ST.,BATESVILLE,RIPLEY,IN,47006,39.299,-85.224444,2531,,,,,,337127,,,,,,1389035574882,PHOSPHORIC ACID,007664382,NO,NON-PBT,NO,0,NO,R,Pounds,0,0,0,0,0,0,0,0,0,0,0,0,0,0,16685,16685,0,0,0,0,0,0,0,0,0,0,0,0,0,0,0,0,0,0,0,0,0,0,0,0,0,0,0,0,0,0,0,0,0,0,0,0,0,0,0,0,0,0,0,0,0,0,0,0,,HILLENBRAND INDUSTRIES INC,050656982
1989,46580RRDNNOLDRO,R R DONNELLEY & SONS CO,2801 W OLD RD 30,WARSAW,KOSCIUSKO,IN,46580,41.247417,-85.897528,2754,,,,,,323111,,,,,,1389035582980,"SULFURIC ACID (1994 AND AFTER ""ACID AEROSOLS"" ONLY)",007664939,NO,NON-PBT,NO,0,NO,R,Pounds,1,1,0,0,0,0,0,0,0,0,0,0,2,0,0,0,0,0,0,0,0,0,0,0,0,0,0,0,0,0,0,0,0,0,0,0,0,0,0,0,0,0,0,0,0,0,0,0,0,0,2,0,0,0,0,0,0,0,0,0,0,0,0,0,,R R DONNELLEY & SONS CO,005119573
1989,46018DLCRM2401C,DELPHI AUTOMOTIVE SYSTEMS LLC - ANDERSON,2620 E 38TH ST,ANDERSON,MADISON,IN,46013,40.076563,-85.646717,3694,,,,,,336322,,,,,,1389035216466,XYLENE (MIXED ISOMERS),001330207,YES,NON-PBT,NO,0,NO,R,Pounds,3200,15500,0,0,0,0,0,0,0,0,0,0,18700,0,7,7,0,0,0,0,0,0,0,0,0,0,0,0,0,0,0,0,0,0,0,0,0,0,0,0,0,0,0,0,0,0,0,0,0,0,18700,0,0,0,0,0,0,0,0,0,0,0,0,0,,DELPHI CORP,043898092
1989,46018DLCRM2401C,DELPHI AUTOMOTIVE SYSTEMS LLC - ANDERSON,2620 E 38TH ST,ANDERSON,MADISON,IN,46013,40.076563,-85.646717,3694,,,,,,336322,,,,,,1389035216528,"SULFURIC ACID (1994 AND AFTER ""ACID AEROSOLS"" ONLY)",007664939,NO,NON-PBT,NO,0,NO,R,Pounds,250,4100,0,0,0,0,0,0,0,0,0,0,4350,0,0,0,0,0,0,0,0,0,0,0,0,0,0,0,0,0,0,0,0,0,0,0,0,0,0,0,0,0,0,0,0,0,0,0,0,0,4350,0,0,0,0,0,0,0,0,0,0,0,0,0,,DELPHI CORP,043898092
1989,46221NTNLS1515D,NATIONAL STARCH,1515 S  DROVER ST,INDIANAPOLIS,MARION,IN,46221,39.744833,-86.174306,2046,,,,,,311221,,,,,,1389035267436,"SULFURIC ACID (1994 AND AFTER ""ACID AEROSOLS"" ONLY)",007664939,NO,NON-PBT,NO,0,NO,R,Pounds,3,26,0,0,0,0,0,0,0,0,0,0,29,0,0,0,0,0,0,0,0,0,0,0,0,0,0,0,0,0,0,0,0,0,0,0,0,0,0,0,0,0,0,0,0,0,0,0,0,0,29,0,0,0,0,0,0,0,0,0,0,0,0,0,,CORN PRODUCTS INTERNATIONALS,004811423
1989,47374BLDNW350NO,BELDEN,350 NW N ST,RICHMOND,WAYNE,IN,47374,39.84768,-84.904516,3357,,,,,,331422,,,,,,1389035350002,ANTIMONY COMPOUNDS,N010,YES,NON-PBT,YES,1,NO,R,Pounds,250,0,0,0,0,0,0,0,0,0,0,0,250,0,0,0,0,0,0,0,0,0,16000,0,0,0,0,0,0,0,0,0,0,16000,0,0,0,0,0,0,0,0,0,0,0,0,0,0,0,0,16250,0,0,0,0,0,0,0,0,0,0,0,0,0,,BELDEN INC,009178666
1989,47620NDNFR1200R,COUNTRYMARK REFINERY,1200 REFINERY RD,MOUNT VERNON,POSEY,IN,47620,37.925417,-87.904972,2911,,,,,,324110,,,,,,1389035425661,"SULFURIC ACID (1994 AND AFTER ""ACID AEROSOLS"" ONLY)",007664939,NO,NON-PBT,NO,0,NO,R,Pounds,0,0,0,0,0,0,0,0,0,0,0,0,0,0,0,0,0,0,0,0,0,0,0,0,0,0,0,0,0,0,0,0,0,0,0,0,0,0,0,0,0,0,0,0,0,0,0,0,0,0,0,0,0,0,0,0,0,0,0,0,0,0,0,0,,COUNTRYMARK,NA
1989,47359GRPCFCOUNT,BLACK & DECKER CORP. GRIPCO FASTENER DIV.,7345 N. 400 E.,MONTPELIER,BLACKFORD,IN,47359,40.558444,-85.296417,3452,,,,,,332722,,,,,,1389035533025,CADMIUM,007440439,YES,NON-PBT,YES,1,YES,R,Pounds,250,250,250,0,0,0,0,0,0,0,0,0,750,250,0,250,0,0,0,0,0,0,2600,0,0,0,0,0,0,0,0,0,0,2600,0,0,0,0,0,0,0,0,0,0,0,0,0,0,0,0,3600,0,0,0,0,0,0,0,0,0,0,0,0,0,,BLACK & DECKER CORP,001317189
1989,46224NNCRB1500P,PRAXAIR SURFACE TECHNOLOGIES INC,1500 POLCO ST,INDIANAPOLIS,MARION,IN,46224,39.78558,-86.23481,3479,,,,,,332812,,,,,,1389035270558,NICKEL,007440020,YES,NON-PBT,YES,1,YES,R,Pounds,0,2,0,0,0,0,0,0,0,0,0,0,2,21,0,21,0,0,0,0,0,0,0,0,0,0,0,0,0,0,0,0,0,0,0,0,0,0,0,0,0,0,0,0,0,0,0,0,0,0,23,0,0,0,0,0,0,0,0,0,0,0,0,0,,PRAXAIR INC,197154586
1989,46205THBRL2920D,BRULIN CORP,2920 DR ANDREW J BROWN AVE,INDIANAPOLIS,MARION,IN,46205,39.809225,-86.135607,2842,,,,,,325612,,,,,,1389035319603,DICHLOROMETHANE,000075092,YES,NON-PBT,NO,0,YES,R,Pounds,750,250,0,0,0,0,0,0,0,0,0,0,1000,0,250,250,0,0,0,0,0,0,0,0,0,0,0,0,0,0,0,0,0,0,0,0,0,0,0,0,0,0,0,0,0,0,0,0,0,0,1000,0,0,0,0,0,0,0,0,0,0,0,0,0,,NA,NA
1989,46219NVSTR5565B,PUREPOWER TECHNOLOGIES METALCASTING GROUP,5565 BROOKVILLE RD,INDIANAPOLIS,MARION,IN,46219,39.756333,-86.074972,3714,,,,,,336000,,,,,,1389035362375,DIETHANOLAMINE,000111422,YES,NON-PBT,NO,0,NO,R,Pounds,0,0,0,0,0,0,0,0,0,0,0,0,0,0,750,750,0,0,0,0,0,0,0,0,0,0,0,0,0,0,0,0,0,0,0,0,0,0,0,0,0,0,0,0,0,0,0,15288,0,15288,0,0,0,0,0,0,0,0,0,0,0,0,0,0,,NAVISTAR INC,161984646
1989,46624BRLNR21149,BERLINER & MARX INC.,21149 W. ROOSEVELT RD.,SOUTH BEND,ST JOSEPH,IN,46624,41.593926,-86.275945,2011,,,,,,311611,,,,,,1389035371032,CHLORINE,007782505,YES,NON-PBT,NO,0,NO,R,Pounds,250,0,0,0,0,0,0,0,0,0,0,0,250,0,0,0,0,0,0,0,0,0,0,0,0,0,0,0,0,0,0,0,0,0,0,0,0,0,0,0,0,0,0,0,0,0,0,0,0,0,250,0,0,0,0,0,0,0,0,0,0,0,0,0,,BEATRICE CO INC,NA
1989,46041XDCRP555HO,EXIDE CORP.,555 HOKE AVE.,FRANKFORT,CLINTON,IN,460410748,40.28364,-86.496608,3691,,,,,,335911,,,,,,1389035388230,LEAD COMPOUNDS,N420,YES,PBT,YES,1,NO,R,Pounds,250,250,250,0,0,0,0,0,0,0,0,0,750,250,0,250,0,0,0,0,0,0,3500,0,0,0,0,0,0,0,0,0,0,3500,0,0,0,0,0,0,0,0,0,0,0,0,0,0,0,0,4500,0,0,0,0,0,0,0,0,0,0,0,0,0,,EXIDE CORP,038009866
1989,46550VTCNC900EW,VITCO INDUSTRIES INC.,900 E WABASH AVE,NAPPANEE,ELKHART,IN,46550,41.439917,-85.990722,3469,,,,,,332116,,,,,,1389035453075,CHROMIUM,007440473,YES,NON-PBT,YES,1,YES,R,Pounds,0,1,0,0,0,0,0,0,0,0,0,0,1,0,0,0,0,0,0,0,0,0,0,0,0,0,0,0,0,0,0,0,0,0,0,0,0,0,0,0,0,0,0,0,0,0,0,0,0,0,1,0,0,0,0,0,0,0,0,0,0,0,0,0,,NA,NA
1989,46394MCCHM2357S,INEOS OLIGOMERS,2357 STANDARD AVE,WHITING,LAKE,IN,46394,41.671247,-87.475234,2821,2869,,,,,325998,,,,,,1389035491974,METHANOL,000067561,YES,NON-PBT,NO,0,NO,R,Pounds,1795,250,0,0,0,0,0,0,0,0,0,0,2045,0,0,0,0,0,0,0,0,0,0,0,0,0,0,0,0,0,0,0,0,0,0,0,0,0,0,0,0,0,0,0,0,0,0,0,0,0,2045,0,0,0,0,0,0,0,0,0,0,0,0,0,,INEOS USA LLC,623804809
1989,46550HLDYR1205E,MONACO COACH CORP NAPPANEE,1205 E LINCOLN ST,NAPPANEE,ELKHART,IN,46550,41.441688,-85.987993,2434,3792,2521,,,,337110,,,,,,1389035500178,TOLUENE,000108883,YES,NON-PBT,NO,0,NO,R,Pounds,2866,27657,0,0,0,0,0,0,0,0,0,0,30523,0,0,0,0,0,0,0,0,0,0,0,0,0,0,0,0,0,0,0,0,0,0,0,0,0,0,0,0,0,0,0,0,0,0,0,0,0,30523,0,0,0,0,0,0,0,0,0,0,0,0,0,,MONACO COACH CORP,005445580
1989,47842LLLLYSTATE,CLINTON LABORATORIES,10500 S STATE RD 63,CLINTON,VERMILLION,IN,47842,39.6805,-87.4257,2833,,,,,,325411,,,,,,1389035569235,DICHLOROMETHANE,000075092,YES,NON-PBT,NO,0,YES,R,Pounds,2054000,509000,250,0,0,0,0,0,0,0,0,250,2563500,0,0,0,0,0,0,0,0,0,0,0,0,0,0,0,0,0,0,0,0,0,0,0,0,0,0,0,0,0,0,0,0,0,0,0,0,0,2563500,0,0,0,0,0,0,0,0,0,0,0,0,0,,ELI LILLY & CO,006421325
1989,47842LLLLYSTATE,CLINTON LABORATORIES,10500 S STATE RD 63,CLINTON,VERMILLION,IN,47842,39.6805,-87.4257,2833,,,,,,325411,,,,,,1389035569300,ZINC COMPOUNDS,N982,NO,NON-PBT,YES,1,NO,R,Pounds,0,0,6000,0,0,0,0,0,0,0,0,88000,94000,0,0,0,0,0,0,0,0,0,387000,0,0,0,0,0,0,0,0,0,0,387000,0,0,0,0,0,0,0,0,0,0,0,0,0,0,0,0,481000,0,0,0,0,0,0,0,0,0,0,0,0,0,,ELI LILLY & CO,006421325
1989,46176KNFFB240EL,KNAUF INSULATION,240 ELIZABETH ST,SHELBYVILLE,SHELBY,IN,46176,39.528735,-85.77168,3692,,,,,,327000,,,,,,1389035573601,"1,1,1-TRICHLOROETHANE",000071556,YES,NON-PBT,NO,0,NO,R,Pounds,350775,0,0,0,0,0,0,0,0,0,0,0,350775,0,0,0,0,0,0,0,0,0,0,0,0,0,0,0,0,0,0,0,0,0,68761,0,0,0,0,68761,0,0,0,0,0,0,0,0,0,0,350775,0,0,0,0,0,0,0,0,0,0,0,0,0,,KNAUF INSULATION,NA
1989,46703DNCRP203WE,UNIVERTICAL CORP,203 WEATHERHEAD ST,ANGOLA,STEUBEN,IN,46703,41.644278,-85.000972,3714,3341,3369,,,,325998,,,,,,1389035547191,"1,1,1-TRICHLOROETHANE",000071556,YES,NON-PBT,NO,0,NO,R,Pounds,10458,0,0,0,0,0,0,0,0,0,0,0,10458,0,0,0,0,0,0,0,0,0,0,0,0,0,0,0,0,0,0,0,0,0,0,0,0,0,0,0,0,0,0,0,0,0,0,0,0,0,10458,0,0,0,0,0,0,0,0,0,0,0,0,0,,NA,NA
1989,47274SNSMF1700E,AISIN USA MANUFACTURING INC,1700 E FOURTH ST,SEYMOUR,JACKSON,IN,47274,38.966558,-85.865279,3714,,,,,,336399,,,,,,1389035555681,METHYL ETHYL KETONE,000078933,NO,NON-PBT,NO,0,NO,R,Pounds,600,13871,0,0,0,0,0,0,0,0,0,0,14471,0,0,0,0,0,0,0,0,0,0,0,0,0,0,0,0,0,0,0,0,0,0,0,0,0,0,0,0,0,0,0,0,0,0,0,0,0,14471,0,0,0,0,0,0,0,0,0,0,0,0,0,,AISIN HOLDINGS OF AMERICA,121400014
1989,46624LLDSG3520W,HONEYWELL AEROSPACE SOUTH BEND,3520 WESTMOOR ST,SOUTH BEND,ST JOSEPH,IN,46628,41.684606,-86.299062,3728,,,,,,336413,,,,,,1389035199936,DICHLOROMETHANE,000075092,YES,NON-PBT,NO,0,YES,R,Pounds,15140,0,0,0,0,0,0,0,0,0,0,0,15140,0,0,0,0,0,0,0,0,0,0,0,0,0,0,0,0,0,0,0,0,0,0,0,0,0,0,0,0,0,0,0,4060,0,0,0,0,4060,15140,0,0,0,0,0,0,0,0,0,0,0,0,0,,HONEYWELL INTERNATIONAL INC,139691877
1989,47305MDCTY416SH,MID CITY PLATING CO. INC.,416 S HACKLEY ST,MUNCIE,DELAWARE,IN,47305,40.190867,-85.376944,3471,,,,,,332813,,,,,,1389035379561,CYANIDE COMPOUNDS,N106,YES,NON-PBT,NO,0,NO,R,Pounds,250,0,0,0,0,0,0,0,0,0,0,0,250,0,250,250,0,0,0,0,0,0,0,0,0,0,0,0,0,0,0,0,0,0,0,0,0,0,0,0,0,0,0,250,0,0,0,0,0,250,250,0,0,0,0,0,0,0,0,0,0,0,0,0,,NA,NA
1989,47905LLLLYLILLY,EVONIK DEGUSSA CORP TIPPECANOE LABORATORIES,1650 LILLY RD,LAFAYETTE,TIPPECANOE,IN,479099201,40.38875,-86.935056,2834,,,,,,325412,,,,,,1389035413119,NITRIC ACID,007697372,NO,NON-PBT,NO,0,NO,R,Pounds,250,31000,0,0,0,0,0,0,0,0,0,25,31275,0,0,0,0,0,0,0,0,0,0,0,0,0,0,0,0,0,0,0,0,0,0,0,0,0,0,0,0,0,0,0,0,0,0,0,0,0,31275,0,0,0,0,0,0,0,0,0,0,0,0,0,,EVONIK INDUSTRIES,068209295
1989,47905LLLLYLILLY,EVONIK DEGUSSA CORP TIPPECANOE LABORATORIES,1650 LILLY RD,LAFAYETTE,TIPPECANOE,IN,479099201,40.38875,-86.935056,2834,,,,,,325412,,,,,,1389035413172,"SULFURIC ACID (1994 AND AFTER ""ACID AEROSOLS"" ONLY)",007664939,NO,NON-PBT,NO,0,NO,R,Pounds,750,19000,0,0,0,0,0,0,0,0,0,290,20040,0,0,0,0,0,0,0,0,0,1500,0,0,0,0,0,0,0,0,0,0,1500,0,0,0,0,0,0,0,0,0,0,0,0,0,0,0,0,21540,0,0,0,0,0,0,0,0,0,0,0,0,0,,EVONIK INDUSTRIES,068209295
1989,47905LLLLYLILLY,EVONIK DEGUSSA CORP TIPPECANOE LABORATORIES,1650 LILLY RD,LAFAYETTE,TIPPECANOE,IN,479099201,40.38875,-86.935056,2834,,,,,,325412,,,,,,1389035413222,XYLENE (MIXED ISOMERS),001330207,YES,NON-PBT,NO,0,NO,R,Pounds,250,32000,250,0,0,0,0,0,0,0,0,1600,34100,0,0,0,0,0,0,0,0,0,490,0,0,0,0,0,0,0,0,0,0,490,0,0,0,0,0,0,0,0,0,0,120000,0,0,0,0,120000,34590,0,0,0,0,0,0,0,0,0,0,0,0,0,,EVONIK INDUSTRIES,068209295
1989,46992CNTNR455WE,PAPERWORKS INDUSTRIES INC,455 W FACTORY ST,WABASH,WABASH,IN,46992,40.790833,-85.828222,2631,,,,,,322130,,,,,,1389035417575,AMMONIUM NITRATE (SOLUTION),006484522,NO,NON-PBT,NO,0,NO,R,Pounds,0,0,2900,0,0,0,0,250,0,0,0,0,3150,0,0,0,0,0,0,0,0,0,0,0,0,0,0,0,0,0,0,0,0,0,0,0,0,0,0,0,0,0,0,0,0,0,0,0,0,0,3150,0,0,0,0,0,0,0,0,0,0,0,0,0,,PAPERWORKS INDUSTRIES INC,NA
1989,46706CPRND725W1,COOPER STANDARD AUTOMOTIVE INC,725 W 11TH ST,AUBURN,DEKALB,IN,46706,41.364592,-85.065432,3069,,,,,,326211,,,,,,1389035514140,TRICHLOROETHYLENE,000079016,YES,NON-PBT,NO,0,YES,R,Pounds,3300,21000,0,0,0,0,0,0,0,0,0,0,24300,0,6,6,0,0,0,0,0,0,1,0,0,0,0,0,0,0,0,0,0,1,0,0,0,0,0,0,0,0,0,0,50,0,0,0,0,50,24301,0,0,0,0,0,0,0,0,0,0,0,0,0,,COOPER-STANDARD AUTOMOTIVE INC,004183273
1989,47006HLLRMWPEAR,HILL-ROM INC - PLATING PLANT,101 W PEARL ST,BATESVILLE,RIPLEY,IN,47006,39.299083,-85.224583,2531,,,,,,337127,,,,,,1389035574944,NICKEL COMPOUNDS,N495,YES,NON-PBT,YES,1,NO,R,Pounds,250,250,0,0,0,0,0,0,0,0,0,0,500,250,0,250,0,0,0,0,0,0,0,0,0,0,0,0,0,0,0,0,0,0,0,0,0,0,0,0,0,0,0,0,0,0,0,0,0,0,750,0,0,0,0,0,0,0,0,0,0,0,0,0,,HILL-ROM INC,004245668
1989,47006HLLRMEPEAR,HILL-ROM INC RITTER PLANT,1125 E PEARL ST,BATESVILLE,RIPLEY,IN,47006,39.292444,-85.211333,2531,,,,,,337127,,,,,,1389035574995,DICHLOROMETHANE,000075092,YES,NON-PBT,NO,0,YES,R,Pounds,1350,11093,0,0,0,0,0,0,0,0,0,0,12443,0,0,0,0,0,0,0,0,0,0,0,0,0,0,0,0,0,0,0,0,0,0,0,0,0,0,0,0,0,0,0,0,0,0,0,0,0,12443,0,0,0,0,0,0,0,0,0,0,0,0,0,,HILLENBRAND INDUSTRIES INC,060656982
1989,46241RLLYT1500S,VERTELLUS AGRICULTURE & NUTRITION SPECIALTIES LLC,1500 S TIBBS AVE,INDIANAPOLIS,MARION,IN,46241,39.74028,-86.21833,2865,,,,,,325192,,,,,,1389035560097,BENZENE,000071432,YES,NON-PBT,NO,0,YES,R,Pounds,2784,5313,0,0,0,0,0,0,0,0,0,0,8097,0,39474,39474,0,0,0,0,0,0,3,0,0,0,0,0,0,0,0,0,0,3,0,0,0,0,0,0,0,0,0,0,0,0,0,1664,0,1664,8100,0,0,0,0,0,0,0,0,0,0,0,0,0,,VERTELLUS SPECIALTIES INC,006418685
1989,47274GTPRD1231A,VALEO SYLVANIA,1231 A AVE N,SEYMOUR,JACKSON,IN,47274,38.928932,-85.912914,3647,,,,,,336321,,,,,,1389035198237,METHANOL,000067561,YES,NON-PBT,NO,0,NO,R,Pounds,10254,41013,0,0,0,0,0,0,0,0,0,0,51267,0,0,0,0,0,0,0,0,0,0,0,0,0,0,0,0,0,0,0,0,0,0,0,0,0,0,0,0,0,0,0,0,0,0,0,0,0,51267,0,0,0,0,0,0,0,0,0,0,0,0,0,,NA,NA
1989,46706GRDNN1900S,GUARDIAN AUTOMOTIVE PRODUCTS INC,1900 S CENTER ST,AUBURN,DEKALB,IN,46706,41.35253,-85.04976,3231,,,,,,327215,,,,,,1389035215298,METHYL ETHYL KETONE,000078933,NO,NON-PBT,NO,0,NO,R,Pounds,0,11300,0,0,0,0,0,0,0,0,0,0,11300,0,0,0,0,0,0,0,0,0,0,0,0,0,0,0,0,0,0,0,0,0,0,0,0,0,0,0,0,0,0,0,0,0,0,0,0,0,11300,0,0,0,0,0,0,0,0,0,0,0,0,0,,GUARDIAN INDUSTRIES,017711859
1989,47546JFCPL12THA,JOFCO INC. PLANT 2,305 12TH AVE.,JASPER,DUBOIS,IN,47546,38.39567,-86.928474,2521,,,,,,337211,,,,,,1389035212467,TOLUENE,000108883,YES,NON-PBT,NO,0,NO,R,Pounds,1583,14251,0,0,0,0,0,0,0,0,0,0,15834,0,0,0,0,0,0,0,0,0,0,0,0,0,0,0,0,0,0,0,0,0,0,0,0,0,0,0,0,0,0,0,234,0,0,0,0,234,15834,0,0,0,0,0,0,0,0,0,0,0,0,0,,NA,NA
1989,46808DNCRP2100W,DANA LIGHT AXLE PRODUCTS LLC,2100 W STATE ST,FORT WAYNE,ALLEN,IN,46808,41.0965,-85.171861,3714,,,,,,336399,,,,,,1389035277615,BARIUM COMPOUNDS,N040,NO,NON-PBT,YES,3,NO,R,Pounds,0,0,0,0,0,0,0,0,0,0,0,0,0,0,0,0,0,0,0,0,0,0,38000,0,0,0,0,0,0,0,0,0,0,38000,0,0,0,0,0,0,0,0,0,0,0,0,0,0,0,0,38000,0,0,0,0,0,0,0,0,0,0,0,0,0,,DANA HOLDING CORP,005040555
1989,47006BTSVLEASTP,BATESVILLE MANUFACTURING INC -DOLL PLANT,1000 E PEARL ST,BATESVILLE,RIPLEY,IN,47006,39.294444,-85.213139,3995,,,,,,339995,,,,,,1389035253525,ZINC (FUME OR DUST),007440666,NO,NON-PBT,YES,4,NO,R,Pounds,750,750,0,0,0,0,0,0,0,0,0,0,1500,750,0,750,0,0,0,0,0,0,2700,0,0,0,0,0,0,0,0,0,0,2700,0,0,0,0,0,0,0,0,0,0,0,0,0,0,0,0,4950,0,0,0,0,0,0,0,0,0,0,0,0,0,,HILLENBRAND INDUSTRIES,825165132
1989,47933MPXDV905LO,"GALT CRAFTED PRODS. INC., IMPEX DIV.",905 LOUISE AVE.,CRAWFORDSVILLE,MONTGOMERY,IN,47933,40.033801,-86.88049,3452,,,,,,332722,,,,,,1389035258250,TRICHLOROETHYLENE,000079016,YES,NON-PBT,NO,0,YES,R,Pounds,75000,0,0,0,0,0,0,0,0,0,0,0,75000,0,0,0,0,0,0,0,0,0,0,0,0,0,0,0,0,0,0,0,0,0,0,0,0,0,0,0,0,0,0,0,0,0,0,52800,0,52800,75000,0,0,0,0,0,0,0,0,0,0,0,0,0,,GALT CRAFTED PRODS INC,NA
1989,46506CRTVF405NI,CREATIVE FOAM MEDICAL SYSTEMS,405 N INDUSTRIAL DR,BREMEN,MARSHALL,IN,46506,41.448382,-86.170531,3069,,,,,,326150,,,,,,1389035361056,METHYL ISOBUTYL KETONE,000108101,YES,NON-PBT,NO,0,NO,R,Pounds,3806,18332,0,0,0,0,0,0,0,0,0,0,22138,0,0,0,0,0,0,0,0,0,0,0,0,0,0,0,0,0,0,0,0,0,0,0,0,0,0,0,0,0,0,0,0,0,0,0,0,0,22138,0,0,0,0,0,0,0,0,0,0,0,0,0,,CREATIVE FOAM CORP,050620442
1989,47355SPRTNRR1US,YORK CASKET CO,2125 E CO. RD 1050 S,LYNN,RANDOLPH,IN,47355,40.01261,-84.931716,3995,,,,,,339995,,,,,,1389035358530,METHYL ISOBUTYL KETONE,000108101,YES,NON-PBT,NO,0,NO,R,Pounds,830,13378,0,0,0,0,0,0,0,0,0,0,14208,0,0,0,0,0,0,0,0,0,0,0,0,0,0,0,0,0,0,0,0,0,0,0,0,0,0,0,0,0,0,0,0,0,0,0,0,0,14208,0,0,0,0,0,0,0,0,0,0,0,0,0,,THE YORK GROUP INC,062343066
1989,46202PRCSN1110E,PRECISION MACHINE CO. INC.,1110 E. 22ND ST.,INDIANAPOLIS,MARION,IN,46202,39.79773,-86.139187,3451,,,,,,332721,,,,,,1389035434113,TRICHLOROETHYLENE,000079016,YES,NON-PBT,NO,0,YES,R,Pounds,11584,0,0,0,0,0,0,0,0,0,0,0,11584,0,0,0,0,0,0,0,0,0,0,0,0,0,0,0,0,0,0,0,0,0,0,0,0,0,0,0,0,0,0,0,0,0,0,0,0,0,11584,0,0,0,0,0,0,0,0,0,0,0,0,0,,NA,NA
1989,46515MLSNC3400M,SIEMENS HEALTHCARE DIAGNOSTICS INC,3400 MIDDLEBURY ST,ELKHART,ELKHART,IN,46516,41.681468,-85.913021,2385,,,,,,325000,,,,,,1389035492065,TOLUENE,000108883,YES,NON-PBT,NO,0,NO,R,Pounds,250,750,0,0,0,0,0,0,0,0,0,0,1000,0,250,250,6200,0,0,0,0,0,0,0,0,0,0,0,0,0,0,0,0,6200,0,0,0,0,0,0,0,0,0,0,0,0,0,0,0,0,7200,0,0,0,0,0,0,0,0,0,0,0,0,0,,SIEMENS AG,064995533
1989,47130CCDNT1008S,OCCIDENTAL CHEMICAL CORP.,1008 HWY. 131 E,JEFFERSONVILLE,CLARK,IN,47130,38.327778,-85.755556,2819,,,,,,325181,,,,,,1389035246040,"SULFURIC ACID (1994 AND AFTER ""ACID AEROSOLS"" ONLY)",007664939,NO,NON-PBT,NO,0,NO,R,Pounds,0,0,0,0,0,0,0,0,0,0,0,0,0,0,0,0,0,0,0,0,0,0,0,0,0,0,0,0,0,0,0,0,0,0,0,0,0,0,0,0,0,0,0,0,0,0,0,0,0,0,0,0,0,0,0,0,0,0,0,0,0,0,0,0,,OCCIDENTAL PETROLEUM CORP,006908354
1989,46224NNCRB1245M,PRAXAIR SURFACE TECHNOLOGIES INC,1245 MAIN ST,INDIANAPOLIS,MARION,IN,462246533,39.78331,-86.24101,3479,,,,,,332812,,,,,,1389035270610,CHROMIUM,007440473,YES,NON-PBT,YES,1,YES,R,Pounds,21,214,0,0,0,0,0,0,0,0,0,0,235,5,0,5,0,0,0,0,0,0,79,0,0,0,0,0,0,0,0,0,0,79,0,0,0,0,0,0,0,0,0,0,0,0,0,0,0,0,319,0,0,0,0,0,0,0,0,0,0,0,0,0,,PRAXAIR INC,197154586
1989,46222NNCRB4060W,PRAXAIR SURFACE TECHNOLOGIES INC.,4060 W. 10TH ST.,INDIANAPOLIS,MARION,IN,46222,39.780333,-86.227616,3479,,,,,,332812,,,,,,1389035270697,NICKEL,007440020,YES,NON-PBT,YES,1,YES,R,Pounds,0,0,0,0,0,0,0,0,0,0,0,0,0,7,0,7,0,0,0,0,0,0,0,0,0,0,0,0,0,0,0,0,0,28,0,0,0,0,0,0,0,0,0,0,0,0,28,0,0,0,35,0,0,0,0,0,0,0,0,0,0,0,0,0,,PRAXAIR INC,197154586
1989,47240FDRLMRT3BO,NTN-BCA GREENSBURG PLANT,987 N US HWY 421,GREENSBURG,DECATUR,IN,47240,39.351725,-85.50287,3562,,,,,,332991,,,,,,1389035287491,CHROMIUM COMPOUNDS(EXCEPT CHROMITE ORE MINED IN THE TRANSVAAL REGION),N090,YES,NON-PBT,YES,1,NO,R,Pounds,1,1,0,0,0,0,0,0,0,0,0,0,2,1,0,1,0,0,0,0,0,0,0,0,0,0,0,0,0,0,0,0,0,1,0,0,0,0,0,0,0,0,0,0,0,0,1,0,0,0,4,0,0,0,0,0,0,0,0,0,0,0,0,0,,NTN USA,621430610
1989,46550VTCNC900EW,VITCO INDUSTRIES INC.,900 E WABASH AVE,NAPPANEE,ELKHART,IN,46550,41.439917,-85.990722,3469,,,,,,332116,,,,,,1389035452883,"SULFURIC ACID (1994 AND AFTER ""ACID AEROSOLS"" ONLY)",007664939,NO,NON-PBT,NO,0,NO,R,Pounds,0,280,0,0,0,0,0,0,0,0,0,0,280,0,0,0,0,0,0,0,0,0,0,0,0,0,0,0,0,0,0,0,0,0,0,0,0,0,0,0,0,0,0,0,0,0,0,0,0,0,280,0,0,0,0,0,0,0,0,0,0,0,0,0,,NA,NA
1989,46550VTCNC900EW,VITCO INDUSTRIES INC.,900 E WABASH AVE,NAPPANEE,ELKHART,IN,46550,41.439917,-85.990722,3469,,,,,,332116,,,,,,1389035452958,ZINC COMPOUNDS,N982,NO,NON-PBT,YES,1,NO,R,Pounds,0,117,0,0,0,0,0,0,0,0,0,0,117,250,0,250,0,0,0,0,0,0,434,0,0,0,0,0,0,0,0,0,0,434,0,0,0,0,0,0,0,0,0,0,0,0,0,0,0,0,801,0,0,0,0,0,0,0,0,0,0,0,0,0,,NA,NA
1989,46319MRCNC420SC,AMERICAN CHEMICAL SERVICE INC,420 S COLFAX AVE,GRIFFITH,LAKE,IN,46319,41.5142,-87.4191,2869,2851,,,,,325199,,,,,,1389035496316,XYLENE (MIXED ISOMERS),001330207,YES,NON-PBT,NO,0,NO,R,Pounds,436,940,0,0,0,0,0,0,0,0,0,0,1376,0,0,0,0,0,0,0,0,0,0,0,0,0,0,0,0,0,0,0,0,0,0,0,0,0,0,0,0,0,0,0,0,0,0,0,0,0,1376,0,0,0,0,0,0,0,0,0,0,0,0,0,,NA,NA
1989,46319MRCNC420SC,AMERICAN CHEMICAL SERVICE INC,420 S COLFAX AVE,GRIFFITH,LAKE,IN,46319,41.5142,-87.4191,2869,2851,,,,,325000,,,,,,1389035496367,FREON 113,000076131,NO,NON-PBT,NO,0,NO,R,Pounds,7,560,0,0,0,0,0,0,0,0,0,0,567,0,0,0,0,0,0,0,0,0,0,0,0,0,0,0,0,0,0,0,0,0,0,0,0,0,0,0,0,0,0,0,0,0,0,0,0,0,567,0,0,0,0,0,0,0,0,0,0,0,0,0,,NA,NA
1989,46319MRCNC420SC,AMERICAN CHEMICAL SERVICE INC,420 S COLFAX AVE,GRIFFITH,LAKE,IN,46319,41.5142,-87.4191,2869,2851,,,,,325000,,,,,,1389035496417,FORMALDEHYDE,000050000,YES,NON-PBT,NO,0,YES,R,Pounds,15,12,0,0,0,0,0,0,0,0,0,0,27,0,0,0,0,0,0,0,0,0,0,0,0,0,0,0,0,0,0,0,0,0,0,0,0,0,0,0,0,0,0,0,0,0,0,0,0,0,27,0,0,0,0,0,0,0,0,0,0,0,0,0,,NA,NA
1989,46580SNMTL2156N,SUN METAL PRODS. INC.,2156 N. DETROIT ST.,WARSAW,KOSCIUSKO,IN,46580,41.25782,-85.852341,3714,3069,3079,,,,336991,,,,,,1389035500469,LEAD,007439921,YES,PBT,YES,1,YES,R,Pounds,250,0,0,0,0,0,0,0,0,0,0,0,250,0,0,0,0,0,0,0,0,0,0,0,0,0,0,0,0,0,0,0,0,0,0,0,0,0,0,0,0,0,0,0,0,0,0,0,0,0,250,0,0,0,0,0,0,0,0,0,0,0,0,0,,NA,NA
1989,46553HSKNS71103,HOSKINS MANUFACTURING CO,71103 COUNTY RD. 23,NEW PARIS,ELKHART,IN,46553,41.462505,-85.838851,3340,,,,,,331492,,,,,,1389035558790,AMMONIA,007664417,NO,NON-PBT,NO,0,NO,R,Pounds,111,0,0,0,0,0,0,0,0,0,0,0,111,0,0,0,0,0,0,0,0,0,0,0,0,0,0,0,0,0,0,0,0,0,0,0,0,0,0,0,0,0,0,0,0,0,0,0,0,0,111,0,0,0,0,0,0,0,0,0,0,0,0,0,,ARMADA CORP,005353842
1989,47532DMFRN5THVI,DMI FURNITURE INC. DESK PLANT #4,5TH & VIRGINIA ST.,FERDINAND,DUBOIS,IN,47532,38.220506,-86.864014,2511,,,,,,337122,,,,,,1389035562964,"ISOPROPYL ALCOHOL (MANUFACTURING,STRONG-ACID PROCESS ONLY,NO SUPPLIER)",000067630,NO,NON-PBT,NO,0,NO,R,Pounds,1450,13130,0,0,0,0,0,0,0,0,0,0,14580,0,0,0,0,0,0,0,0,0,0,0,0,0,0,0,0,0,0,0,0,0,0,0,0,0,0,0,0,0,0,0,750,0,0,0,0,750,14580,0,0,0,0,0,0,0,0,0,0,0,0,0,,NA,NA
1989,46203KRRMC1450S,KERR MCGEE CHEMICAL LLC,1450 EARHART ST.,INDIANAPOLIS,MARION,IN,46203,39.749158,-86.106702,2491,,,,,,321114,,,,,,1389035543343,ANTHRACENE,000120127,NO,NON-PBT,NO,0,NO,R,Pounds,81,14,0,0,0,0,0,0,0,0,0,0,95,0,16,16,0,0,0,0,0,0,73,0,0,0,0,0,0,0,0,0,0,73,0,0,0,0,0,0,0,0,0,0,0,0,0,0,0,0,168,0,0,0,0,0,0,0,0,0,0,0,0,0,,KERR-MCGEE CORP LLC,007188667
1989,46312MRCNS3761C,KEMIRA WATER SOLUTIONS INC,3761 CANAL ST,EAST CHICAGO,LAKE,IN,46312,41.646935,-87.461113,3325,,,,,,331513,,,,,,1389035200144,CHROMIUM,007440473,YES,NON-PBT,YES,1,YES,R,Pounds,0,6,0,0,0,0,0,0,0,0,0,0,6,0,0,0,0,0,0,0,0,0,3327,0,0,0,0,0,0,0,0,0,0,3327,0,0,0,0,0,0,0,0,0,0,0,0,0,0,0,0,3333,0,0,0,0,0,0,0,0,0,0,0,0,0,,KEMIRA INC,368448882
1989,46312MRCNS3761C,KEMIRA WATER SOLUTIONS INC,3761 CANAL ST,EAST CHICAGO,LAKE,IN,46312,41.646935,-87.461113,3325,,,,,,331513,,,,,,1389035200207,CHROMIUM COMPOUNDS(EXCEPT CHROMITE ORE MINED IN THE TRANSVAAL REGION),N090,YES,NON-PBT,YES,1,NO,R,Pounds,0,0,0,0,0,0,0,0,0,0,0,0,0,0,0,0,0,0,0,0,0,0,34319,0,0,0,0,0,0,0,0,0,0,34319,0,0,0,0,0,0,0,0,0,0,0,0,0,0,0,0,34319,0,0,0,0,0,0,0,0,0,0,0,0,0,,KEMIRA INC,368448882
1989,46402DLTNC1015M,DALTON CORP,1015 MASSACHUSETTS ST,GARY,LAKE,IN,46402,41.593668,-87.335723,3444,,,,,,332322,,,,,,1389035204458,ZINC (FUME OR DUST),007440666,NO,NON-PBT,YES,4,NO,R,Pounds,1201,0,0,0,0,0,0,0,0,0,0,0,1201,0,0,0,0,0,0,0,0,0,0,0,0,0,0,0,0,0,0,0,0,0,0,0,0,0,0,0,0,0,0,0,0,0,0,0,0,0,1201,0,0,0,0,0,0,0,0,0,0,0,0,0,,NA,NA
1989,46580NRYLPSTATE,ALCHEM PLASTICS CORP,3454 N DETROIT ST,WARSAW,KOSCIUSKO,IN,46582,41.28402,-85.853028,2821,3069,,,,,325211,,,,,,1389035295625,"4,4'-METHYLENEDIANILINE",000101779,YES,NON-PBT,NO,0,YES,R,Pounds,18000,10000,0,0,0,0,0,0,0,0,0,0,28000,0,0,0,0,0,0,0,0,0,0,0,0,0,0,0,0,0,0,0,0,0,0,0,0,0,0,0,0,0,0,0,0,0,0,0,0,0,28000,0,0,0,0,0,0,0,0,0,0,0,0,0,,SPARTECH CORP,086926250
1989,46517GSKTP1810W,GASKA TAPE INC,1810 W LUSHER,ELKHART,ELKHART,IN,46515,41.667034,-85.997337,2821,,,,,,326000,,,,,,1389035312596,DI(2-ETHYLHEXYL) PHTHALATE,000117817,YES,NON-PBT,NO,0,YES,R,Pounds,250,750,0,0,0,0,0,0,0,0,0,0,1000,0,0,0,0,0,0,0,0,0,0,0,0,0,0,0,0,0,0,0,0,0,0,0,0,0,0,0,0,0,0,0,0,0,0,0,0,0,1000,0,0,0,0,0,0,0,0,0,0,0,0,0,,NA,NA
1989,46626MHWKL8401E,NCH CORP MOHAWK LABS DIV,7401 E 33RD ST,INDIANAPOLIS,MARION,IN,46226,39.81652,-86.02055,2842,,,,,,325612,,,,,,1389035353059,"1,1,1-TRICHLOROETHANE",000071556,YES,NON-PBT,NO,0,NO,R,Pounds,8700,250,0,0,0,0,0,0,0,0,0,0,8950,0,0,0,0,0,0,0,0,0,0,0,0,0,0,0,0,0,0,0,0,0,0,0,0,0,0,0,0,0,0,0,0,0,0,0,0,0,8950,0,0,0,0,0,0,0,0,0,0,0,0,0,,NCH CORP,008963910
1989,46041NRRHNBEANP,ROHN INDUSTRIES INC,3595 W. STATE RD. 28 P. O. BOX 609,FRANKFORT,CLINTON,IN,46041,40.279086,-86.573449,3441,,,,,,332312,,,,,,1389035342169,NICKEL,007440020,YES,NON-PBT,YES,1,YES,R,Pounds,250,0,0,0,0,0,0,0,0,0,0,0,250,0,0,0,0,0,0,0,0,0,0,0,0,0,0,0,0,0,0,0,0,0,0,0,0,0,0,0,0,0,0,0,0,0,0,0,0,0,250,0,0,0,0,0,0,0,0,0,0,0,0,0,,ROHN INDUSTRIES INC,052848470
1989,46360PHLLPUS12L,ILLINOIS TOOL WORKS RAMSET/REDHEAD,1919 E US HWY 12,MICHIGAN CITY,LA PORTE,IN,46360,41.680605,-86.934968,3446,,,,,,332323,,,,,,1389035428642,AMMONIA,007664417,NO,NON-PBT,NO,0,NO,R,Pounds,0,0,0,0,0,0,0,0,0,0,0,0,0,0,0,0,0,0,0,0,0,0,0,0,0,0,0,0,0,0,0,0,0,0,0,0,0,0,0,0,0,0,0,0,0,0,0,0,0,0,0,0,0,0,0,0,0,0,0,0,0,0,0,0,,ILLINOIS TOOL WORKS INC,005146428
1989,46904DLCLC1800E,GM COMPONENTS HOLDINGS LLC KOKOMO OPS,2100 E LINCOLN RD,KOKOMO,HOWARD,IN,46902,40.452333,-86.114611,3469,3674,3651,3471,,,334000,,,,,,1389035471731,METHANOL,000067561,YES,NON-PBT,NO,0,NO,R,Pounds,4900,19600,0,0,0,0,0,0,0,0,0,0,24500,0,2500,2500,0,0,0,0,0,0,0,0,0,0,0,0,0,0,21960,0,0,21960,0,0,0,0,0,0,0,0,0,0,0,0,0,0,0,0,46460,0,0,0,0,0,0,0,0,0,0,0,0,0,,GENERAL MOTORS LLC,832447812
1989,46703PNLPR101WO,"PANEL PROCESSING OF INDIANA, INC.",101 WOODHULL DR.,ANGOLA,STEUBEN,IN,46703,41.66854,-84.99966,2499,,,,,,321999,,,,,,1389035190457,XYLENE (MIXED ISOMERS),001330207,YES,NON-PBT,NO,0,NO,R,Pounds,0,18807,0,0,0,0,0,0,0,0,0,0,18807,0,0,0,0,0,0,0,0,0,0,0,0,0,0,0,0,0,0,0,0,0,0,0,0,0,0,0,0,0,0,0,0,0,0,0,0,0,18807,0,0,0,0,0,0,0,0,0,0,0,0,0,,PANEL PROCESSING INC,NA
1989,47374KMPRD701SN,MASTERBRAND CABINETS INC - R ICHMOND OPERATION,"701 S ""N"" ST",RICHMOND,WAYNE,IN,47374,39.811606,-84.893593,2434,,,,,,337110,,,,,,1389035276169,CERTAIN GLYCOL ETHERS,N230,YES,NON-PBT,NO,0,NO,R,Pounds,0,6120,0,0,0,0,0,0,0,0,0,0,6120,0,0,0,0,0,0,0,0,0,0,0,0,0,0,0,0,0,0,0,0,0,0,0,0,0,0,0,0,0,0,0,1280,0,0,0,0,1280,6120,0,0,0,0,0,0,0,0,0,0,0,0,0,,FORTUNE BRANDS,001265768
1989,46808DNCRP2100W,DANA LIGHT AXLE PRODUCTS LLC,2100 W STATE ST,FORT WAYNE,ALLEN,IN,46808,41.0965,-85.171861,3714,,,,,,336399,,,,,,1389035277627,MANGANESE COMPOUNDS,N450,YES,NON-PBT,YES,1,NO,R,Pounds,0,0,0,0,0,0,0,0,0,0,0,0,0,0,0,0,0,0,0,0,0,0,0,0,0,0,0,0,0,0,0,0,0,0,0,0,0,0,0,0,0,0,0,0,0,0,0,1500,0,1500,0,0,0,0,0,0,0,0,0,0,0,0,0,0,,DANA HOLDING CORP,005040555
1989,47202CMPLS2860N,COMO PRODUCTS CORP.,2860 N. NATIONAL RD.,COLUMBUS,BARTHOLOMEW,IN,47201,39.226733,-85.895626,3082,,,,,,326121,,,,,,1389035262702,ACETONE,000067641,NO,NON-PBT,NO,0,NO,R,Pounds,14186,851,0,0,0,0,0,0,0,0,0,0,15037,0,0,0,0,0,0,0,0,0,13335,0,0,0,0,0,0,0,0,0,0,13335,0,0,0,0,0,0,0,0,0,0,0,0,0,0,0,0,28372,0,0,0,0,0,0,0,0,0,0,0,0,0,,LDM TECHNOLOGIES INC,117470674
1989,46750HNTNG970EA,ECOLAB INC.,970 E. TIPTON ST.,HUNTINGTON,HUNTINGTON,IN,467501611,40.891842,-85.490014,2842,,,,,,325612,,,,,,1389035354517,PHOSPHORIC ACID,007664382,NO,NON-PBT,NO,0,NO,R,Pounds,0,0,0,0,0,0,0,0,0,0,0,0,0,0,250,250,0,0,0,0,0,0,0,0,0,0,0,0,0,0,0,0,0,0,0,0,0,0,0,0,0,0,0,0,0,0,0,0,0,0,0,0,0,0,0,0,0,0,0,0,0,0,0,0,,ECOLAB INC,037198215
1989,47274CRGLL401AG,ANDERSONS INC,101 AGRICO LN,SEYMOUR,JACKSON,IN,47274,38.9625,-85.8625,INVA,,,,,,325312,,,,,,1389035403613,AMMONIUM NITRATE (SOLUTION),006484522,NO,NON-PBT,NO,0,NO,R,Pounds,1547,250,0,0,0,0,0,0,0,0,0,0,1797,0,0,0,0,0,0,0,0,0,0,0,0,0,0,0,0,0,0,0,0,0,0,0,0,0,0,0,0,0,0,0,0,0,0,0,0,0,1797,0,0,0,0,0,0,0,0,0,0,0,0,0,,THE ANDERSONS INC,007903628
1989,46241MNSYP4351W,HENRY CO,4351 W MORRIS ST,INDIANAPOLIS,MARION,IN,46241,39.749627,-86.232676,2952,,,,,,324122,,,,,,1389035502792,ANTHRACENE,000120127,NO,NON-PBT,NO,0,NO,R,Pounds,0,0,0,0,0,0,0,0,0,0,0,0,0,0,0,0,0,0,0,0,0,0,0,0,0,0,0,0,0,0,0,0,0,0,0,0,0,0,0,0,0,0,0,0,0,0,0,0,0,0,0,0,0,0,0,0,0,0,0,0,0,0,0,0,,HENRY CO,NA
1989,46802GNRLL1635B,GE CONSUMER & INDUSTRIAL BROADWAY,1635 BROADWAY AVE,FORT WAYNE,ALLEN,IN,46802,41.071277,-85.149168,3621,3612,,,,,335312,,,,,,1389035508617,AMMONIA,007664417,NO,NON-PBT,NO,0,NO,R,Pounds,68,0,0,0,0,0,0,0,0,0,0,0,68,0,0,0,0,0,0,0,0,0,0,0,0,0,0,0,0,0,0,0,0,0,0,0,0,0,0,0,0,0,0,0,0,0,0,0,0,0,68,0,0,0,0,0,0,0,0,0,0,0,0,0,,GE CO,001367960
1989,46401GRYCL2800E,REPUBLIC ENGINEERED PRODUCTS INC -  GARY CFB,2800 E DUNES HWY,GARY,LAKE,IN,464021607,41.59824,-87.30701,3316,,,,,,331221,,,,,,1389035539509,CHROMIUM COMPOUNDS(EXCEPT CHROMITE ORE MINED IN THE TRANSVAAL REGION),N090,YES,NON-PBT,YES,1,NO,R,Pounds,0,130,0,0,0,0,0,0,0,0,0,0,130,0,0,0,0,0,0,0,0,0,0,0,0,0,0,0,0,0,0,0,0,0,0,0,0,0,0,0,0,0,0,0,0,0,0,0,0,0,130,0,0,0,0,0,0,0,0,0,0,0,0,0,,REPUBLIC ENGINEERED PRODUCTS INC,120806711
1989,47808MBRDR630NO,SHERWIN-WILLIAMS CO,180 CANAL ST,TERRE HAUTE,VIGO,IN,47808,39.474482,-87.414967,2851,,,,,,325510,,,,,,1389035232406,ZINC COMPOUNDS,N982,NO,NON-PBT,YES,1,NO,R,Pounds,0,250,0,0,0,0,0,0,0,0,0,0,250,0,0,0,0,0,0,0,0,0,0,0,0,0,0,0,0,0,0,0,0,0,0,0,0,0,0,0,0,0,0,0,0,0,0,0,0,0,250,0,0,0,0,0,0,0,0,0,0,0,0,0,,THE SHERWIN WILLIAMS CO,004206397
1989,46515TLDYN1937S,DYNAMIC METAL FORMING INC.,1937 STERLING AVE.,ELKHART,ELKHART,IN,46516,41.668461,-85.953595,3317,3499,,,,,332000,,,,,,1389035311289,NICKEL,007440020,YES,NON-PBT,YES,1,YES,R,Pounds,250,0,0,0,0,0,0,0,0,0,0,0,250,250,0,250,0,0,0,0,0,0,0,0,0,0,0,0,0,0,0,0,250,250,0,0,0,0,0,0,0,0,0,0,0,0,0,0,0,0,750,0,0,0,0,0,0,0,0,0,0,0,0,0,,DYNAMIC METAL FORMING INC,042953740
1989,46801SLTRS2400T,VALBRUNA SLATER STAINLESS INC,2400 TAYLOR ST W,FORT WAYNE,ALLEN,IN,46802,41.06764,-85.17147,3312,,,,,,331221,,,,,,1389035343437,NICKEL COMPOUNDS,N495,YES,NON-PBT,YES,1,NO,R,Pounds,250,250,0,0,0,0,0,0,0,0,0,0,500,2200,0,2200,0,0,0,0,0,0,3450,0,0,0,0,0,0,0,0,0,0,8250,0,0,0,0,0,0,0,0,0,4800,0,0,0,0,0,0,10950,0,0,0,0,0,0,0,0,0,0,0,0,0,,VALBRUNA STAINLESS INC,809452675
1989,46320MRCNM1100I,CARGILL TEXTURIZING SOLUTIONS,1100 INDIANAPOLIS BLVD,HAMMOND,LAKE,IN,46320,41.694444,-87.515833,2046,,,,,,311221,,,,,,1389035328285,"HYDROCHLORIC ACID (1995 AND AFTER ""ACID AEROSOLS"" ONLY)",007647010,YES,NON-PBT,NO,0,NO,R,Pounds,0,250,0,0,0,0,0,0,0,0,0,0,250,0,0,0,0,0,0,0,0,0,0,0,0,0,0,0,0,0,0,0,0,0,0,0,0,0,0,0,0,0,0,0,0,0,0,0,0,0,250,0,0,0,0,0,0,0,0,0,0,0,0,0,,CARGILL INC,006249189
1989,47346NGNPR551SO,AUTOCAR LLC,551 S WASHINGTON ST,HAGERSTOWN,WAYNE,IN,47346,39.904667,-85.160611,3592,,,,,,336311,,,,,,1389035464445,"SULFURIC ACID (1994 AND AFTER ""ACID AEROSOLS"" ONLY)",007664939,NO,NON-PBT,NO,0,NO,R,Pounds,0,0,224765,0,0,0,0,0,0,0,0,0,224765,0,0,0,0,0,0,0,0,0,0,0,0,0,0,0,0,0,0,0,0,0,0,0,0,0,0,0,0,0,0,0,0,0,250,0,0,250,224765,0,0,0,0,0,0,0,0,0,0,0,0,0,,GVW HOLDINGS LLC,NA
1989,46706CPRND725W1,COOPER STANDARD AUTOMOTIVE INC,725 W 11TH ST,AUBURN,DEKALB,IN,46706,41.364592,-85.065432,3069,,,,,,326291,,,,,,1389035514088,METHYL ISOBUTYL KETONE,000108101,YES,NON-PBT,NO,0,NO,R,Pounds,2000,93000,0,0,0,0,0,0,0,0,0,0,95000,0,0,0,0,0,0,0,0,0,0,0,0,0,0,0,0,0,0,0,0,0,0,0,0,0,0,0,0,0,0,0,2300,0,0,0,0,2300,95000,0,0,0,0,0,0,0,0,0,0,0,0,0,,COOPER-STANDARD AUTOMOTIVE INC,004183273
1989,47401GNRLL301NO,GEA BPO LLC,301 N CURRY PIKE,BLOOMINGTON,MONROE,IN,47404,39.17196,-86.58298,3632,,,,,,335222,,,,,,1389035514811,CERTAIN GLYCOL ETHERS,N230,YES,NON-PBT,NO,0,NO,R,Pounds,0,17600,0,0,0,0,0,0,0,0,0,0,17600,0,0,0,0,0,0,0,0,0,0,0,0,0,0,0,0,0,0,0,0,0,0,0,0,0,0,0,0,0,0,0,0,0,0,0,0,0,17600,0,0,0,0,0,0,0,0,0,0,0,0,0,,GENERAL ELECTRIC CO (GE CO),001367960
1989,46135LNSTRPUTNA,BUZZI UNICEM USA - GREENCASTLE PLANT,3301 S COUNTY RD 150 W,GREENCASTLE,PUTNAM,IN,46135,39.615889,-86.868917,3241,,,,,,327310,,,,,,1389035517756,XYLENE (MIXED ISOMERS),001330207,YES,NON-PBT,NO,0,NO,R,Pounds,19273,0,0,0,0,0,0,0,0,0,0,0,19273,0,0,0,0,0,0,0,0,0,0,0,0,0,0,0,0,0,0,0,0,0,0,0,0,0,0,0,0,0,0,0,0,0,0,0,0,0,19273,0,0,0,0,0,0,0,0,0,0,0,0,0,,BUZZI UNICEM USA,611764820
1989,46135LNSTRPUTNA,BUZZI UNICEM USA - GREENCASTLE PLANT,3301 S COUNTY RD 150 W,GREENCASTLE,PUTNAM,IN,46135,39.615889,-86.868917,3241,,,,,,327310,,,,,,1389035517818,METHYL ISOBUTYL KETONE,000108101,YES,NON-PBT,NO,0,NO,R,Pounds,2254,0,0,0,0,0,0,0,0,0,0,0,2254,0,0,0,0,0,0,0,0,0,0,0,0,0,0,0,0,0,0,0,0,0,0,0,0,0,0,0,0,0,0,0,0,0,0,0,0,0,2254,0,0,0,0,0,0,0,0,0,0,0,0,0,,BUZZI UNICEM USA,611764820
1989,47250GRTMN2600L,GROTE INDUSTRIES LLC,2600 LANIER DR,MADISON,JEFFERSON,IN,47250,38.77397,-85.41721,3647,,,,,,336321,,,,,,1389035564602,TOLUENE,000108883,YES,NON-PBT,NO,0,NO,R,Pounds,650,3900,0,0,0,0,0,0,0,0,0,0,4550,0,1,1,0,0,0,0,0,0,0,0,0,0,0,0,0,0,0,0,0,0,0,0,0,0,0,0,0,0,0,0,500,0,0,0,0,500,4550,0,0,0,0,0,0,0,0,0,0,0,0,0,,NA,NA
1989,46992MRKHN200BO,MARKHON INC.,200 BOND ST.,WABASH,WABASH,IN,46992,40.7983,-85.84238,3499,,,,,,332999,,,,,,1389035241809,TRICHLOROETHYLENE,000079016,YES,NON-PBT,NO,0,YES,R,Pounds,250,1260,0,0,0,0,0,0,0,0,0,0,1510,0,0,0,0,0,0,0,0,0,0,0,0,0,0,0,0,0,0,0,0,0,0,0,0,0,0,0,0,0,0,0,0,0,0,0,0,0,1510,0,0,0,0,0,0,0,0,0,0,0,0,0,,KENNEDY MANUFACTURING CO INC,005045737
1989,47371TLDYNELAFA,PORTLAND FORGE AN ALLEGHENY TECHNOLOGIES CO,E LAFAYETTE ST,PORTLAND,JAY,IN,47371,40.440556,-84.981944,3462,,,,,,332111,,,,,,1389035244223,NICKEL,007440020,YES,NON-PBT,YES,1,YES,R,Pounds,250,250,0,0,0,0,7400,0,0,0,0,0,7900,250,0,250,0,0,0,0,0,0,0,0,0,0,0,0,0,0,0,0,0,0,0,0,0,0,0,0,0,0,0,0,0,0,0,0,0,0,8150,0,0,0,0,0,0,0,0,0,0,0,0,0,,ALLEGHENY TECHNOLOGIES INC,949262737
1989,46383WNSCR2552I,AOC LLC,2552 INDUSTRIAL DR,VALPARAISO,PORTER,IN,46383,41.445687,-87.017314,2821,,,,,,325211,,,,,,1389035304702,PHTHALIC ANHYDRIDE,000085449,YES,NON-PBT,NO,0,NO,R,Pounds,250,210,0,0,0,0,0,0,0,0,0,0,460,0,0,0,0,0,0,0,0,0,0,0,0,0,0,0,0,0,0,0,0,0,0,0,0,0,0,0,0,0,0,0,0,0,0,0,0,0,460,0,0,0,0,0,0,0,0,0,0,0,0,0,,ALPHA SERVICES LLC,007037765
1989,46320MRCNN25011,SILGAN CONTAINERS MANUFACTURING CORP,2501 165TH ST,HAMMOND,LAKE,IN,46320,41.59566,-87.469615,3411,,,,,,332431,,,,,,1389035317116,METHYL ISOBUTYL KETONE,000108101,YES,NON-PBT,NO,0,NO,R,Pounds,10111,7311,0,0,0,0,0,0,0,0,0,0,17422,0,0,0,0,0,0,0,0,0,0,0,0,0,0,0,0,0,0,0,0,0,0,0,0,0,0,0,0,0,0,0,0,0,0,0,0,0,17422,0,0,0,0,0,0,0,0,0,0,0,0,0,,SILGAN HOLDINGS INC,614201895
1989,46320MRCNN25011,SILGAN CONTAINERS MANUFACTURING CORP,2501 165TH ST,HAMMOND,LAKE,IN,46320,41.59566,-87.469615,3411,,,,,,332431,,,,,,1389035317193,XYLENE (MIXED ISOMERS),001330207,YES,NON-PBT,NO,0,NO,R,Pounds,208375,88410,0,0,0,0,0,0,0,0,0,0,296785,0,0,0,0,0,0,0,0,0,0,0,0,0,0,0,0,0,0,0,0,0,0,0,0,0,0,0,0,0,0,0,0,0,0,0,0,0,296785,0,0,0,0,0,0,0,0,0,0,0,0,0,,SILGAN HOLDINGS INC,614201895
1989,46516FMXPR603IN,FOAMEX L.P.,603 INDUSTRIAL PKY.,ELKHART,ELKHART,IN,46516,41.684095,-85.934563,3086,,,,,,326100,,,,,,1389035355926,"TOLUENE-2,6-DIISOCYANATE",000091087,NO,NON-PBT,NO,0,YES,R,Pounds,1,20,0,0,0,0,0,0,0,0,0,0,21,0,0,0,0,0,0,0,0,0,0,0,0,0,0,0,0,0,0,0,0,0,0,0,0,0,0,0,0,0,0,0,0,0,0,0,0,0,21,0,0,0,0,0,0,0,0,0,0,0,0,0,,FOAMEX INTL,619971039
1989,46285LLLLY2301E,PARK FLETCHER PLANT,2301 EXECUTIVE DR.,INDIANAPOLIS,MARION,IN,46241,39.73381,-86.25527,2834,,,,,,325412,,,,,,1389035356029,"HYDROCHLORIC ACID (1995 AND AFTER ""ACID AEROSOLS"" ONLY)",007647010,YES,NON-PBT,NO,0,NO,R,Pounds,0,250,0,0,0,0,0,0,0,0,0,0,250,0,250,250,0,0,0,0,0,0,0,0,0,0,0,0,0,0,0,0,0,0,0,0,0,0,0,0,0,0,0,0,0,0,0,0,0,0,250,0,0,0,0,0,0,0,0,0,0,0,0,0,,ELI LILLY & CO,006421325
1989,47355STRLNEASTS,ASTRAL INDUSTRIES INC,502 E SHERMAN ST & 7375 S U.S. 27,LYNN,RANDOLPH,IN,473550638,40.050278,-84.935,3995,,,,,,339995,,,,,,1389035344922,BUTYL BENZYL PHTHALATE,000085687,NO,NON-PBT,NO,0,NO,R,Pounds,1185,10661,0,0,0,0,0,0,0,0,0,0,11846,0,0,0,0,0,0,0,0,0,0,0,0,0,0,0,0,0,0,0,0,0,0,0,0,0,0,0,0,0,0,0,0,0,0,0,0,0,11846,0,0,0,0,0,0,0,0,0,0,0,0,0,,NA,NA
