REPORTING YEAR	TRADE SECRET INDICATOR	TRIFID	FACILITY NAME	FACILITY STREET	FACILITY CITY	FACILITY COUNTY	FACILITY STATE	FACILITY ZIP CODE	ENTIRE FACILITY IND	PARTIAL FACILITY IND	FEDERAL FACILITY IND	GOCO FACILITY FLAG	PRIMARY SIC CODE	SIC CODE 2	SIC CODE 3	SIC CODE 4	SIC CODE 5	SIC CODE 6	NAICS ORIGIN	PRIMARY NAICS CODE	NAICS CODE 2	NAICS CODE 3	NAICS CODE 4	NAICS CODE 5	NAICS CODE 6	LATITUDE	LONGITUDE	DB NR A	DB NR B	RCRA NR A	RCRA NR B	NPDES NR A	NPDES NR B	UIC NR A	UIC NR B	PARENT COMPANY NAME	PARENT COMPANY DB NR	DOCUMENT CONTROL NUMBER	CAS NUMBER	CHEMICAL NAME	CLASSIFICATION	UNIT OF MEASURE	DIOXIN DISTRIBUTION 1	DIOXIN DISTRIBUTION 2	DIOXIN DISTRIBUTION 3	DIOXIN DISTRIBUTION 4	DIOXIN DISTRIBUTION 5	DIOXIN DISTRIBUTION 6	DIOXIN DISTRIBUTION 7	DIOXIN DISTRIBUTION 8	DIOXIN DISTRIBUTION 9	DIOXIN DISTRIBUTION 10	DIOXIN DISTRIBUTION 11	DIOXIN DISTRIBUTION 12	DIOXIN DISTRIBUTION 13	DIOXIN DISTRIBUTION 14	DIOXIN DISTRIBUTION 15	DIOXIN DISTRIBUTION 16	DIOXIN DISTRIBUTION 17	STREAM 1 - WASTE STREAM CODE	STREAM 1 - TRTMT METHOD -  SEQUENCE 1	STREAM 1 - TRTMT METHOD -  SEQUENCE 2	STREAM 1 - TRTMT METHOD -  SEQUENCE 3	STREAM 1  -TRTMT METHOD -  SEQUENCE 4	STREAM 1 - TRTMT METHOD -  SEQUENCE 5	STREAM 1 - TRTMT METHOD -  SEQUENCE 6	STREAM 1 - TRTMT METHOD -  SEQUENCE 7	STREAM 1 - TRTMT METHOD -  SEQUENCE 8	STREAM 1 - RANGE INFLUENT CONCENT	STREAM 1 - TRTMT EFFICIENCY EST	STREAM 1 - BASED ON OPERATING DATA?	STREAM 2 - WASTE STREAM CODE	STREAM 2 - TRTMT METHOD -  SEQUENCE 1	STREAM 2 - TRTMT METHOD -  SEQUENCE 2	STREAM 2 - TRTMT METHOD -  SEQUENCE 3	STREAM 2  -TRTMT METHOD -  SEQUENCE 4	STREAM 2 - TRTMT METHOD -  SEQUENCE 5	STREAM 2 - TRTMT METHOD -  SEQUENCE 6	STREAM 2 - TRTMT METHOD -  SEQUENCE 7	STREAM 2 - TRTMT METHOD -  SEQUENCE 8	STREAM 2 - RANGE INFLUENT CONCENT	STREAM 2 - TRTMT EFFICIENCY EST	STREAM 2 - BASED ON OPERATING DATA?	STREAM 3 - WASTE STREAM CODE	STREAM 3 - TRTMT METHOD -  SEQUENCE 1	STREAM 3 - TRTMT METHOD -  SEQUENCE 2	STREAM 3 - TRTMT METHOD -  SEQUENCE 3	STREAM 3  -TRTMT METHOD -  SEQUENCE 4	STREAM 3 - TRTMT METHOD -  SEQUENCE 5	STREAM 3 - TRTMT METHOD -  SEQUENCE 6	STREAM 3 - TRTMT METHOD -  SEQUENCE 7	STREAM 3 - TRTMT METHOD -  SEQUENCE 8	STREAM 3 - RANGE INFLUENT CONCENT	STREAM 3 - TRTMT EFFICIENCY EST	STREAM 3 - BASED ON OPERATING DATA?	STREAM 4 - WASTE STREAM CODE	STREAM 4 - TRTMT METHOD -  SEQUENCE 1	STREAM 4 - TRTMT METHOD -  SEQUENCE 2	STREAM 4 - TRTMT METHOD -  SEQUENCE 3	STREAM 4  -TRTMT METHOD -  SEQUENCE 4	STREAM 4 - TRTMT METHOD -  SEQUENCE 5	STREAM 4 - TRTMT METHOD -  SEQUENCE 6	STREAM 4 - TRTMT METHOD -  SEQUENCE 7	STREAM 4 - TRTMT METHOD -  SEQUENCE 8	STREAM 4 - RANGE INFLUENT CONCENT	STREAM 4 - TRTMT EFFICIENCY EST	STREAM 4 - BASED ON OPERATING DATA?	STREAM 5 - WASTE STREAM CODE	STREAM 5 - TRTMT METHOD -  SEQUENCE 1	STREAM 5 - TRTMT METHOD -  SEQUENCE 2	STREAM 5 - TRTMT METHOD -  SEQUENCE 3	STREAM 5  -TRTMT METHOD -  SEQUENCE 4	STREAM 5 - TRTMT METHOD -  SEQUENCE 5	STREAM 5 - TRTMT METHOD -  SEQUENCE 6	STREAM 5 - TRTMT METHOD -  SEQUENCE 7	STREAM 5 - TRTMT METHOD -  SEQUENCE 8	STREAM 5 - RANGE INFLUENT CONCENT	STREAM 5 - TRTMT EFFICIENCY EST	STREAM 5 - BASED ON OPERATING DATA	ASSIGNED FED. FACILITY FLAG	PUBLIC CONTACT EMAIL	REVISION CODE 1	REVISION CODE 2	METAL INDICATOR	10-18-2012	
2011	NO	60172LCTRF222WC	ELECTRI-FLEX CO	222 W CENTRAL AVE	ROSELLE	DUPAGE	IL	60172	YES	NO	NO	NO								335932						41.983496	-88.085868	005246020										1311209446689	007439965	MANGANESE	TRI	Pounds																		NA									N 																																																			NO				YES	 	
2011	NO	60007PRFCT775MO	PERFECTION PLATING INC	775 MORSE AVE	ELK GROVE VILLAGE	COOK	IL	60007	YES	NO	NO	NO								332813						41.999875	-87.976306	046569620										1311209237938	007697372	NITRIC ACID	TRI	Pounds																		W	H121								N 	E1		A	A03								N 	E4																																						NO	LDELMONTE@PERFECTIONPLATE.COM			NO	 	
2011	NO	60005MBLLD2312T	EXXONMOBIL OIL CORP DES PLAINES TERMINAL	2312 TERMINAL DR	ARLINGTON HEIGHTS	COOK	IL	60005	YES	NO	NO	NO								424710						42.02451	-87.948921	194001210								EXXON MOBIL CORP	001213214	1311209277654	000110543	N-HEXANE	TRI	Pounds																		A	H040								N 	E3																																																		NO	NIKKI.ERNST@EXXONMOBIL.COM			NO	 	
2011	NO	60450QNTMC8805N	EQUISTAR CHEMICALS LP	8805 N TABLER RD	MORRIS	GRUNDY	IL	60450	YES	NO	NO	NO								325110	325211					41.414167	-88.328638	048296180								LYONDELLBASELL INDUSTRIES	194123154	1311209604762	000091203	NAPHTHALENE	TRI	Pounds																		W	H081	H101	H121	H123	H124				N 	E5		A	A01								N 	E3																																						NO	RICHARD.CARAGOL@LYONDELLBASELL.COM			NO	 	
2011	NO	62217LLNSP1901B	BALDWIN ENERGY COMPLEX	10901 BALDWIN RD	BALDWIN	RANDOLPH	IL	62217	YES	NO	NO	NO								221112						38.210176	-89.847213	044622178								DYNEGY INC	804405074	1311209359189	N040	BARIUM COMPOUNDS	TRI	Pounds																		A	A05								N 	E3																																																		NO	IR@DYNEGY.COM			YES	 	
2011	NO	62217LLNSP1901B	BALDWIN ENERGY COMPLEX	10901 BALDWIN RD	BALDWIN	RANDOLPH	IL	62217	YES	NO	NO	NO								221112						38.210176	-89.847213	044622178								DYNEGY INC	804405074	1311209359316	000108883	TOLUENE	TRI	Pounds																		NA									N 																																																			NO	IR@DYNEGY.COM			NO	 	
2011	NO	60434MBLJLINTER	EXXONMOBIL OIL CORP JOL IET REFINERY	INTERSTATE 55 & ARSENAL RD	CHANNAHON	WILL	IL	60410	YES	NO	NO	NO								324110						41.432253	-88.194159	049316776								EXXON MOBIL CORP	001213214	1311209700412	N090	CHROMIUM COMPOUNDS(EXCEPT CHROMITE ORE MINED IN THE TRANSVAAL REGION)	TRI	Pounds																		NA									N 																																																			NO	TRICIA.LSIMPSON@EXXONMOBIL.COM			YES	 	
2011	NO	61401NTNLCRTE15	NATIONAL COATINGS INC	604 US HWY 150 E	GALESBURG	KNOX	IL	614011314	YES	NO	NO	NO								325510						40.927433	-90.325302			ILD021164983								1311209439405	N230	CERTAIN GLYCOL ETHERS	TRI	Pounds																		NA									N 																																																			NO	TFERGUSON@NATCOINC.COM			NO	 	
2011	NO	62201TRDWS7MOBI	VEOLIA ES TECHNICAL SOLUTIONS LLC	7 MOBILE AVE	SAUGET	ST CLAIR	IL	622011069	YES	NO	NO	NO								562211						38.597964	-90.18201	145968124		ILD098642424		IL0071552				VEOLIA ENVIRONMENTAL SERVICES	145968124	1311209507641	004080313	1-(3-CHLOROALLYL)-3,5,7-TRIAZA-1-AZONIAADAMANTANE CHLORIDE	TRI	Pounds																		S	H040								N 	E2		L	H040								N 	E2		A	H040	A03							N 	E2		W	H040								N 	E2														NO	DENNIS.WARCHOL@VEOLIAES.COM			NO	 	
2011	NO	62201TRDWS7MOBI	VEOLIA ES TECHNICAL SOLUTIONS LLC	7 MOBILE AVE	SAUGET	ST CLAIR	IL	622011069	YES	NO	NO	NO								562211						38.597964	-90.18201	145968124		ILD098642424		IL0071552				VEOLIA ENVIRONMENTAL SERVICES	145968124	1311209508112	000108907	CHLOROBENZENE	TRI	Pounds																		L	H040								N 	E2		A	H040	A03							N 	E2		S	H040								N 	E2		W	H040								N 	E2														NO	DENNIS.WARCHOL@VEOLIAES.COM			NO	 	
2011	NO	62201TRDWS7MOBI	VEOLIA ES TECHNICAL SOLUTIONS LLC	7 MOBILE AVE	SAUGET	ST CLAIR	IL	622011069	YES	NO	NO	NO								562211						38.597964	-90.18201	145968124		ILD098642424		IL0071552				VEOLIA ENVIRONMENTAL SERVICES	145968124	1311209508326	000140885	ETHYL ACRYLATE	TRI	Pounds																		A	H040	A03							N 	E2		W	H040								N 	E2		L	H040								N 	E2		S	H040								N 	E2														NO	DENNIS.WARCHOL@VEOLIAES.COM			NO	 	
2011	NO	62201TRDWS7MOBI	VEOLIA ES TECHNICAL SOLUTIONS LLC	7 MOBILE AVE	SAUGET	ST CLAIR	IL	622011069	YES	NO	NO	NO								562211						38.597964	-90.18201	145968124		ILD098642424		IL0071552				VEOLIA ENVIRONMENTAL SERVICES	145968124	1311209509417	001330207	XYLENE (MIXED ISOMERS)	TRI	Pounds																		S	H040								N 	E2		A	H040	A03							N 	E2		L	H040								N 	E2		W	H040								N 	E2														NO	DENNIS.WARCHOL@VEOLIAES.COM			NO	 	
2011	NO	62953MSSRPCOUNT	LAFARGE MIDWEST INC JOPPA PLANT	2500 PORTLAND RD	GRAND CHAIN	MASSAC	IL	62953	YES	NO	NO	NO								327310						37.23121	-88.876234	131582033								LAFARGE NA INC	067568246	1311209223306	N090	CHROMIUM COMPOUNDS(EXCEPT CHROMITE ORE MINED IN THE TRANSVAAL REGION)	TRI	Pounds																		A	A06								N 	E3																																																		NO	LOUIS.DEROSE@LAFARGE-NA.COM			YES	 	
2011	NO	60134JHNSN300SO	JOHNSON CONTROLS	300 S GLENGARRY DR	GENEVA	KANE	IL	60134	YES	NO	NO	NO								335911						41.88462	-88.28248	964899686								JOHNSON CONTROLS INC	006092860	1311209484056	N010	ANTIMONY COMPOUNDS	TRI	Pounds																		NA									N 																																																			NO	AARON.E.BYRNE@JCI.COM			YES	 	
2011	NO	60938NCBRS540EU	INCOBRASA INDUSTRIES LTD	540 E US HWY 24	GILMAN	IROQUOIS	IL	609380098	YES	NO	NO	NO								311222						40.750974	-88.018074	959407479										1311209019924	000110543	N-HEXANE	TRI	Pounds																		NA									N 																																																			NO	KERRY_FOGARTY@INCOBRASA.COM			NO	 	
2011	NO	62540KNCDG4MILE	DOMINION KINCAID GENERATION LLC	RT 104	KINCAID	CHRISTIAN	IL	62540	YES	NO	NO	NO								221112						39.590694	-89.497111									DOMINION RESOURCES INC	196579130	1311209205780	N100	COPPER COMPOUNDS	TRI	Pounds																		W	H129	H124							N 	E5		W	H129	H123	H071	H121					N 	E4		A	A06	A05							N 	E3																										NO				YES	 	
2011	NO	60620RLBLG819WE	RELIABLE GALVANIZING	819 W 88TH ST	CHICAGO	COOK	IL	60620	YES	NO	NO	NO								332812						41.734294	-87.644258											1311209828437	N420	LEAD COMPOUNDS	PBT	Pounds																		NA									N 																																																			NO	MICHAEL@RELIABLEGALVANIZING.COM			YES	 	
2011	NO	60101RNDST381AR	ARI INDUSTRIES INC	381 ARI CT	ADDISON	DUPAGE	IL	601014353	YES	NO	NO	NO								334513						41.92035	-88.04016	055416214								OKZAKI MANUFACTURING CO	690579580	1311209091368	007664417	AMMONIA	TRI	Pounds																		NA									N 																																																			NO	EPCRA@USCOMPLIANCE.COM			NO	 	
2011	NO	60419SFTYK633E1	SAFETY-KLEEN SYSTEMS	633 E 138TH ST	DOLTON	COOK	IL	60419	YES	NO	NO	NO								562211	562920					41.6445	-87.6062	809368954	130871700							SAFETY-KLEEN HOLDCO INC	809368954	1311209695749	007439921	LEAD	TRI	Pounds																		NA									N 																																																			NO	VICTOR.BELL@SAFETY-KLEEN.COM			YES	 	
2011	NO	60438BCHMC2700E	NB COATINGS INC	2701 E 170TH ST	LANSING	COOK	IL	60438	YES	NO	NO	NO								325510						41.5865	-87.54912	085229448								NIPPON PAINT (USA) INC	787612795	1311209491202	000100414	ETHYLBENZENE	TRI	Pounds																		A	A02	H040							N 	E4																																																		NO	MGAITHER@NBCOATINGS.COM			NO	 	
2011	NO	61547CTRPL8826W	CATERPILLAR INC MAPLETON PLANT	8826 W RT 24	MAPLETON	PEORIA	IL	61547	YES	NO	NO	NO								331511						40.568506	-89.717836									CATERPILLAR INC	005070479	1311209554361	000080159	CUMENE HYDROPEROXIDE	TRI	Pounds																		NA									N 																																																			NO	DUGAN_JIM@CAT.COM			NO	 	
2011	NO	60901THVLS901NO	ENGINEERED POLYMER SOLUTIONS INC D/B/A VALSPAR COATINGS	901 N GREENWOOD AVE	KANKAKEE	KANKAKEE	IL	60901	YES	NO	NO	NO								325510						41.13032	-87.85489	113855266								THE VALSPAR CORP	050736453	1311209711100	000095636	1,2,4-TRIMETHYLBENZENE	TRI	Pounds																		NA									N 																																																			NO	SETHIER@VALSPAR.COM			NO	 	
2011	NO	60499CHMCN7050W	UNIVAR USA INC	7050 W 71ST ST	BEDFORD PARK	COOK	IL	60499	YES	NO	NO	NO								424690						41.762887	-87.796397									UNIVAR USA INC	102971785	1311209034596	001330207	XYLENE (MIXED ISOMERS)	TRI	Pounds																		NA									N 																																																			NO	MARK.HESS@UNIVARUSA.COM			NO	 	
2011	NO	60409DYNGLPLUMM	GELITA USA - CHICAGO (FORMERLY DYNAGEL INC)	10 WENTWORTH AVE	CALUMET CITY	COOK	IL	60409	YES	NO	NO	NO								325998						41.624409	-87.52995	002064764								GELITA USA		1311209103035	007664417	AMMONIA	TRI	Pounds																		NA									N 																																																			NO	JIM.BOGUSLAWSKI@GELITA.COM			NO	 	
2011	NO	60410CLMNC23247	INTERSTATE CHEMICAL CO INC	23247 W EAMES ST	CHANNAHON	WILL	IL	60410	YES	NO	NO	NO								424690						41.465225	-88.178177	795529874								INTERSTATE CHEMICAL CO INC	044313443	1311209155441	001330207	XYLENE (MIXED ISOMERS)	TRI	Pounds																		NA									N 																																																			NO	JCORBETT@INTERSTATECHEMICAL.COM			NO	 	
2011	NO	60623CRWFR3501S	CRAWFORD GENERATING STATION	3501 S PULASKI	CHICAGO	COOK	IL	60623	YES	NO	NO	NO								221112						41.83103	-87.72423	114466571								EDISON INTERNATIONAL	195138458	1311209372402	007664939	SULFURIC ACID (1994 AND AFTER "ACID AEROSOLS" ONLY)	TRI	Pounds																		A	H082	A05							N 	E5																																																		NO	DMCFARLAN@MWGEN.COM			NO	 	
2011	NO	60409KSPCL215ED	OSHKOSH SPECIALTY VEHICLES	2150 E DOLTON RD	CALUMET CITY	COOK	IL	60409	YES	NO	NO	NO								336999						41.63396	-87.57589	793385360	121827187							OSHKOSH CORP	006070445	1311209440573	007439921	LEAD	TRI	Pounds																		NA									N 																																																			NO	SKLIKA@PIERCEMFG.COM			YES	 	
2011	NO	60426NVRTF16435	ENVIRITE OF ILLINOIS INC	16435 S CENTER AVE	HARVEY	COOK	IL	60426	YES	NO	NO	NO								562211						41.58987	-87.64617									EQ HOLDINGS CO	022528553	1311209487091	N100	COPPER COMPOUNDS	TRI	Pounds																		W	H129	H077	H121	H071	H073	H111	H123		N 	E6		S	H129	H077	H071	H073	H111				N 	E6																																						NO	JOHN.DANIELSON@EQONLINE.COM			YES	 	
2011	NO	6123WPTRTR11PAT	PATRIOT RENEWABLE FUELS LLC	101 PATRIOT WAY	ANNAWAN	HENRY	IL	61234	YES	NO	NO	NO								325193						41.4023	-89.90486	189371326										1311209505243	000050000	FORMALDEHYDE	TRI	Pounds																		NA									N 																																																			NO	VMCCABE@PATRIOTETHANOL.COM			NO	 	
2011	NO	6230WPRNCG221PR	PRINCE AGRI PRODUCTS INC	221 PRINCE AGRI WAY	QUINCY	ADAMS	IL	62305	YES	NO	NO	NO								311119						39.89207	-91.41219	006989008								PHIBRO ANIMAL HEALTH CORP	006989008	1311209595040	N450	MANGANESE COMPOUNDS	TRI	Pounds																		NA									N 																																																			NO	TIM.COSTIGAN@PRINCEAGRI.COM			YES	 	
2011	NO	60450RCHHL7440W	HB FULLER CO	7440 W DUPONT RD	MORRIS	GRUNDY	IL	60450	YES	NO	NO	NO								325520						41.305278	-88.56	480007400								HB FULLER CO	006159776	1311209602313	000108054	VINYL ACETATE	TRI	Pounds																		NA									N 																																																			NO	PHILLIP.VANSTONE@HBFULLER.COM			NO	 	
2011	NO	60406WCRCH3555W	TMS MANUFACTURING	3555 W 123RD ST	ALSIP	COOK	IL	60803	YES	NO	NO	NO								325510						41.669511	-87.708829	010284206								TERRAZZO & MARBLE SUPPLY CO	010284206	1311209657055	007440666	ZINC (FUME OR DUST)	TRI	Pounds																																																																														NO	MGUZMAN@TMSUPPLY.COM			YES	 	
2011	NO	60608HKRMR1359W	H KRAMER & CO	1345 W 21ST ST	CHICAGO	COOK	IL	60608	YES	NO	NO	NO								331423						41.854261	-87.659706	005067772										1311209724374	007439965	MANGANESE	TRI	Pounds																		A	A06								N 	E4		W	H077								N 	E5																																						NO	CHAPMANH@HKRAMER.COM			YES	 	
2011	NO	60619VRSNC1355E	A FINKL & SONS CO	1355 E 93RD ST	CHICAGO	COOK	IL	60619	YES	NO	NO	NO								331111						41.72591	-87.59008	005129697										1311209771221	007440020	NICKEL	TRI	Pounds																		NA									N 																																																			NO	STEVED@FINKL.COM			YES	 	
2011	NO	60007CLRLM1950P	CLEAR LAM PACKAGING INC	1950 PRATT BLVD	ELK GROVE VILLAGE	COOK	IL	60007	YES	NO	NO	NO								326112						41.99832	-87.95433	048950216										1311209735669	000108883	TOLUENE	TRI	Pounds																		NA									N 																																																			NO	LJORDAHL@CLEARLAM.COM			NO	 	
2011	NO	61103CLPSC1665E	ECLIPSE	1665 ELMWOOD RD	ROCKFORD	WINNEBAGO	IL	61103	YES	NO	NO	NO								333414						42.3321	-89.07118	005101266										1311209771613	007440020	NICKEL	TRI	Pounds																		NA									N 																																																			NO	DWARD@ECLIPSENET.COM			YES	 	
2011	NO	61561NTNLW59WFR	THYSSEN KRUPP ACCESS	509 W FRONT ST	ROANOKE	WOODFORD	IL	61561	YES	NO	NO	NO								561790						40.793511	-89.202671									THYSSENKRUPP		1311209083536	007439921	LEAD	TRI	Pounds																		NA									N 																																																			NO	RANDEN@MIDWEST-TRAINING.COM			YES	 	
2011	NO	60088SNVYN201DE	US NAVY NAVAL STATION GREAT LAKES	201 DECATUR AVE BUILDING 1A	GREAT LAKES	LAKE	IL	60088	YES	NO	YES	NO								928110						42.31133	-87.83397									US DEPARTMENT OF DEFENSE		1311209626047	007782505	CHLORINE	TRI	Pounds																		NA									N 																																																			YES	MATTHEW.WOLLERT@NAVAY.MIL			NO	 	
2011	NO	60439MLSNSEASTO	ARKEMA COATINGS & RESINS	13511 MAIN ST	LEMONT	COOK	IL	60439	YES	NO	NO	NO								325612						41.687883	-87.949202	002290773								ARKEMA DELAWARE INC	002290773	1311209689708	N982	ZINC COMPOUNDS	TRI	Pounds																		A	A03								N 	E5																																																		NO	WALTER.SHARPE@ARKEMA.COM			YES	 	
2011	NO	62269LNDSN610ES	PET O'FALLON LLC	610 E STATE ST	O FALLON	ST CLAIR	IL	62269	YES	NO	NO	NO								311511						38.592014	-89.89797	127112410								DEAN FOODS CO		1311209181611	007697372	NITRIC ACID	TRI	Pounds																		W	H121								N 	E2																																																		NO	BILL_SCHAEFER@DEANFOODS.COM			NO	 	
2011	NO	60123CRNDS900NS	SKF SEALING SOLUTIONS	900 N STATE ST	ELGIN	KANE	IL	60123	YES	NO	NO	NO								339991						42.05663	-88.29483	004960829								SKF USA INC	002297661	1311209200068	N982	ZINC COMPOUNDS	TRI	Pounds																		W	H129								N 	E3																																																		NO	ROBERT.J.MARCINIEC@SKF.COM			YES	 	
2011	NO	60131SLNVL10500	SLOAN VALVE CO	10500 SEYMOUR AVE	FRANKLIN PARK	COOK	IL	601311259	YES	NO	NO	NO								332913						41.95078	-87.8886	005121033								SLOAN VALVE CO		1311209675040	N420	LEAD COMPOUNDS	PBT	Pounds																		L	H122								N 	E1		W	H077	H123	H121	H101					N 	E4		S	H123								N 	E3		S	H101								N 	E5		A	A03								N 	E3		NO	PATRICK.BOYLE@SLOANVALVE.COM			YES	 	
2011	NO	60131NLSNS9400W	NELSEN STEEL & WIRE LP	9400 W BELMONT AVE	FRANKLIN PARK	COOK	IL	60131	YES	NO	NO	NO								331221						41.93689	-87.86147											1311209386921	007439965	MANGANESE	TRI	Pounds																		NA									N 																																																			NO	SJOSENKOSKI@NELSENSTEEL.COM			YES	 	
2011	NO	60439NCLCR135TH	CITGO PETROLEUM CORP LEMONT REFINERY	135TH ST & NEW AVE	LEMONT	WILL	IL	604393659	YES	NO	NO	NO								324110						41.648667	-88.057611	136968968								CITGO PETROLEUM CORP	102417268	1311209437932	000115071	PROPYLENE	TRI	Pounds																		NA									N 																																																			NO				NO	 	
2011	NO	60101SWDNC910ST	SWD INC	910 STILES DR	ADDISON	DUPAGE	IL	60101	YES	NO	NO	NO								332813						41.91075	-88.002395	021310081										1311209191497	007440508	COPPER	TRI	Pounds																		S	H101								N 	E6		W	H124	H077	H123	H121					N 	E4																																						NO	TDELAWDER@SWDINC.COM			YES	 	
2011	NO	60031MZRCH3938P	VANTAGE SPECIALTIES	3938 PORETT DR	GURNEE	LAKE	IL	60031	YES	NO	NO	NO								325613						42.3825	-87.899722	020032470								VANTAGE SPECIALTIES INC	615568844	1311209356106	000080057	4,4'-ISOPROPYLIDENEDIPHENOL	TRI	Pounds																		S	H129								N 	E4																																																		NO	LJONES@LAMBENTCORP.COM			NO	 	
2011	NO	60647RLNDS181NC	ORLANDI STATUARY CO	1801 N CENTRAL PARK AVE	CHICAGO	COOK	IL	60647	YES	NO	NO	NO								325991						41.91402	-87.71667											1311209163839	000100425	STYRENE	TRI	Pounds																		NA									N 																																																			NO				NO	 	
2011	NO	60466HYDRT2545B	HYDRITE CHEMICAL CO	2545 BOND ST	UNIVERSITY PARK	WILL	IL	604663103	YES	NO	NO	NO								424690						41.436109	-87.750069	627781735								HYDRITE CHEMICAL CO	006435887	1311209215488	000091203	NAPHTHALENE	TRI	Pounds																																																																														NO	LOREN.MEISINGER@HYDRITE.COM			NO	 	
2011	NO	60521MDNSC210WE	MEADEN SCREW PRODUCTS CO	16W 210 W 83RD ST	BURR RIDGE	DUPAGE	IL	605275866	YES	NO	NO	NO								332721						41.737714	-87.946684			ILD005091087								1311209244680	007440020	NICKEL	TRI	Pounds																		NA									N 																																																			NO	TOM.MEADEN@MEADEN.COM			YES	 	
2011	NO	60466MCNTY1000G	RHODIA INC	24601 GOVERNORS HWY	UNIVERSITY PARK	WILL	IL	60484	YES	NO	NO	NO								325613						41.460556	-87.723096	074421462								RHODIA INC		1311209301314	000079118	CHLOROACETIC ACID	TRI	Pounds																		NA									N 																																																			NO	JEFFREY.CHOU@US.RHODIA.COM			NO	 	
2011	NO	60628MSRYC1140E	BULLEN MIDWEST INC	1140 E 103RD ST	CHICAGO	COOK	IL	60628	YES	NO	NO	NO								325611						41.70763	-87.59498											1311209360522	000107211	ETHYLENE GLYCOL	TRI	Pounds																																																																														NO	LLANNAN@AMERITECH.NET			NO	 	
2011	NO	62206FLXSY500MO	FLEXSYS AMERICA LP KRUMMRICH	500 MONSANTO AVE	SAUGET	ST CLAIR	IL	622061137	YES	NO	NO	NO								325998						38.597222	-90.170556	070998752								SOLUTIA INC	879422483	1311209176229	000100016	P-NITROANILINE	TRI	Pounds																		NA									N 																																																			NO	WWKLIM@SOLUTIA.COM			NO	 	
2011	NO	60434LCNTYROUTE	TOYAL AMERICA INC	17401 S BROADWAY	LOCKPORT	WILL	IL	60441	YES	NO	NO	NO								325131	331314	325132				41.5698	-88.08651	037041159										1311209742939	007429905	ALUMINUM (FUME OR DUST)	TRI	Pounds																		A	A06								N 	E2		A	A06								N 	E3																																						NO	THOMAS.LARSEN@TOYALA.COM			YES	 	
2011	NO	60425DBRCH333W1	DOBER CHEMICAL CORP	333 W 195TH ST	GLENWOOD	COOK	IL	60425	YES	NO	NO	NO								325612						41.535297	-87.624958	005258942								DOBER CHEMICAL CORP		1311209034750	007632000	SODIUM NITRITE	TRI	Pounds																																																																														NO	EPCRA@USCOMPLIANCE.COM			YES	 	
2011	NO	62651NTDGL550CA	UNITED GILSONITE LABORATORIES	550 CAPITOL WAY	JACKSONVILLE	MORGAN	IL	626511182	YES	NO	NO	NO								325510						39.74138	-90.27128	003033339								UNITED GILSONITE LABORATORIES		1311209134966	N230	CERTAIN GLYCOL ETHERS	TRI	Pounds																																																																														NO	UGLPR@UGL.COM			NO	 	
2011	NO	60639TMTCS4940W	TEMTCO STEEL LLC	4940 W BLOOMINGDALE AVE	CHICAGO	COOK	IL	60639	YES	NO	NO	NO								332313	423510					41.91322	-87.75075									NAMASCO CORP		1311209168297	007440508	COPPER	TRI	Pounds																		NA									N 																																																			NO				YES	 	
2011	NO	60521TRNSP421HE	VISTA-PRO AUTOMOTIVE LLC	421 HEATHROW CT	BURR RIDGE	DUPAGE	IL	60521	YES	NO	NO	NO								336399						41.748702	-87.926687	064415086								VISTA-PRO AUTOMOTIVE LLC	831678649	1311209470816	007440508	COPPER	TRI	Pounds																		NA									N 																																																			NO	PBRENINGSTALL@VISTAPROAUTO.COM			YES	 	
2011	NO	62629CRCMP701SO	HENRY TECHNOLOGIES	701 S MAIN ST	CHATHAM	SANGAMON	IL	62629	YES	NO	NO	NO								332420						39.66554	-89.70441	067408831		ILD980904015								1311209808183	007440020	NICKEL	TRI	Pounds																		NA																																																												NO	TGRISSOM@HENRYTECH.COM			YES	 	
2011	NO	6120WSTLWR43581	STEEL WAREHOUSE OF QUAD CITIES (SPC)	4305 81ST AVE W	ROCK ISLAND	ROCK ISLAND	IL	61201	YES	NO	NO	NO								332999						41.43975	-90.62991									STEEL WAREHOUSE CO LLC	005441381	1311209846563	007440473	CHROMIUM	TRI	Pounds																		NA									N 																																																			NO	VALERIAN@M3V.NET			YES	 	
2011	NO	62644HVNPWSTRTE	HAVANA POWER STATION	15260 N STATE RT 78	HAVANA	MASON	IL	62644	YES	NO	NO	NO								221112						40.281502	-90.079002	079148672								DYNEGY INC	804405074	1311209364975	001330207	XYLENE (MIXED ISOMERS)	TRI	Pounds																		NA									N 																																																			NO	IR@DYNEGY.COM			NO	 	
2011	NO	60622PRRMT865NP	VCNA PRAIRIE - YARD 1032	865 N PEORIA	CHICAGO	COOK	IL	60622	YES	NO	NO	NO								327320						41.896622	-87.649783	025697343								PRAIRIE MATERIAL SALES INC	025697343	1311209407840	N511	NITRATE COMPOUNDS	TRI	Pounds																																																																														NO	MKMARIOTTI@PRAIRIE.COM			NO	 	
2011	NO	60638GMTHS6100S	GE MATHIS CO	6100 S OAK PARK AVE	CHICAGO	COOK	IL	60638	YES	NO	NO	NO								332322						41.7812	-87.79111	005138367								GENERAL ELECTRIC CO (GE CO)		1311209337397	007439965	MANGANESE	TRI	Pounds																		NA									N 																																																			NO	EPCRA@USCOMPLIANCE.COM			YES	 	
2011	NO	60614HRWNL2015N	HORWEEN LEATHER CO	2015 N ELSTON	CHICAGO	COOK	IL	60614	YES	NO	NO	NO								316110						41.91834	-87.6678	005128871										1311209579592	N450	MANGANESE COMPOUNDS	TRI	Pounds																		NA									N 																																																			NO	RPAUL@HORWEEN.COM			YES	 	
2011	NO	61350BRGWRCANAL	SABIC INNOVATIVE PLASTICS US LLC	2148 N 2753RD RD	OTTAWA	LA SALLE	IL	613509766	YES	NO	NO	NO								325211						41.337308	-88.755779									SABIC INNOVATIVE PLASTICS US LLC		1311209317597	N010	ANTIMONY COMPOUNDS	TRI	Pounds																		W	H121	H123	H081	H123	H101				N 	E6		A	A06								N 	E3																																						NO	BRENT.FINK@SABIC-IP.COM			YES	 	
2011	NO	62454MRTHNMARAT	MARATHON PETROLEUM CO LP ILLINOIS REFINING DIV	100 MARATHON AVE	ROBINSON	CRAWFORD	IL	62454	YES	NO	NO	NO								324110	424710					39.002833	-87.728528	005476882	175805027							MARATHON PETROLEUM CORP	968393996	1311209728587	007664417	AMMONIA	TRI	Pounds																		A	H083								N 	E4		W	H124	H077	H081	H123	H129	H124			N 	E4																																						NO				NO	 	
2011	NO	60618PRCSN2419W	PRECISION FORMING & STAMPING C O	2419 W GEORGE ST	CHICAGO	COOK	IL	60618	YES	NO	NO	NO								332116						41.933978	-87.688388											1311209801620	000079016	TRICHLOROETHYLENE	TRI	Pounds																		NA									N 																																																			NO				NO	 	
2011	NO	60014KNCKM420ET	KNAACK LLC	420 E TERRA COTTA AVE	CRYSTAL LAKE	MCHENRY	IL	60014	YES	NO	NO	NO								332439						42.24854	-88.30417	005238324								EMERSON ELECTRIC CO	006269633	1311208997318	007439965	MANGANESE	TRI	Pounds																		NA									N 																																																			NO	RICH.GEILFUSS@EMERSON.COM			YES	 	
2011	NO	61108THVLS200SA	ENGINEERED POLYMER SOLUTIONS INC D/B/A VALSPAR COATINGS	1215 NELSON BLVD	ROCKFORD	WINNEBAGO	IL	61104	YES	NO	NO	NO								325510						42.254722	-89.096389	944146919								THE VALSPAR CORP	050736453	1311209712658	N230	CERTAIN GLYCOL ETHERS	TRI	Pounds																																																																														NO	SETHIER@VALSPAR.COM			NO	 	
2011	NO	62839MNWXC14IND	SHERWIN-WILLIAMS CO	14 INDUSTRIAL PARK	FLORA	CLAY	IL	62839	YES	NO	NO	NO								325510						38.67	-88.461389	004206397								THE SHERWIN-WILLIAMS CO	004206397	1311209589706	000107211	ETHYLENE GLYCOL	TRI	Pounds																		A	A06								N 	E6																																																		NO	RSTHOMAS@SHERWIN.COM			NO	 	
2011	NO	62953LCTRC2100P	ELECTRIC ENERGY INC	2100 PORTLAND RD	JOPPA	MASSAC	IL	62953	YES	NO	NO	NO								221112						37.209166	-88.858452	001979350								AMEREN CORP	364138990	1311209082876	N590	POLYCYCLIC AROMATIC COMPOUNDS	PBT	Pounds																		A	A06	A05							N 	E6		W	H123								N 	E1																																						NO	BILLSHEPPARD@ELECTRICENERGYINC.COM			NO	 	
2011	NO	61081STRLN101AV	STERLING STEEL CO LLC	101 AVE K	STERLING	WHITESIDE	IL	610813229	YES	NO	NO	NO								331111						41.78635	-89.71174	106740561								LEGGETT & PLATT INC	007140064	1311209367489	N420	LEAD COMPOUNDS	PBT	Pounds																		A	A06								N 	E3		W	H123	H124							N 	E4		A	A06								N 	E3																										NO	CROBBINS@SSCLLC.COM			YES	 	
2011	NO	60501WNSCR5824S	OWENS CORNING ROOFING & ASPHALT LLC	5824 S  ARCHER RD	SUMMIT	COOK	IL	60501	YES	NO	NO	NO								324121						41.7853	-87.81124	001317452								OWENS CORNING	001317452	1311209590912	000095636	1,2,4-TRIMETHYLBENZENE	TRI	Pounds																		NA									N 																																																			NO	SCOTT.BERGMARK@OWENSCORNING.COM			NO	 	
2011	NO	61401HTCNT1721U	HEAT & CONTROL	1721 U.S. HWY 164	GALESBURG	WARREN	IL	61401	YES	NO	NO	NO								334412						40.947489	-90.459085	009118497										1311209808017	007440473	CHROMIUM	TRI	Pounds																		NA																																																												NO	CORY@HEATANDCONTROL.COM			YES	 	
2011	NO	60005MBLLD2312T	EXXONMOBIL OIL CORP DES PLAINES TERMINAL	2312 TERMINAL DR	ARLINGTON HEIGHTS	COOK	IL	60005	YES	NO	NO	NO								424710						42.02451	-87.948921	194001210								EXXON MOBIL CORP	001213214	1311209277639	000100414	ETHYLBENZENE	TRI	Pounds																		A	H040								N 	E3																																																		NO	NIKKI.ERNST@EXXONMOBIL.COM			NO	 	
2011	NO	60618HFRDY3232N	HU-FRIEDY MFG CO LLC	3232 N ROCKWELL ST	CHICAGO	COOK	IL	606185935	YES	NO	NO	NO								339114						41.94069	-87.692278	005085972										1311209290131	007440473	CHROMIUM	TRI	Pounds																		S	H101								N 	E6		W	H071	H077	H123						N 	E6		A	A06								N 	E4																										NO	RLEOHR@HU-FRIEDY.COM			YES	 	
2011	NO	60633FRDMT12600	FORD MOTOR CO CHICAGO ASSEMBLY	12600 S TORRENCE AVE	CHICAGO	COOK	IL	60633	YES	NO	NO	NO								336111						41.66614	-87.55887	060364882								FORD MOTOR CO	001344746	1311209531817	000071432	BENZENE	TRI	Pounds																		A	H040								N 	E4																																																		NO				NO	 	
2011	NO	60433NTHNN9809I	ENTHONE INC	9809 INDUSTRIAL DR	BRIDGEVIEW	COOK	IL	60455	YES	NO	NO	NO								325998						41.71259	-87.8031	069973790								COOKSON AMERICA INC	001658046	1311209584313	N090	CHROMIUM COMPOUNDS(EXCEPT CHROMITE ORE MINED IN THE TRANSVAAL REGION)	TRI	Pounds																		NA									N 																																																			NO	GRACINO@COOKSON.COM			YES	 	
2011	NO	62206STSTL3300M	CONOCOPHILLIPS CO EAST ST LOUIS TERMINAL	3300 MISSISSIPPI AVE	CAHOKIA	ST CLAIR	IL	62206	YES	NO	NO	NO								424710						38.58653	-90.17813	008427692								CONOCOPHILLIPS CO	001368265	1311209753918	N230	CERTAIN GLYCOL ETHERS	TRI	Pounds																		NA									N 																																																			NO				NO	 	
2011	NO	61201NTRST17107	INTERSTATE CHEMICAL CO INC	1710 78TH ST	ROCK ISLAND	ROCK ISLAND	IL	61201	YES	NO	NO	NO								424690						41.4432	-90.59159	044313443								INTERSTATE CHEMICAL CO INC		1311209162041	007697372	NITRIC ACID	TRI	Pounds																		NA									N 																																																			NO	JCORBETT@INTERSTATECHEMICAL.COM			NO	 	
2011	NO	60645NYLKC6465P	NYLOK LLC	6465 PROESEL AVE	LINCOLNWOOD	COOK	IL	60712	YES	NO	NO	NO								332812						41.998553	-87.726366	130875172								BERKSHIRE HATHAWAY	052278728	1311209801075	000108883	TOLUENE	TRI	Pounds																		NA									N 																																																			NO	PETE.HENLEY@NYLOK.COM			NO	 	
2011	NO	60803VLRLS36W13	PREMCOR ALSIP DISTRIBUTION CENTER	3600 W 131ST ST	ALSIP	COOK	IL	60803	YES	NO	NO	NO								424710						41.654922	-87.710508	199623414								VALERO ENERGY CORP	082686916	1311209353539	000071432	BENZENE	TRI	Pounds																		A	H040								N 	E5		A	A04								N 	E4		W	H124								N 	E6		A	A01								N 	E4														NO				NO	 	
2011	NO	62201TRDWS7MOBI	VEOLIA ES TECHNICAL SOLUTIONS LLC	7 MOBILE AVE	SAUGET	ST CLAIR	IL	622011069	YES	NO	NO	NO								562211						38.597964	-90.18201	145968124		ILD098642424		IL0071552				VEOLIA ENVIRONMENTAL SERVICES	145968124	1311209508377	000107211	ETHYLENE GLYCOL	TRI	Pounds																		W	H040								N 	E2		A	H040	A03							N 	E2		S	H040								N 	E2		L	H040								N 	E2														NO	DENNIS.WARCHOL@VEOLIAES.COM			NO	 	
2011	NO	62201TRDWS7MOBI	VEOLIA ES TECHNICAL SOLUTIONS LLC	7 MOBILE AVE	SAUGET	ST CLAIR	IL	622011069	YES	NO	NO	NO								562211						38.597964	-90.18201	145968124		ILD098642424		IL0071552				VEOLIA ENVIRONMENTAL SERVICES	145968124	1311209508769	000071363	N-BUTYL ALCOHOL	TRI	Pounds																		S	H040								N 	E2		L	H040								N 	E2		W	H040								N 	E2		A	H040	A03							N 	E2														NO	DENNIS.WARCHOL@VEOLIAES.COM			NO	 	
2011	NO	60480SHLND8500S	NEXEO SOLUTIONS LLC	8500 S WILLOW SPRINGS RD	WILLOW SPRINGS	COOK	IL	60480	YES	NO	NO	NO								424690						41.737404	-87.883906											1311209541402	000108101	METHYL ISOBUTYL KETONE	TRI	Pounds																		NA									N 																																																			NO	LJDENISON@NEXEOSOLUTIONS.COM			NO	 	
2011	NO	60505HRDCR1900P	NITREX INC	1900 PLAIN AVE	AURORA	KANE	IL	605028561	YES	NO	NO	NO								332811						41.76832	-88.26457	067995621								NITREX INC		1311209099946	007664417	AMMONIA	TRI	Pounds																																																																														NO	TOM.COOPER@NITREX.COM			NO	 	
2011	NO	6016WDYNMC1725N	DYNAMIC MANUFACTURING INC	1725 N 33RD AVE	MELROSE PARK	COOK	IL	60160	YES	NO	NO	NO								336350						41.83413	-87.66907	059455170										1311209222393	007440508	COPPER	TRI	Pounds																		NA									N 																																																			NO	GNAYDOL@DMIMAIL.COM			YES	 	
2011	NO	60620RLBLG819WE	RELIABLE GALVANIZING	819 W 88TH ST	CHICAGO	COOK	IL	60620	YES	NO	NO	NO								332812						41.734294	-87.644258											1311209828449	N982	ZINC COMPOUNDS	TRI	Pounds																		NA									N 																																																			NO	MICHAEL@RELIABLEGALVANIZING.COM			YES	 	
2011	NO	60185CLRTL530IN	MAPEI CORP	530 INDUSTRIAL DR	WEST CHICAGO	DUPAGE	IL	60185	YES	NO	NO	NO								325520						41.8909	-88.23394	148345382								MAPEI CORP		1311209429644	004080313	1-(3-CHLOROALLYL)-3,5,7-TRIAZA-1-AZONIAADAMANTANE CHLORIDE	TRI	Pounds																		NA									N 																																																			NO	EPEREZ@MAPEI.COM			NO	 	
2011	NO	60419SFTYK633E1	SAFETY-KLEEN SYSTEMS	633 E 138TH ST	DOLTON	COOK	IL	60419	YES	NO	NO	NO								562211	562920					41.6445	-87.6062	809368954	130871700							SAFETY-KLEEN HOLDCO INC	809368954	1311209695790	000108883	TOLUENE	TRI	Pounds																		A	H040								N 	E4																																																		NO	VICTOR.BELL@SAFETY-KLEEN.COM			NO	 	
2011	NO	60901THVLS901NO	ENGINEERED POLYMER SOLUTIONS INC D/B/A VALSPAR COATINGS	901 N GREENWOOD AVE	KANKAKEE	KANKAKEE	IL	60901	YES	NO	NO	NO								325510						41.13032	-87.85489	113855266								THE VALSPAR CORP	050736453	1311209711163	N090	CHROMIUM COMPOUNDS(EXCEPT CHROMITE ORE MINED IN THE TRANSVAAL REGION)	TRI	Pounds																		NA									N 																																																			NO	SETHIER@VALSPAR.COM			YES	 	
2011	NO	60651CHRMM4645W	CHROMIUM INDUSTRIES INC	4645 W CHICAGO AVE	CHICAGO	COOK	IL	606513385	YES	NO	NO	NO								332813						41.895103	-87.74233	045683471										1311209780079	N420	LEAD COMPOUNDS	PBT	Pounds																		NA									N 																																																			NO	WKSSUM@GMAIL.COM			YES	 	
2011	NO	61738MRCNB211EM	AMERICAN BUILDINGS CO EL PASO	2101 E MAIN	EL PASO	WOODFORD	IL	61738	YES	NO	NO	NO								332311						40.698657	-89.2725	173545021								NUCOR CORP	003446796	1311209140894	007439921	LEAD	TRI	Pounds																		NA									N 																																																			NO	JDSMITH@AMERICANBUILDINGS.COM			YES	 	
2011	NO	61072TYLRC750NB	CARRIER COMMERCIAL REFRIGERATION TAYLOR CO	750 N BLACKHAWK BLVD	ROCKTON	WINNEBAGO	IL	610720410	YES	NO	NO	NO								333294						42.460786	-89.067578	042855510								UNITED TECHNOLOGIES CORP	001344142	1311209296540	007440508	COPPER	TRI	Pounds																		W	H124	H077	H123						N 	E4																																																		NO	DEBRA.MAGEE@CARRIER.UTC.COM			YES	 	
2011	NO	60629NBSCB7300S	KRAFT FOODS GROUP INC	7300 S KEDZIE AVE	CHICAGO	COOK	IL	60629	YES	NO	NO	NO								311821						41.75748	-87.70615	039010590								KRAFT FOODS INC	877147228	1311209521069	007664417	AMMONIA	TRI	Pounds																		NA									N 																																																			NO	KEVIN.RIPLEY@KRAFTFOODS.COM			NO	 	
2011	NO	62040GRNTC20THS	US STEEL GRANITE CITY WORKS	1951 STATE ST	GRANITE CITY	MADISON	IL	62040	YES	NO	NO	NO								331111						38.699	-90.14569	141233937								US STEEL CORP	029990699	1311209638966	001319773	CRESOL (MIXED ISOMERS)	TRI	Pounds																		A	A07								N 	E4		A	A03								N 	E4		W	H129	H081	H123	H081	H124				N 	E1		A	A07								N 	E5														NO				NO	 	
2011	NO	60120SFTYK1500E	SAFETY-KLEEN SYSTEMS (503401)	1500 E VILLA ST	ELGIN	COOK	IL	60120	YES	NO	NO	NO								562112	484220	484230				42.019029	-88.234981	053976551								SAFETY-KLEEN HOLDCO INC	053976551	1311209676523	N982	ZINC COMPOUNDS	TRI	Pounds																		NA									N 																																																			NO	MARK.MAKINEN@SAFETY-KLEEN.COM			YES	 	
2011	NO	61360JHNBW524EU	JOHN A BIEWER OF ILLINOIS	524 E UNION ST	SENECA	LA SALLE	IL	61360	YES	NO	NO	NO								321114						41.311379	-88.596371	054128186								JOHN A BIEWER LUMBER CO	058821770	1311209151923	N090	CHROMIUM COMPOUNDS(EXCEPT CHROMITE ORE MINED IN THE TRANSVAAL REGION)	TRI	Pounds																																																																														NO	RHALES@BIEWERLUMBER.COM			YES	 	
2011	NO	61103CLPSC1665E	ECLIPSE	1665 ELMWOOD RD	ROCKFORD	WINNEBAGO	IL	61103	YES	NO	NO	NO								333414						42.3321	-89.07118	005101266										1311209771599	007440473	CHROMIUM	TRI	Pounds																		NA									N 																																																			NO	DWARD@ECLIPSENET.COM			YES	 	
2011	NO	60632GLDGL4400S	GOLD EAGLE CO	4400 S KILDARE AVE	CHICAGO	COOK	IL	606324372	YES	NO	NO	NO								324191						41.81316	-87.73124	230017994										1311209817321	N230	CERTAIN GLYCOL ETHERS	TRI	Pounds																		NA									N 																																																			NO	MPROFETTO@GOLDEAGLE.COM			NO	 	
2011	NO	60609NCHMC4650S	VANTAGE OLEOCHEMICALS	4650 S RACINE AVE	CHICAGO	COOK	IL	60609	YES	NO	NO	NO								325199						41.809586	-87.655267	047976381								HIG CHEMICALS	047976381	1311209665316	N495	NICKEL COMPOUNDS	TRI	Pounds																		W	H123	H121	H101						N 	E6																																																		NO	TONY.MASSA@VANTAGEOLEO.COM			YES	 	
2011	NO	60439MLSNSEASTO	ARKEMA COATINGS & RESINS	13511 MAIN ST	LEMONT	COOK	IL	60439	YES	NO	NO	NO								325612						41.687883	-87.949202	002290773								ARKEMA DELAWARE INC	002290773	1311209689696	000100425	STYRENE	TRI	Pounds																		A	A03								N 	E6																																																		NO	WALTER.SHARPE@ARKEMA.COM			NO	 	
2011	NO	61032MDRNP701SH	MODERN PLATING CORP	701 S HANCOCK AVE	FREEPORT	STEPHENSON	IL	61032	YES	NO	NO	NO								332813						42.293061	-89.600386	005172325										1311209080997	007697372	NITRIC ACID	TRI	Pounds																		W	H121								N 	E1																																																		NO				NO	 	
2011	NO	61802GRDNW601GU	GUARDIAN WEST	601 GUARDIAN DR	URBANA	CHAMPAIGN	IL	61802	YES	NO	NO	NO								336399						40.117226	-88.183697	048140698								FLEX-N-GATE CORP	048140698	1311209695612	N495	NICKEL COMPOUNDS	TRI	Pounds																		W	H101	H129	H071	H077	H123	H124	H121		N 	E3																																																		NO	ARNOLD.BROWN@FLEX-N-GATE.COM			YES	 	
2011	NO	61630STPRP600WE	EAST PEORIA PLANT--TTTD & TBU	901 W WASHINGTON ST	EAST PEORIA	TAZEWELL	IL	616307600	YES	NO	NO	NO								333120						40.67649	-89.58879	005070479								CATERPILLAR INC	005070479	1311209404793	000067561	METHANOL	TRI	Pounds																		NA									N 																																																			NO	DUGAN_JIM@CAT.COM			NO	 	
2011	NO	61832TMMTC115MA	TIME O MATIC	1015 MAPLE ST	DANVILLE	VERMILION	IL	61832	YES	NO	NO	NO								339950						40.142177	-87.609643	005083340										1311209097031	007439921	LEAD	TRI	Pounds																		NA									N 																																																			NO	MARK.COOK@WATCHFIRESIGNS.COM			YES	 	
2011	NO	60481DWCHM91EKA	DOW CHEMICAL CO	901 E KANAKEE RIVER DR	WILMINGTON	WILL	IL	60481	YES	NO	NO	NO								325211						41.317778	-88.136389	001381581		ILR000122754		ILR006341				THE DOW CHEMICAL CO		1311209307192	N120	DIISOCYANATES	TRI	Pounds																		NA									N 																																																			NO	LMCASHBAUGH@DOW.COM			NO	 	
2011	NO	60628MPRLS10316	IMPERIAL ZINC CORP	1031 E 103RD ST	CHICAGO	COOK	IL	60628	YES	NO	NO	NO								331492						41.70757	-87.598266	879850840										1311209758390	007439921	LEAD	TRI	Pounds																		NA									N 																																																			NO				YES	 	
2011	NO	6018WMRCCH551KI	AMERICO CHEMICAL PRODUCTS INC	551 KIMBERLY DR	CAROL STREAM	DUPAGE	IL	601881835	YES	NO	NO	NO								493190						41.91759	-88.11296											1311209108721	007697372	NITRIC ACID	TRI	Pounds																		NA									N 																																																			NO	TBROGDON@AMERICOCHEMICAL.COM			NO	 	
2011	NO	62095BPMCW335SO	BP PRODUCTS NORTH AMERICA INC WOOD RIVER TERMINAL	335 S OLD ST LOUIS RD	WOOD RIVER	MADISON	IL	62095	YES	NO	NO	NO								424710						38.856736	-90.100421	001344258								BP PRODUCTS NORTH AMERICA INC	039596507	1311209574007	000110827	CYCLOHEXANE	TRI	Pounds																		A	A01								N 	E3		A	A07								N 	E3																																						NO	VERNON.ST@BP.COM			NO	 	
2011	NO	60180TCHLLOLSON	TECHALLOY CO INC	6509 OLSON RD	UNION	MCHENRY	IL	60180	YES	NO	NO	NO								331222						42.23516	-88.53061	002351070								TECHALLOY CO INC	002351070	1311209147964	007440508	COPPER	TRI	Pounds																		NA									N 																																																			NO	RJOHNSON@CENTRALWIRE.COM			YES	 	
2011	NO	61242M    22614	3M CO - CORDOVA	22614 RT 84 N	CORDOVA	ROCK ISLAND	IL	612429799	YES	NO	NO	NO								325998						41.755	-90.284167	006173082								3M CO	006173082	1311209468457	000071363	N-BUTYL ALCOHOL	TRI	Pounds																		W	H123	H129	H081	H129					N 	E4																																																		NO	JPTONNESON@MMM.COM			NO	 	
2011	NO	60510PRDCC1355S	PRODUCERS CHEMICAL CO	1355 S RIVER ST	BATAVIA	KANE	IL	605109648	YES	NO	NO	NO								424690						41.83576	-88.30613	024936080										1311209113238	001330207	XYLENE (MIXED ISOMERS)	TRI	Pounds																																																																														NO	ROGERH@PRODUCERSCHEMICAL.COM			NO	 	
2011	NO	61944NRTHM2277S	NORTH AMERICAN LIGHTING	2277 S MAIN ST	PARIS	EDGAR	IL	61944	YES	NO	NO	NO								336321						39.592833	-87.694425	051713910								KOITO MANUFACTURING CO LTD		1311209174135	N120	DIISOCYANATES	TRI	Pounds																		NA									N 																																																			NO	SABBOTT@NAL.COM			NO	 	
2011	NO	60406BTLSP131ST	BLUE ISLAND PHENOL LLC	3350 W 131ST ST	BLUE ISLAND	COOK	IL	60406	YES	NO	NO	NO								325110	325199					41.65498	-87.70592	828384342								BLUE ISLAND PHENOL LLC	828384342	1311209242635	000108883	TOLUENE	TRI	Pounds																		W	H124	H121							N 	E6																																																		NO	BILL.MOFFATT@BIPHENOL.COM			NO	 	
2011	NO	60638GMTHS6100S	GE MATHIS CO	6100 S OAK PARK AVE	CHICAGO	COOK	IL	60638	YES	NO	NO	NO								332322						41.7812	-87.79111	005138367								GENERAL ELECTRIC CO (GE CO)		1311209337409	007440020	NICKEL	TRI	Pounds																		NA									N 																																																			NO	EPCRA@USCOMPLIANCE.COM			YES	 	
2011	NO	61254BPNC HIGHW	TYSON FRESH MEATS INC - JOSLIN IL	HWY 92 & I-88 28424 38TH AVE N	HILLSDALE	ROCK ISLAND	IL	612579656	YES	NO	NO	NO								311611						41.554204	-90.22459	079340261		ILD079340261		IL0003913	ILR003454			TYSON FOODS INC	006903702	1311209137431	007664417	AMMONIA	TRI	Pounds																		S	H121								N 	E6		S	H121	H123	H077	H101	H081				N 	E6		A	A06	A03	A07						N 	E5		S	H101								N 	E6		W	H081	H123	H101						N 	E3		NO				NO	 	
2011	NO	60123MRCNN1500H	AMERICAN NTN BEARING MANUFACTURING CORP	1500 HOLMES RD	ELGIN	KANE	IL	60123	YES	NO	NO	NO								332991						42.07045	-88.31626	054336565								NTN USA CORP	621430610	1311209768934	007440473	CHROMIUM	TRI	Pounds																		NA									N 																																																			NO	BFUHRER@ANBMNTN.COM			YES	 	
2011	NO	60064MCCHM2100C	EMCO CHEMICAL DISTRIBUTORS INC	2100 COMMONWEALTH AVE	NORTH CHICAGO	LAKE	IL	60064	YES	NO	NO	NO								325998						42.32111	-87.84664	056647050								EMCO CHEMICAL DISTRIBUTORS INC		1311209793785	001330207	XYLENE (MIXED ISOMERS)	TRI	Pounds																		NA									N 																																																			NO	BROPER@EMCOCHEM.COM			NO	 	
2011	NO	62084SHLLLRTE11	WOOD RIVER REFINERY	900 S CENTRAL AVE	ROXANA	MADISON	IL	62084	YES	NO	NO	NO								324110						38.837191	-90.074833	159011589								WRB REFINING LP	794031356	1311209295195	007647010	HYDROCHLORIC ACID (1995 AND AFTER "ACID AEROSOLS" ONLY)	TRI	Pounds																		A	A03								N 	E2																																																		NO	MERKER@P66.COM			NO	 	
2011	NO	60426LLDTB16100	ALLIED TUBE & CONDUIT CORP	16100 S LATHROP AVE	HARVEY	COOK	IL	60426	YES	NO	NO	NO								331210						41.59728	-87.6413	875632788								TE CONNECTIVITY LTD		1311209316696	N230	CERTAIN GLYCOL ETHERS	TRI	Pounds																		NA									N 																																																			NO	ETIERNEY@ATKORE.COM			NO	 	
2011	NO	61727THRLLRRNOR	TRINITY STRUCTURAL TOWERS INC PLT 8495	10000 TABOR RD	CLINTON	DE WITT	IL	61727	YES	NO	NO	NO								332420						40.17791	-88.955238	140775203								TRINITY INDUSTRIES INC	007324254	1311209047582	001330207	XYLENE (MIXED ISOMERS)	TRI	Pounds																		NA									N 																																																			NO	THEIS.RICE@TRIN.NET			NO	 	
2011	NO	60172LCTRF222WC	ELECTRI-FLEX CO	222 W CENTRAL AVE	ROSELLE	DUPAGE	IL	60172	YES	NO	NO	NO								335932						41.983496	-88.085868	005246020										1311209446691	007440020	NICKEL	TRI	Pounds																		NA									N 																																																			NO				YES	 	
2011	NO	6010WMNSTL82EAS	MAIN STEEL POLISHING CO INC - BARTLETT FACILITY	802 E DEVON	BARTLETT	COOK	IL	60103	YES	NO	NO	NO								332813						41.987463	-88.167995	001230408								MAIN STEEL POLISHING CO INC	001230408	1311209455486	007440473	CHROMIUM	TRI	Pounds																		NA									N 																																																			NO	LSAEZ@MAINCOMPANIES.COM			YES	 	
2011	NO	62634LKHRTELKHA	VIPER MINE	781 600TH ST	ELKHART	LOGAN	IL	62634	YES	NO	NO	NO								212112						40.003611	-89.449722	055885396								INTERNATIONAL COAL GROUP INC	785179602	1311209098502	N770	VANADIUM COMPOUNDS	TRI	Pounds																		NA									N 																																																			NO	KPRIMM@ARCHCOAL.COM			YES	 	
2011	NO	60406WTCCR14000	RHODIA INC	14000 S SEELEY AVE	BLUE ISLAND	COOK	IL	60406	YES	NO	NO	NO								325613						41.63935	-87.67073	002959810								RHODIA INC	002959810	1311209317736	007664939	SULFURIC ACID (1994 AND AFTER "ACID AEROSOLS" ONLY)	TRI	Pounds																																																																														NO	JEFFREY.CHOU@US.RHODIA.COM			NO	 	
2011	NO	62305PRNCG4618G	PRINCE AGRI PRODUCTS INC	4618 GARDNER EXPRESSWAY	QUINCY	ADAMS	IL	62305	YES	NO	NO	NO								311119						39.8765	-91.39762	095041828								PHIBRO ANIMAL HEALTH CORP	006989008	1311209595180	N982	ZINC COMPOUNDS	TRI	Pounds																		NA									N 																																																			NO	TIM.COSTIGAN@PRINCEAGRI.COM			YES	 	
2011	NO	60187VRNKB201NO	CIRCUITRONICS LLC	201 N GABLES BLVD	WHEATON	DUPAGE	IL	60187	YES	NO	NO	NO								334412						41.86625	-88.12073											1311209356462	007439921	LEAD	TRI	Pounds																		NA									N 																																																			NO	MANNY@CIRCUITRONICSLLC.COM			YES	 	
2011	NO	60652DLYNT41W76	DALEY INTERNATIONAL	4100 W 76TH ST	CHICAGO	COOK	IL	60652	YES	NO	NO	NO								325611						41.755067	-87.723862	039010483								SWISHER HYGIENE FRANCHISE CORP	185717519	1311209185560	N230	CERTAIN GLYCOL ETHERS	TRI	Pounds																																																																														NO	LEN.VANVOSSEN@DALEYINTERNATIONAL.COM			NO	 	
2011	NO	62201TRDWS7MOBI	VEOLIA ES TECHNICAL SOLUTIONS LLC	7 MOBILE AVE	SAUGET	ST CLAIR	IL	622011069	YES	NO	NO	NO								562211						38.597964	-90.18201	145968124		ILD098642424		IL0071552				VEOLIA ENVIRONMENTAL SERVICES	145968124	1311209508276	000075092	DICHLOROMETHANE	TRI	Pounds																		W	H040								N 	E2		A	H040	A03							N 	E2		L	H040								N 	E2		S	H040								N 	E2														NO	DENNIS.WARCHOL@VEOLIAES.COM			NO	 	
2011	NO	60480SHLND8500S	NEXEO SOLUTIONS LLC	8500 S WILLOW SPRINGS RD	WILLOW SPRINGS	COOK	IL	60480	YES	NO	NO	NO								424690						41.737404	-87.883906											1311209541313	000098828	CUMENE	TRI	Pounds																		NA									N 																																																			NO	LJDENISON@NEXEOSOLUTIONS.COM			NO	 	
2011	NO	60480SHLND8500S	NEXEO SOLUTIONS LLC	8500 S WILLOW SPRINGS RD	WILLOW SPRINGS	COOK	IL	60480	YES	NO	NO	NO								424690						41.737404	-87.883906											1311209541414	001634044	METHYL TERT-BUTYL ETHER	TRI	Pounds																		NA									N 																																																			NO	LJDENISON@NEXEOSOLUTIONS.COM			NO	 	
2011	NO	60134JHNSN300SO	JOHNSON CONTROLS	300 S GLENGARRY DR	GENEVA	KANE	IL	60134	YES	NO	NO	NO								335911						41.88462	-88.28248	964899686								JOHNSON CONTROLS INC	006092860	1311209484068	N420	LEAD COMPOUNDS	PBT	Pounds																		A	A06								N 	E3																																																		NO	AARON.E.BYRNE@JCI.COM			YES	 	
2011	NO	62656CNTRLWEST5	ADM ALLIANCE NUTRITION	2250 W 5TH ST	LINCOLN	LOGAN	IL	62656	YES	NO	NO	NO								311119						40.146916	-89.398147	002407686				ILR005580				ARCHER DANIELS MIDLAND CO	001307586	1311209776121	N100	COPPER COMPOUNDS	TRI	Pounds																		NA									N 																																																			NO	KEN.HUNTER@ADM.COM			YES	 	
2011	NO	60187SPRYNNORTH	SPRAYING SYSTEMS CO 130130	200 W N AVE	GLENDALE HEIGHTS	DUPAGE	IL	601393408	YES	NO	NO	NO								332999						41.90231	-88.10184	005071071										1311209365550	007440473	CHROMIUM	TRI	Pounds																		NA									N 																																																			NO	JEFF.HANSTAD@SPRAY.COM			YES	 	
2011	NO	61201PRCSN165FI	PRECISION ALUMINUM	1650 FIRST ST	ROCK ISLAND	ROCK ISLAND	IL	61201	YES	NO	NO	NO								331524						41.49544	-90.59543	041538067								PRECISION ENTERPRISES INC	041538067	1311209111564	007439921	LEAD	TRI	Pounds																		NA									N 																																																			NO	BILL@PRECISION-ENTERPRISES.COM			YES	 	
2011	NO	60007PNDST1250M	CHEM-PLATE INDUSTRIES	1250 MORSE AVE	ELK GROVE VILLAGE	COOK	IL	60007	YES	NO	NO	NO								332813						41.99999	-87.96881	094739208								CHEM-PLATE INDUSTRIES INC		1311209224942	N420	LEAD COMPOUNDS	PBT	Pounds																		S	H101								N 	E6		W	H129	H121	H077	H123	H121				N 	E3																																						NO	MSTRAUS@CHEMPLATEINDUSTRIES.COM			YES	 	
2011	NO	60617HRSHD2701E	HORSEHEAD CORP	2701 E 114TH ST	CHICAGO	COOK	IL	60617	YES	NO	NO	NO								331492						41.68826	-87.55635	609074703								HORSEHEAD HOLDING CORP		1311209482645	N420	LEAD COMPOUNDS	PBT	Pounds																		A	A06								N 	E3																																																		NO	AALAVI@HORSEHEAD.NET			YES	 	
2011	NO	60438BCHMC2700E	NB COATINGS INC	2701 E 170TH ST	LANSING	COOK	IL	60438	YES	NO	NO	NO								325510						41.5865	-87.54912	085229448								NIPPON PAINT (USA) INC	787612795	1311209491253	000100425	STYRENE	TRI	Pounds																		A	A02	H040							N 	E4																																																		NO	MGAITHER@NBCOATINGS.COM			NO	 	
2011	NO	61080THTPD13910	TOP DIE CASTING CO	13910 DEARBORN AVE	SOUTH BELOIT	WINNEBAGO	IL	61080	YES	NO	NO	NO								331521						42.46262	-89.01987	005456520								TOP DIE CASTING CO		1311209687185	007440508	COPPER	TRI	Pounds																		NA									N 																																																			NO				YES	 	
2011	NO	62533FRMNN3MILE	SPRINGFIELD COAL CO LLC   CROWN 3 MINE	2 MINE AVE	FARMERSVILLE	MONTGOMERY	IL	62533	YES	NO	NO	NO								212112						39.430833	-89.691667	929442304										1311209822939	N100	COPPER COMPOUNDS	TRI	Pounds																		NA									N 																																																			NO				YES	 	
2011	NO	60538RCHST2200R	ROCHESTER MIDLAND CORP	2200 ROCHESTER DR	MONTGOMERY	KANE	IL	60538	YES	NO	NO	NO								325199						41.74013	-88.373112	002207041								ROCHESTER MIDLAND CORP		1311209096472	007632000	SODIUM NITRITE	TRI	Pounds																																																																														NO	VKROMER@ROCHESTERMIDLAND.COM			YES	 	
2011	NO	60410CLMNC23247	INTERSTATE CHEMICAL CO INC	23247 W EAMES ST	CHANNAHON	WILL	IL	60410	YES	NO	NO	NO								424690						41.465225	-88.178177	795529874								INTERSTATE CHEMICAL CO INC	044313443	1311209155389	000067561	METHANOL	TRI	Pounds																		NA									N 																																																			NO	JCORBETT@INTERSTATECHEMICAL.COM			NO	 	
2011	NO	61008BLVDR3000W	CHRYSLER BELVIDERE ASSEMBLY PLANT	3000 W CHRYSLER DR	BELVIDERE	BOONE	IL	61008	YES	NO	NO	NO								336111						42.233842	-88.869901	001874320								CHRYSLER GROUP LLC	830966904	1311209270267	000108883	TOLUENE	TRI	Pounds																		NA									N 																																																			NO				NO	 	
2011	NO	61554NCRNC13082	EDISON INTERNATIONAL POWERTON GENERATING STATION	13082 E MANITO RD	PEKIN	TAZEWELL	IL	615548587	YES	NO	NO	NO								221112						40.538101	-89.681493	114466571								EDISON INTERNATIONAL	195138458	1311209308764	N040	BARIUM COMPOUNDS	TRI	Pounds																		W	H129	H123	H077	H121					N 	E4		W	H129	H123	H124						N 	E5		A	H082	A05							N 	E5																										NO				YES	 	
2011	NO	61342CNTNN1STAV	RIDLEY INC (DBA RIDLEY FEED INGREDIENTS)	1609 1ST AVE	MENDOTA	LA SALLE	IL	61342	YES	NO	NO	NO								311119						41.5596	-89.1086	111223996								RIDLEY INC	111223996	1311209321215	N020	ARSENIC COMPOUNDS	TRI	Pounds																		NA									N 																																																			NO	TIM.SCHWARTZ@RIDLEYFEEDINGREDIENTS.COM			YES	 	
2011	NO	62306QNCYS1900G	ADM QUINCY	2100 GARDNER EXPRESSWAY	QUINCY	ADAMS	IL	623050329	YES	NO	NO	NO								311222						39.908726	-91.409287	619629850								ARCHER DANIELS MIDLAND CO	001307586	1311209360027	000110543	N-HEXANE	TRI	Pounds																		NA									N 																																																			NO	MEDIA@ADM.COM			NO	 	
2011	NO	60623CRWFR3501S	CRAWFORD GENERATING STATION	3501 S PULASKI	CHICAGO	COOK	IL	60623	YES	NO	NO	NO								221112						41.83103	-87.72423	114466571								EDISON INTERNATIONAL	195138458	1311209372337	N040	BARIUM COMPOUNDS	TRI	Pounds																		A	H082	A05							N 	E4		W	H129	H123	H124	H077	H121				N 	E5		W	H129	H123	H124	H077	H121				N 	E4																										NO	DMCFARLAN@MWGEN.COM			YES	 	
2011	NO	6123WPTRTR11PAT	PATRIOT RENEWABLE FUELS LLC	101 PATRIOT WAY	ANNAWAN	HENRY	IL	61234	YES	NO	NO	NO								325193						41.4023	-89.90486	189371326										1311209505270	000110543	N-HEXANE	TRI	Pounds																		NA									N 																																																			NO	VMCCABE@PATRIOTETHANOL.COM			NO	 	
2011	NO	62040GRNTC20THS	US STEEL GRANITE CITY WORKS	1951 STATE ST	GRANITE CITY	MADISON	IL	62040	YES	NO	NO	NO								331111						38.699	-90.14569	141233937								US STEEL CORP	029990699	1311209638840	000092524	BIPHENYL	TRI	Pounds																		A	A07								N 	E5		A	A03								N 	E4		A	A07								N 	E4		W	H129	H081	H123	H081	H124				N 	E1														NO				NO	 	
2011	NO	62040GRNTC20THS	US STEEL GRANITE CITY WORKS	1951 STATE ST	GRANITE CITY	MADISON	IL	62040	YES	NO	NO	NO								331111						38.699	-90.14569	141233937								US STEEL CORP	029990699	1311209639044	N458	MERCURY COMPOUNDS	PBT	Pounds																		A	A05								N 	E4		A	A01								N 	E6		A	A06								N 	E4		W	H129	H081	H123	H081	H124				N 	E5		A	A03								N 	E5		NO				YES	 	
2011	NO	62040GRNTC20THS	US STEEL GRANITE CITY WORKS	1951 STATE ST	GRANITE CITY	MADISON	IL	62040	YES	NO	NO	NO								331111						38.699	-90.14569	141233937								US STEEL CORP	029990699	1311209639057	000067561	METHANOL	TRI	Pounds																		NA									N 																																																			NO				NO	 	
2011	NO	62040GRNTC20THS	US STEEL GRANITE CITY WORKS	1951 STATE ST	GRANITE CITY	MADISON	IL	62040	YES	NO	NO	NO								331111						38.699	-90.14569	141233937								US STEEL CORP	029990699	1311209639121	000115071	PROPYLENE	TRI	Pounds																		A	A07								N 	E4		A	A03								N 	E4		A	A01								N 	E4		A	A07								N 	E5														NO				NO	 	
2011	NO	62665NTNLSRR1	CELANESE LTD - MEREDOSIA FACILITY	1989 OLD NAPLES RD	MEREDOSIA	MORGAN	IL	62665	YES	NO	NO	NO								325211						39.81528	-90.56122	152613345										1311209669100	000108316	MALEIC ANHYDRIDE	TRI	Pounds																																																																														NO	MARK.SPENCER@CELANESE.COM			NO	 	
2011	NO	61554QKRTS1650S	GRAPHIC PACKAGING INTERNATIONAL INC	1525 S SECOND ST	PEKIN	TAZEWELL	IL	61554	YES	NO	NO	NO								322130						40.551667	-89.668333									GRAPHIC PACKAGING INTERNATIONAL INC	808839062	1311209702861	007439921	LEAD	TRI	Pounds																		NA									N 																																																			NO	JEFFREY.LYMAN@GRAPHICPKG.COM			YES	 	
2011	NO	60545PLNMTRTE34	PLANO METAL SPECIALTIES	RT 34	PLANO	KENDALL	IL	60545	YES	NO	NO	NO								332813						41.6625	-88.5375	054133079										1311209807116	N420	LEAD COMPOUNDS	PBT	Pounds																		A	A06	NA								E5		W	H071	NA								E6																																						NO	ONLINE_SALES@PLANOAMERICA.COM			YES	 	
2011	NO	61364PLYMT1209E	PLYMOUTH TUBE CO	1209 E 12TH ST	STREATOR	LIVINGSTON	IL	61364	YES	NO	NO	NO								331210						41.10649	-88.81763	052673027								PLYMOUTH TUBE CO	049813314	1311209030586	007439921	LEAD	TRI	Pounds																		W	H129	H121	H077	H123	H101				N 	E2																																																		NO	EPCRA@USCOMPLIANCE.COM			YES	 	
2011	NO	62201CNTRT231MN	CENTER ETHANOL CO LLC	231 MONSANTO AVE	SAUGET	ST CLAIR	IL	62201	YES	NO	NO	NO								325193						38.601382	-90.177387											1311209825518	000050000	FORMALDEHYDE	TRI	Pounds																		A	A03									E4		A	A03									E4		A	H040									E4																										NO	AKIM@CENTERETHANOL.COM			NO	 	
2011	NO	61109JMPLT4500K	J&M PLATING	4500 KISHWAUKEE ST	ROCKFORD	WINNEBAGO	IL	61109	YES	NO	NO	NO								332813	332811					42.213684	-89.086885	155137458								J & M PLATING INC		1311209700754	N511	NITRATE COMPOUNDS	TRI	Pounds																		W	H121	H077	H123	H101	H124				N 	E6																																																		NO	BRIANB@JMPLATING.COM			NO	 	
2011	NO	60090TBNSS600DI	TAUBENSEE STEEL & WIRE CO	600 DIENS DR	WHEELING	COOK	IL	60090	YES	NO	NO	NO								331222						42.148247	-87.930396	005075346										1311208953618	007439921	LEAD	TRI	Pounds																		NA									N 																																																			NO	DCOLLINS@TAUBENSEE.COM			YES	 	
2011	NO	60030MTRLN333NB	GFX INTERNATIONAL	333 BARRON BLVD	GRAYSLAKE	LAKE	IL	60030	YES	NO	NO	NO								323115						42.34817	-88.03322	005122924										1311209178742	N230	CERTAIN GLYCOL ETHERS	TRI	Pounds																		NA									N 																																																			NO	MTAYLOR@GFXI.COM			NO	 	
2011	NO	60638RSPCK4900S	ROSE PACKING CO INC	4900 S MAJOR AVE	CHICAGO	COOK	IL	60638	YES	NO	NO	NO								311612						41.80264	-87.76517	062479432										1311209323219	007664417	AMMONIA	TRI	Pounds																		NA									N 																																																			NO	MMENDEHL@ROSEPACKING.COM			NO	 	
2011	NO	61301LLNSCLIBER	ILLINOIS CEMENT CO	1601 ROCKWELL RD	LA SALLE	LA SALLE	IL	613010442	YES	NO	NO	NO								327310						41.32967	-89.07405											1311209348453	N150	DIOXIN AND DIOXIN-LIKE COMPOUNDS	DIOXIN	Grams																		NA									N 																																																			NO	JCRITTENDEN@ILLINOISCEMENT.COM			NO	 	
2011	NO	62959SNLGH19RED	AISIN MANUFACTURING ILLINOIS LLC	11000 REDCO DR	MARION	WILLIAMSON	IL	62959	YES	NO	NO	NO								336211						37.74507	-88.99334	172207222	118406698							AISIN HOLDINGS OF AMERICA	121400142	1311209335948	N120	DIISOCYANATES	TRI	Pounds																																																																														NO	E-PAULICH@AISINIL.COM			NO	 	
2011	NO	60901RMSTRRT50N	ARMSTRONG WORLD INDUSTRIES	1401 N HOBBIE AVE	KANKAKEE	KANKAKEE	IL	60901	YES	NO	NO	NO								326192						41.132944	-87.849788	001307792								ARMSTRONG WORLD INDUSTRIES INC	001307792	1311209828096	007439921	LEAD	TRI	Pounds																		NA									N 																																																			NO	JMHORVATH@ARMSTRONG.COM			YES	 	
2011	NO	60134PRKNS7025W	PERKINS PRODUCTS INC	7025 W 66TH PL	BEDFORD PARK	COOK	IL	60638	YES	NO	NO	NO								324191						41.77121	-87.79742	105826275										1311209792593	N982	ZINC COMPOUNDS	TRI	Pounds																																																																														NO	RICHARD.PERKINS@PERKINSPRODUCTS.COM			YES	 	
2011	NO	60153LKYMN2700S	ELKAY PLUMBING PRODUCTS CO	2700 S 17TH AVE	BROADVIEW	COOK	IL	60155	YES	NO	NO	NO								332998						41.85503	-87.85269	005080429		ILD990728305		ILR000995				ELKAY MANUFACTURING CO	005080429	1311209176484	007440508	COPPER	TRI	Pounds																		NA									N 																																																			NO	PERRY.STASI@ELKAY.COM			YES	 	
2011	NO	60153LKYMN2700S	ELKAY PLUMBING PRODUCTS CO	2700 S 17TH AVE	BROADVIEW	COOK	IL	60155	YES	NO	NO	NO								332998						41.85503	-87.85269	005080429		ILD990728305		ILR000995				ELKAY MANUFACTURING CO	005080429	1311209176496	007439965	MANGANESE	TRI	Pounds																		NA									N 																																																			NO	PERRY.STASI@ELKAY.COM			YES	 	
2011	NO	60410XXNMD24420	IMTT ILLINOIS JOLIET FACILITY	24420 W DURKEE RD	CHANNAHON	WILL	IL	60410	YES	NO	NO	NO								493190						41.410345	-88.198092	114630403								IMTT		1311209684265	000067561	METHANOL	TRI	Pounds																		NA									N 																																																			NO	STEPHANIECLEMONS@IMTT.COM			NO	 	
2011	NO	60607NBRTP340NO	NOBERT PLATING PLANT 1	340 N ASHLAND AVE	CHICAGO	COOK	IL	60607	YES	NO	NO	NO								332813						41.88783	-87.66705	002977619								NOBERT PLATING CO		1311209197868	007440508	COPPER	TRI	Pounds																		S	H101								N 	E6		W	H073	H077	H123	H121					N 	E4																																						NO	RSICKLES@NOBERTPLATING.COM			YES	 	
2011	NO	60450RCHHLCOLLI	REICHHOLD INC MORRIS PLANT	6350 E COLLINS RD	MORRIS	GRUNDY	IL	60450	YES	NO	NO	NO								325211						41.385833	-88.299444	050932144								REICHHOLD INC	836215905	1311209213077	000100425	STYRENE	TRI	Pounds																		A	H040								N 	E3		A	H040								N 	E4																																						NO	STEWART.FLETCHER@REICHHOLD.COM			NO	 	
2011	NO	61607DDWRD7800S	AMEREN ENERGY RESOURCES GENERATING CO	7800 S CILCO LN	BARTONVILLE	PEORIA	IL	61607	YES	NO	NO	NO								221112						40.594861	-89.665548	364138990								AMEREN CORP	364138990	1311209594338	007664393	HYDROGEN FLUORIDE	TRI	Pounds																		A	A05	A06	A07						N 	E6																																																		NO	JKSPALDING@AMEREN.COM			NO	 	
2011	NO	60120SCNCM1717G	BALL AEROSOL & SPECIALTY CONTAINER INC	1717 GIFFORD RD	ELGIN	COOK	IL	60120	YES	NO	NO	NO								332431						41.99841	-88.24734									BALL CORP	006419147	1311209055627	000071363	N-BUTYL ALCOHOL	TRI	Pounds																		A	H040								N 	E3		A	A07								N 	E6																																						NO	SMCCARTY@BALL.COM			NO	 	
2011	NO	60608HKRMR1359W	H KRAMER & CO	1345 W 21ST ST	CHICAGO	COOK	IL	60608	YES	NO	NO	NO								331423						41.854261	-87.659706	005067772										1311209855016	007440020	NICKEL	TRI	Pounds																		W	H077								N 	E5		A	A06								N 	E4																																						NO	CHAPMANH@HKRAMER.COM	RR5		YES	 	
2011	NO	60101MGCRC1040A	MEGA CIRCUIT INC	1040 S WESTGATE ST	ADDISON	DUPAGE	IL	60101	YES	NO	NO	NO								334412						41.907778	-87.993611	139710551										1311209059637	N420	LEAD COMPOUNDS	PBT	Pounds																		A	A03								N 	E4		W	H124	H121	H082	H121					N 	E5																																						NO				YES	 	
2011	NO	61350BRGWRCANAL	SABIC INNOVATIVE PLASTICS US LLC	2148 N 2753RD RD	OTTAWA	LA SALLE	IL	613509766	YES	NO	NO	NO								325211						41.337308	-88.755779									SABIC INNOVATIVE PLASTICS US LLC		1311209317662	000100425	STYRENE	TRI	Pounds																		A	H040								N 	E4		A	A04	H040							N 	E4		W	H121	H123	H081	H123	H101				N 	E3																										NO	BRENT.FINK@SABIC-IP.COM			NO	 	
2011	NO	60007NDRSN901CH	ANDERSON DIE CASTINGS	901 CHASE AVE	ELK GROVE VILLAGE	COOK	IL	60007	YES	NO	NO	NO								331521						42.00999	-87.97355	082607974								ANDERSON DIE CASTINGS		1311209734134	007439921	LEAD	TRI	Pounds																		NA									N 																																																			NO				YES	 	
2011	NO	60608MRSCM2857S	ENGINEERED GLASS PRODUCTS LLC	2857 S HALSTED	CHICAGO	COOK	IL	606085945	YES	NO	NO	NO								327215						41.842439	-87.646387	005473129								ENGINEERED GLASS PRODUCTS LLC		1311209253451	000067561	METHANOL	TRI	Pounds																		A	A07	A03	H101	H040					N 	E4																																																		NO	FREDF@EGPGLASS.COM			NO	 	
2011	NO	62526DMCRN4666F	ADM	4666 FARIES PKWY	DECATUR	MACON	IL	625265666	YES	NO	NO	NO								311221	311222	325412				39.870833	-88.890556	958024911		ILD984791459		IL0061425				ARCHER DANIELS MIDLAND CO	001307586	1311209503150	000067561	METHANOL	TRI	Pounds																		W	H083								N 	E4		A	A03								N 	E6		W	H081								N 	E5		A	A02	A03	A04	H083					N 	E4														NO	MEDIA@ADM.COM			NO	 	
2011	NO	62953LCTRC2100P	ELECTRIC ENERGY INC	2100 PORTLAND RD	JOPPA	MASSAC	IL	62953	YES	NO	NO	NO								221112						37.209166	-88.858452	001979350								AMEREN CORP	364138990	1311209082837	N420	LEAD COMPOUNDS	PBT	Pounds																		A	A06	A05							N 	E4		W	H123								N 	E1																																						NO	BILLSHEPPARD@ELECTRICENERGYINC.COM			YES	 	
2011	NO	60153CHSPR19THS	CHASE PRODUCTS CO	2727 GARDNER RD	BROADVIEW	COOK	IL	60155	YES	NO	NO	NO								325998	325510					41.853655	-87.867277	005079975		ILD005079975		ILR001203						1311209799067	N230	CERTAIN GLYCOL ETHERS	TRI	Pounds																		NA																																																												NO	LAURA.RADEVSKI@CHASEPRODUCTS.COM			NO	 	
2011	NO	6017WBLDCS397WE	ABLE DIE CASTING CORP	3907 WESLEY TERRACE	SCHILLER PARK	COOK	IL	60176	YES	NO	NO	NO								331521	331522					41.9503	-87.8634	005085691								ABLE DIE CASTING CORP		1311208987065	N420	LEAD COMPOUNDS	PBT	Pounds																		NA									N 																																																			NO	SCRICHTER@ABLEDIECASTING.COM			YES	 	
2011	NO	60005MBLLD2312T	EXXONMOBIL OIL CORP DES PLAINES TERMINAL	2312 TERMINAL DR	ARLINGTON HEIGHTS	COOK	IL	60005	YES	NO	NO	NO								424710						42.02451	-87.948921	194001210								EXXON MOBIL CORP	001213214	1311209277627	000191242	BENZO(G,H,I)PERYLENE	PBT	Pounds																		A	H040								N 	E3																																																		NO	NIKKI.ERNST@EXXONMOBIL.COM			NO	 	
2011	NO	60633FRDMT12600	FORD MOTOR CO CHICAGO ASSEMBLY	12600 S TORRENCE AVE	CHICAGO	COOK	IL	60633	YES	NO	NO	NO								336111						41.66614	-87.55887	060364882								FORD MOTOR CO	001344746	1311209531805	000095636	1,2,4-TRIMETHYLBENZENE	TRI	Pounds																		A	H040								N 	E6																																																		NO				NO	 	
2011	NO	61832LBNNCBOX64	LEBANON SEABOARD CORP	W ROSS LN	DANVILLE	VERMILION	IL	61834	YES	NO	NO	NO								325314						40.08698	-87.644324	067416800								LEBANON SEABOARD CORP		1311209546314	N450	MANGANESE COMPOUNDS	TRI	Pounds																																																																														NO	JKUHLE@LEBSEA.COM			YES	 	
2011	NO	61554PKNNR1300S	AVENTINE RENEWABLE ENERGY INC	1300 S 2ND ST	PEKIN	TAZEWELL	IL	61554	YES	NO	NO	NO								325193						40.558056	-89.664444	929922839								AVENTINE RENEWABLE ENERGY INC		1311209737511	N420	LEAD COMPOUNDS	PBT	Pounds																		NA									N 																																																			NO	STEVE.ANTONACCI@AVENTINEREI.COM			YES	 	
2011	NO	61554PKNNR1300S	AVENTINE RENEWABLE ENERGY INC	1300 S 2ND ST	PEKIN	TAZEWELL	IL	61554	YES	NO	NO	NO								325193						40.558056	-89.664444	929922839								AVENTINE RENEWABLE ENERGY INC		1311209737535	000110543	N-HEXANE	TRI	Pounds																																																																														NO	STEVE.ANTONACCI@AVENTINEREI.COM			NO	 	
2011	NO	62249NTRBS1ULTR	TROUW NUTRITION USA LLC	145 MATTER DR	HIGHLAND	MADISON	IL	62249	YES	NO	NO	NO								311111						38.744229	-89.688643	006628502								TROUW NUTRITION USA LLC	006481308	1311209198391	N450	MANGANESE COMPOUNDS	TRI	Pounds																		NA									N 																																																			NO	DON.SAMUEL@NUTRECO.COM			YES	 	
2011	NO	60434MBLJLINTER	EXXONMOBIL OIL CORP JOL IET REFINERY	INTERSTATE 55 & ARSENAL RD	CHANNAHON	WILL	IL	60410	YES	NO	NO	NO								324110						41.432253	-88.194159	049316776								EXXON MOBIL CORP	001213214	1311209700424	001319773	CRESOL (MIXED ISOMERS)	TRI	Pounds																		NA									N 																																																			NO	TRICIA.LSIMPSON@EXXONMOBIL.COM			NO	 	
2011	NO	62959STHRN11543	SOUTHERN ILLINOIS POWER COOPER ATIVE	11543 LAKE OF EGYPT RD	MARION	WILLIAMSON	IL	62959	YES	NO	NO	NO								221112						37.62547	-88.94086	007813900										1311209720503	N040	BARIUM COMPOUNDS	TRI	Pounds																		A	A06	A05	A03						N 	E1		A	A07	A04	A06						N 	E1																																						NO	LHOPKINS@SIPOWER.ORG			YES	 	
2011	NO	62201TRDWS7MOBI	VEOLIA ES TECHNICAL SOLUTIONS LLC	7 MOBILE AVE	SAUGET	ST CLAIR	IL	622011069	YES	NO	NO	NO								562211						38.597964	-90.18201	145968124		ILD098642424		IL0071552				VEOLIA ENVIRONMENTAL SERVICES	145968124	1311209509076	000110861	PYRIDINE	TRI	Pounds																		L	H040								N 	E2		A	H040	A03							N 	E2		S	H040								N 	E2		W	H040								N 	E2														NO	DENNIS.WARCHOL@VEOLIAES.COM			NO	 	
2011	NO	60160MCHTR1635N	MECH-TRONICS	1635 N 25TH AVE	MELROSE PARK	COOK	IL	60160	YES	NO	NO	NO								332439						41.90362	-87.86433	054348172										1311209080934	007697372	NITRIC ACID	TRI	Pounds																		W	H121								N 	E1																																																		NO	GENE.DEMURO@MECH-TRONICS.COM			NO	 	
2011	NO	60005DSPLN1605A	EQUILON ENTERPRISES LLC DES PLAINES TERMINAL	1605 ALGONQUIN RD	ARLINGTON HEIGHTS	COOK	IL	60005	YES	NO	NO	NO								424710						42.054831	-87.9986	004294737								SHELL OIL CO		1311209469459	000095636	1,2,4-TRIMETHYLBENZENE	TRI	Pounds																		W	H083	H082							N 	E3																																																		NO	ROBERT.HERRERA@SHELL.COM			NO	 	
2011	NO	60007MRTNC2401E	ROHM & HAAS CHEMICALS LLC	2401 E PRATT BLVD	ELK GROVE VILLAGE	COOK	IL	60007	YES	NO	NO	NO								325520						41.998515	-87.944101									THE DOW CHEMICAL CO	001381581	1311209502715	000108883	TOLUENE	TRI	Pounds																		A	A02								N 	E6																																																		NO	KWILKINS@DOW.COM			NO	 	
2011	NO	62982MRCNMFERRE	PRINCE MINERALS INC	FERRELL RD	ROSICLARE	HARDIN	IL	62982	YES	NO	NO	NO								212299						37.4142	-88.354698	045136884								PRINCE MINERALS INC		1311209804057	N040	BARIUM COMPOUNDS	TRI	Pounds																		A	A06								N 	E5																																																		NO	MSIMPLER@PRINCEMINERALS.COM			YES	 	
2011	NO	61911CLSSC520E2	CARSTIN BRANDS INC	520 E 2ND ST	ARTHUR	DOUGLAS	IL	61911	YES	NO	NO	NO								326199						39.719878	-88.466622	617837059										1311209814033	000100425	STYRENE	TRI	Pounds																		NA																																																												NO	SAM@CARSTINBRANDS.COM			NO	 	
2011	NO	61422VGHNB201WE	VAUGHAN & BUSHNELL MANUFACTURING CO	201 W MAIN ST	BUSHNELL	MC DONOUGH	IL	61422	YES	NO	NO	NO								332212						40.549962	-90.511661	005129184								VAUGHAN & BUSHNELL MANUFACTURING CO		1311209064106	000108883	TOLUENE	TRI	Pounds																		NA									N 																																																			NO	JEFFR@BU.VAUGHANMFG.COM			NO	 	
2011	NO	60901THVLS901NO	ENGINEERED POLYMER SOLUTIONS INC D/B/A VALSPAR COATINGS	901 N GREENWOOD AVE	KANKAKEE	KANKAKEE	IL	60901	YES	NO	NO	NO								325510						41.13032	-87.85489	113855266								THE VALSPAR CORP	050736453	1311209711338	N450	MANGANESE COMPOUNDS	TRI	Pounds																																																																														NO	SETHIER@VALSPAR.COM			YES	 	
2011	NO	60901THVLS901NO	ENGINEERED POLYMER SOLUTIONS INC D/B/A VALSPAR COATINGS	901 N GREENWOOD AVE	KANKAKEE	KANKAKEE	IL	60901	YES	NO	NO	NO								325510						41.13032	-87.85489	113855266								THE VALSPAR CORP	050736453	1311209711439	001330207	XYLENE (MIXED ISOMERS)	TRI	Pounds																		NA									N 																																																			NO	SETHIER@VALSPAR.COM			NO	 	
2011	NO	60007STRLC825PR	STAR ELECTRONICS INC	825 PRATT BLVD	ELK GROVE VILLAGE	COOK	IL	60007	YES	NO	NO	NO								334412						41.99798	-87.97457											1311209807977	N100	COPPER COMPOUNDS	TRI	Pounds																		W	H121	H129	NA							E3		S	H101	NA								E6																																						NO	STARELECTRONIC@SBCGLOBAL.NET			YES	 	
2011	NO	6090WCMCCT78EAS	CMC COATING TOLTEC STEEL	780 EASTGATE INDUSTRIAL PKWY	KANKAKEE	KANKAKEE	IL	60901	YES	NO	NO	NO								332312						41.132101	-87.830264									COMMERCIAL METALS CO		1311208960866	N495	NICKEL COMPOUNDS	TRI	Pounds																																																																														NO	TIM.SMOCK@CMC.COM			YES	 	
2011	NO	60410CLMNC23247	INTERSTATE CHEMICAL CO INC	23247 W EAMES ST	CHANNAHON	WILL	IL	60410	YES	NO	NO	NO								424690						41.465225	-88.178177	795529874								INTERSTATE CHEMICAL CO INC	044313443	1311209155439	000079016	TRICHLOROETHYLENE	TRI	Pounds																		NA									N 																																																			NO	JCORBETT@INTERSTATECHEMICAL.COM			NO	 	
2011	NO	60056RLNDB182CE	RAULAND-BORG CORP	1802 W CENTRAL RD	MOUNT PROSPECT	COOK	IL	600562230	YES	NO	NO	NO								334290						42.066438	-87.963267	005105515										1311209175049	007439921	LEAD	TRI	Pounds																		NA									N 																																																			NO	DONNA.DJINOVICH@RAULAND.COM			YES	 	
2011	NO	6126WHRRNG25194	HARRINGTON SIGNAL INC	2519 4TH AVE	MOLINE	ROCK ISLAND	IL	612650590	YES	NO	NO	NO								334290						41.511131	-90.501683	825253180										1311209212036	N420	LEAD COMPOUNDS	PBT	Pounds																		NA									N 																																																			NO	JTHEESFELD@HARRINGTONSIGNAL.COM			YES	 	
2011	NO	61953CBTCRROUTE	CABOT CORP FMO DIV	700 E US HWY 36 W	TUSCOLA	DOUGLAS	IL	61953	YES	NO	NO	NO								325188						39.796398	-88.338303	042075333		ILD042075333		IL0004375		UIC011CC		CABOT CORP	001013580	1311209365459	007647010	HYDROCHLORIC ACID (1995 AND AFTER "ACID AEROSOLS" ONLY)	TRI	Pounds																		A	A03								N 	E4																																																		NO	AMY.CLYDE@CABOTCORP.COM			NO	 	
2011	NO	60053RGSTC8210N	REGIS TECHNOLOGIES INC	8210 N AUSTIN AVE	MORTON GROVE	COOK	IL	60053	YES	NO	NO	NO								325199						42.03046	-87.77662	005065594										1311209411723	000067561	METHANOL	TRI	Pounds																		NA									N 																																																			NO				NO	 	
2011	NO	62040PRCTM25NOR	PRECOAT METALS	25 NORTHGATE INDUSTRIAL DR	GRANITE CITY	MADISON	IL	62040	YES	NO	NO	NO								332812						38.744965	-90.130373	103224630								CARLYLE GROUP	001374727	1311209425317	N010	ANTIMONY COMPOUNDS	TRI	Pounds																		NA									N 																																																			NO	DENNIS_HARPER@PRECOAT.COM			YES	 	
2011	NO	61554MDWSTSOUTH	ILLINOIS CORN PROCESSING LLC	1301 S FRONT ST	PEKIN	TAZEWELL	IL	61554	YES	NO	NO	NO								312140						40.556576	-89.66618	038406682								MGP INGREDIENTS INC		1311209492899	000071432	BENZENE	TRI	Pounds																																																																														NO	DON.OLDHAM@ILCORN.COM			NO	 	
2011	NO	62525STLYM2200E	TATE & LYLE DECATUR	2200 E ELDORADO ST	DECATUR	MACON	IL	62521	YES	NO	NO	NO								311221						39.84665	-88.92557	122320559								TATE & LYLE		1311209489727	000075070	ACETALDEHYDE	TRI	Pounds																		A	A03								N 	E5		A	H040								N 	E4		W	H121	H129	H081	H123					N 	E3																										NO	CHRIS.OLSEN@TATEANDLYLE.COM			NO	 	
2011	NO	60510DYNTR1333N	VARN INTERNATIONAL	1333 N KIRK RD	BATAVIA	KANE	IL	60510	YES	NO	NO	NO								325998						41.86493	-88.27938	836292151								DAY INTERNATIONAL	623339066	1311209548837	000110543	N-HEXANE	TRI	Pounds																																																																														NO	FRANK.SCHREINER@FLINTGRP.COM			NO	 	
2011	NO	60406WCRCH3555W	TMS MANUFACTURING	3555 W 123RD ST	ALSIP	COOK	IL	60803	YES	NO	NO	NO								325510						41.669511	-87.708829	010284206								TERRAZZO & MARBLE SUPPLY CO	010284206	1311209657030	000108883	TOLUENE	TRI	Pounds																		NA									N 																																																			NO	MGUZMAN@TMSUPPLY.COM			NO	 	
2011	NO	61025PHNXC16675	RENTECH NITROGEN LLC	16675 US HWY 20 W	EAST DUBUQUE	JO DAVIESS	IL	610250229	YES	NO	NO	NO								325311						42.442778	-90.5575	780826520								RENTECH INC	832104470	1311209679517	007697372	NITRIC ACID	TRI	Pounds																		NA									N 																																																			NO	JDAWOODJEE@RNP.NET			NO	 	
2011	NO	60650CJSPR3119S	SAPORITO FINISHING CO	3119 S AUSTIN	CICERO	COOK	IL	60804	YES	NO	NO	NO								332813						41.83542	-87.77329	005098694										1311209724855	N511	NITRATE COMPOUNDS	TRI	Pounds																		W	H121	H071	H075	H077	H123	H124	H129		N 	E6																																																		NO	JLOGAN@SAPORITOFINISHING.COM			NO	 	
2011	NO	62024LNCRPLEWIS	GBC METALS LLC (D/B/A OLIN BRA SS) - CASTING PLANT	LEWIS & CLARK BLVD	EAST ALTON	MADISON	IL	620241197	YES	NO	NO	NO								331423	331421	332811				38.87007	-90.11595	808500081								GLOBAL BRASS & COPPER INC		1311209762564	007440666	ZINC (FUME OR DUST)	TRI	Pounds																		A	A06								N 	E3																																																		NO	ANN.PIPKIN@OLINBRASS.COM			YES	 	
2011	NO	60619VRSNC1355E	A FINKL & SONS CO	1355 E 93RD ST	CHICAGO	COOK	IL	60619	YES	NO	NO	NO								331111						41.72591	-87.59008	005129697										1311209771183	007440473	CHROMIUM	TRI	Pounds																		NA									N 																																																			NO	STEVED@FINKL.COM			YES	 	
2011	NO	60090NLNDD161CA	INLAND DIE CASTING	161 CARPENTER	WHEELING	COOK	IL	60090	YES	NO	NO	NO								331521						42.13027	-87.91955									RCM INDUSTRIES	616720314	1311209157294	007440508	COPPER	TRI	Pounds																		NA									N 																																																			NO	STORPHY@RCMINDUSTRIES.COM			YES	 	
2011	NO	60064BBTTL1400N	ABBOTT LABORATORIES - NORTH CH ICAGO FACILITY	1401 SHERIDAN RD	NORTH CHICAGO	LAKE	IL	600644000	YES	NO	NO	NO								325411	325320	325412				42.33405	-87.83849	001307602								ABBOTT LABORATORIES	001307602	1311209480021	N511	NITRATE COMPOUNDS	TRI	Pounds																		W	H129	H121	H082	H123	H101				N 	E6																																																		NO	THOMAS.THORNTON@ABBOTT.COM			NO	 	
2011	NO	60410MBLCHI55AR	INEOS NOVA LLC	25846 SW FRONTAGE RD	CHANNAHON	WILL	IL	60410	YES	NO	NO	NO								325211						41.434479	-88.192109	603165379								INEOS USA LLC	603165379	1311209515461	N982	ZINC COMPOUNDS	TRI	Pounds																		NA									N 																																																			NO	GREG.MIKUT@STYROLUTION.COM			YES	 	
2011	NO	62084SHLLLRTE11	WOOD RIVER REFINERY	900 S CENTRAL AVE	ROXANA	MADISON	IL	62084	YES	NO	NO	NO								324110						38.837191	-90.074833	159011589								WRB REFINING LP	794031356	1311209295385	001330207	XYLENE (MIXED ISOMERS)	TRI	Pounds																		W	H121	H077	H124	H129	H081	H083	H123		N 	E2		A	A01								N 	E4		W	H081	H123							N 	E4		A	A05								N 	E6														NO	MERKER@P66.COM			NO	 	
2011	NO	60436PLLCL1550M	APOLLO COLORS INC	1550 MOUND RD	ROCKDALE	WILL	IL	60436	YES	NO	NO	NO								325132						41.501459	-88.121748	047578331								APOLLO COLORS INC	047578331	1311209639552	007632000	SODIUM NITRITE	TRI	Pounds																		NA									N 																																																			NO	BWRIGHT@APOLLOCOLORS.COM			YES	 	
2011	NO	60901HNKLCSKENS	BASF CORP	2525 S KENSINGTON RD	KANKAKEE	KANKAKEE	IL	60901	YES	NO	NO	NO								325211						41.083611	-87.878889	114571107								BASF CORP	114571107	1311209794179	000554132	LITHIUM CARBONATE	TRI	Pounds																		NA									N 																																																			NO	STEVE.HULL@BASF.COM			YES	 	
2011	NO	62260CSTMM700BH	CUSTOM MARBLE INC	850 S MULBERRY ST	MILLSTADT	ST CLAIR	IL	62260	YES	NO	NO	NO								326191						38.45283	-90.08916	094393980										1311209001991	000100425	STYRENE	TRI	Pounds																		NA									N 																																																			NO	LARRY@CUSTOMMARBLE.NET			NO	 	
2011	NO	62864VNXCL1700S	VANEX INC	1700 S SHAWNEE ST	MOUNT VERNON	JEFFERSON	IL	62864	YES	NO	NO	NO								325510						38.30049	-88.889518	006317614		ILD006317614						PPG INDUSTRIES INC	059972935	1311209119611	000071363	N-BUTYL ALCOHOL	TRI	Pounds																		NA									N 																																																			NO	CCAMPBELL@PPG.COM			NO	 	
2011	NO	62864VNXCL1700S	VANEX INC	1700 S SHAWNEE ST	MOUNT VERNON	JEFFERSON	IL	62864	YES	NO	NO	NO								325510						38.30049	-88.889518	006317614		ILD006317614						PPG INDUSTRIES INC	059972935	1311209119635	N982	ZINC COMPOUNDS	TRI	Pounds																																																																														NO	CCAMPBELL@PPG.COM			YES	 	
2011	NO	60185HLBLC1400N	BLACHFORD INC	1400 NUCLEAR DR	WEST CHICAGO	DUPAGE	IL	60185	YES	NO	NO	NO								326150	326199					41.90645	-88.23255	884732314		ILD068586429		IL0067458				BLACHFORD ENTERPRISES INC	614951275	1311209140641	N120	DIISOCYANATES	TRI	Pounds																		NA									N 																																																			NO	GSTEUCK@BLACHFORDINC.COM			NO	 	
2011	NO	61356SCHLG121WR	INGERSOLL-RAND INC L CN CLOSERS DIV	121 W RAILROAD AVE	PRINCETON	BUREAU	IL	61356	YES	NO	NO	NO								332510						41.386214	-89.465619	005100128								INGERSOLL-RAND CO		1311209444126	007440020	NICKEL	TRI	Pounds																		A	A06	A03							N 	E5		W	H077	H121	H123	H101					N 	E5																																						NO	MNEW@TRANE.COM			YES	 	
2011	NO	61104TSTRC440BL	TESTOR CORP	440 BLACKHAWK PARK AVE	ROCKFORD	WINNEBAGO	IL	61104	YES	NO	NO	NO								339999						42.245038	-89.094614	005129366								RPM INC	004155651	1311209214651	000108883	TOLUENE	TRI	Pounds																																																																														NO	JCORRISTON@TESTORS.COM			NO	 	
2011	NO	60164GNRLP135WL	SUN CHEMICAL CORP	135 W LAKE ST	NORTHLAKE	COOK	IL	60164	YES	NO	NO	NO								325910						41.903971	-87.910398									SUN CHEMICAL CORP	144638558	1311209400480	000108883	TOLUENE	TRI	Pounds																		NA									N 																																																			NO	CHRIS.STENGER@SUNCHEMICAL.COM			NO	 	
2011	NO	61021DNLDS815PR	DONALDSON CO DIXON ILLINOIS	815 PROGRESS DR	DIXON	LEE	IL	61021	YES	NO	NO	NO								336399						41.812364	-89.476495	006477301								DONALDSON CO INC	006477301	1311209615549	N120	DIISOCYANATES	TRI	Pounds																																																																														NO	BRIAN.COX@DONALDSON.COM			NO	 	
2011	NO	60607MRCNN1223W	AMERICAN NICKEL WORKS	1223 W LAKE ST	CHICAGO	COOK	IL	60607	YES	NO	NO	NO								332813						41.88549	-87.65775	005085030										1311209823842	000071556	1,1,1-TRICHLOROETHANE	TRI	Pounds																		NA									N 																																																			NO	ANWBOB@HOTMAIL.COM			NO	 	
2011	NO	60438BCHMC2700E	NB COATINGS INC	2701 E 170TH ST	LANSING	COOK	IL	60438	YES	NO	NO	NO								325510						41.5865	-87.54912	085229448								NIPPON PAINT (USA) INC	787612795	1311209491152	000095636	1,2,4-TRIMETHYLBENZENE	TRI	Pounds																		A	A02	H040							N 	E4																																																		NO	MGAITHER@NBCOATINGS.COM			NO	 	
2011	NO	62629CRCMP701SO	HENRY TECHNOLOGIES	701 S MAIN ST	CHATHAM	SANGAMON	IL	62629	YES	NO	NO	NO								332420						39.66554	-89.70441	067408831		ILD980904015								1311209808233	007440473	CHROMIUM	TRI	Pounds																		NA																																																												NO	TGRISSOM@HENRYTECH.COM			YES	 	
2011	NO	60622CRBTP927WB	CARBIT PAINT CO	927 W BLACKHAWK ST	CHICAGO	COOK	IL	606222519	YES	NO	NO	NO								325510						41.90797	-87.65224	005531199										1311209091420	000108883	TOLUENE	TRI	Pounds																		NA									N 																																																			NO				NO	 	
2011	NO	62263NSCTNENTER	NASCOTE INDUSTRIES	18310 ENTERPRISE AVE	NASHVILLE	WASHINGTON	IL	62263	YES	NO	NO	NO								336399						38.368612	-89.369778	150192649								MAGNA EXTERIORS & INTERIORS	152054409	1311209180215	000091203	NAPHTHALENE	TRI	Pounds																		A	H040								N 	E4																																																		NO				NO	 	
2011	NO	60191MSTRS890LI	MASTERS CO INC	890 LIVELY BLVD	WOOD DALE	DUPAGE	IL	60191	NO	NO	NO	YES								325998						41.980801	-87.969561											1311209233749	007632000	SODIUM NITRITE	TRI	Pounds																																																																														NO	GARY@MASTERSCOINC.COM			YES	 	
2011	NO	61104GNTCR302PE	GUNITE CORP	302 PEOPLES AVE	ROCKFORD	WINNEBAGO	IL	61104	YES	NO	NO	NO								331511	336340					42.24143	-89.089533	180134355								ACCURIDE CORP		1311209318930	000078922	SEC-BUTYL ALCOHOL	TRI	Pounds																		NA									N 																																																			NO	CARL.WELTON@GUNITE.COM			NO	 	
2011	NO	62263GRWMR17815	LAND O'LAKES PURINA FEED LLC - NASHVILLE IL	17815 MOCKINGBIRD RD	NASHVILLE	WASHINGTON	IL	62263	YES	NO	NO	NO								311119						38.375819	-89.373083	806578337				IRL005292				LAND O LAKES INC	806578337	1311209382302	N450	MANGANESE COMPOUNDS	TRI	Pounds																																																																														NO	JKFORBIS@LANDOLAKES.COM			YES	 	
2011	NO	60071SRGPT5205R	LEICA BIOSYSTEMS RICHMOND INC	5205 RT 12	RICHMOND	MCHENRY	IL	60071	YES	NO	NO	NO								339113						42.449722	-88.299722	082930884								LEICA MICROSYSTEMS INC		1311209425596	000050000	FORMALDEHYDE	TRI	Pounds																		NA									N 																																																			NO	ANTHONY.DIGUISEPPE@LEICA-MICROSYSTEMS.COM			NO	 	
2011	NO	62525STLYM2200E	TATE & LYLE DECATUR	2200 E ELDORADO ST	DECATUR	MACON	IL	62521	YES	NO	NO	NO								311221						39.84665	-88.92557	122320559								TATE & LYLE		1311209489739	007664417	AMMONIA	TRI	Pounds																		W	H081	H123							N 	E5																																																		NO	CHRIS.OLSEN@TATEANDLYLE.COM			NO	 	
2011	NO	62002LCLDSCUTST	ALTON STEEL INC	5 CUT ST	ALTON	MADISON	IL	62002	YES	NO	NO	NO								331111						38.88055	-90.14789	133270038										1311209502931	N495	NICKEL COMPOUNDS	TRI	Pounds																		NA									N 																																																			NO				YES	 	
2011	NO	61547SHRXCROUTE	CHEMTURA CORP MAPLETON PLANT	8220 W RT 24	MAPLETON	PEORIA	IL	61547	YES	NO	NO	NO								325199						40.565833	-89.721389									CHEMTURA CORP	088400325	1311209500824	007429905	ALUMINUM (FUME OR DUST)	TRI	Pounds																		NA									N 																																																			NO	DONALD.STAHLBERG@CHEMTURA.COM			YES	 	
2011	NO	61547SHRXCROUTE	CHEMTURA CORP MAPLETON PLANT	8220 W RT 24	MAPLETON	PEORIA	IL	61547	YES	NO	NO	NO								325199						40.565833	-89.721389									CHEMTURA CORP	088400325	1311209500848	000074851	ETHYLENE	TRI	Pounds																		A	A01								N 	E3																																																		NO	DONALD.STAHLBERG@CHEMTURA.COM			NO	 	
2011	NO	62707CTYWT3100S	CITY WATER LIGHT & POWER CITY OF SPRINGFIELD	3100 STEVENSON DR	SPRINGFIELD	SANGAMON	IL	62707	YES	NO	NO	NO								221112						39.758187	-89.607541	781719075										1311209619055	007664417	AMMONIA	TRI	Pounds																		S	H123								N 	E1		A	A07	A05	A03						N 	E2																																						NO	PJ.BECKER@CWLP.COM			NO	 	
2011	NO	62040GRNTC20THS	US STEEL GRANITE CITY WORKS	1951 STATE ST	GRANITE CITY	MADISON	IL	62040	YES	NO	NO	NO								331111						38.699	-90.14569	141233937								US STEEL CORP	029990699	1311209639032	N450	MANGANESE COMPOUNDS	TRI	Pounds																		A	A06								N 	E3		A	A05								N 	E4		A	A03								N 	E3		A	A06								N 	E4		A	A07								N 	E6		NO				YES	 	
2011	NO	62040GRNTC20THS	US STEEL GRANITE CITY WORKS	1951 STATE ST	GRANITE CITY	MADISON	IL	62040	YES	NO	NO	NO								331111						38.699	-90.14569	141233937								US STEEL CORP	029990699	1311209639145	000100425	STYRENE	TRI	Pounds																		A	A07								N 	E5		W	H129	H081	H123	H081	H124				N 	E1		A	A03								N 	E4		A	A07								N 	E4														NO				NO	 	
2011	NO	60633PVSCH12260	PVS CHEMICAL SOLUTIONS INC	12260 S CARONDOLET AVE	CHICAGO	COOK	IL	606331197	YES	NO	NO	NO								325188						41.672222	-87.551111									PVS CHEMICALS INC	006530273	1311209689102	007664939	SULFURIC ACID (1994 AND AFTER "ACID AEROSOLS" ONLY)	TRI	Pounds																		A	A06	A03							N 	E4																																																		NO	DPRICE@PVSCHEMICALS.COM			NO	 	
2011	NO	60619VRSNC1355E	A FINKL & SONS CO	1355 E 93RD ST	CHICAGO	COOK	IL	60619	YES	NO	NO	NO								331111						41.72591	-87.59008	005129697										1311209771207	007439965	MANGANESE	TRI	Pounds																		NA									N 																																																			NO	STEVED@FINKL.COM			YES	 	
2011	NO	60435CPNRG10IND	APEX MATERIAL TECHNOLOGIES LLC	10 INDUSTRY AVE	JOLIET	WILL	IL	60435	YES	NO	NO	NO								325188						41.550217	-88.083016	017623413										1311209793874	007440508	COPPER	TRI	Pounds																																																																														NO	LWELGS@APEXMATTECH.COM			YES	 	
2011	NO	60435CPNRG10IND	APEX MATERIAL TECHNOLOGIES LLC	10 INDUSTRY AVE	JOLIET	WILL	IL	60435	YES	NO	NO	NO								325188						41.550217	-88.083016	017623413										1311209793886	N100	COPPER COMPOUNDS	TRI	Pounds																		S	H077	H129	H123	H101					N 	E4		S	H077	H129	H123	H101					N 	E2																																						NO	LWELGS@APEXMATTECH.COM			YES	 	
2011	NO	62249BLNSY509WE	COOPER B-LINE HIGHLAND	509 W MONROE ST	HIGHLAND	MADISON	IL	62249	YES	NO	NO	NO								332999						38.73688	-89.69774	053969408								COOPER US INC	602755428	1311209860915	007439965	MANGANESE	TRI	Pounds																		NA									N 																																																			NO	DARREN.SHEQUEN@COOPERINDUSTRIES.COM	RR4		YES	 	
2011	NO	60525NYCPR5332D	NYCO PRODUCTS CO	5332 DANSHER RD	COUNTRYSIDE	COOK	IL	60525	YES	NO	NO	NO								325611						41.793956	-87.861457	005150933										1311209299496	N230	CERTAIN GLYCOL ETHERS	TRI	Pounds																		W	H121								N 	E6																																																		NO	TJENKINS@NYCOPRODUCTS.COM			NO	 	
2011	NO	60064BBTTL1400N	ABBOTT LABORATORIES - NORTH CH ICAGO FACILITY	1401 SHERIDAN RD	NORTH CHICAGO	LAKE	IL	600644000	YES	NO	NO	NO								325411	325320	325412				42.33405	-87.83849	001307602								ABBOTT LABORATORIES	001307602	1311209479942	000075058	ACETONITRILE	TRI	Pounds																		A	H040								N 	E4		A	A02	A03							N 	E2		A	A03								N 	E4		W	H129	H121	H081	H123	H101				N 	E3														NO	THOMAS.THORNTON@ABBOTT.COM			NO	 	
2011	NO	62301JMHBR3150G	SEM MINERALS LP	3806 GARDNER EXPRESSWAY	QUINCY	ADAMS	IL	62305	YES	NO	NO	NO								311119	311111					39.88491	-91.40212											1311209738121	N725	SELENIUM COMPOUNDS	TRI	Pounds																																																																														NO	FAUROTS@SEMINERALS.COM			YES	 	
2011	NO	6004WMRCNM1342R	AMERICAN METAL FIBERS INC	13420 ROCKLAND RD	LAKE BLUFF	LAKE	IL	60044	YES	NO	NO	NO								332999						42.280008	-87.893911											1311209811468	001344281	ALUMINUM OXIDE (FIBROUS FORMS)	TRI	Pounds																		A	A06									E5																																																		NO	AMS@AMFI-USA.COM			YES	 	
2011	NO	62288MRCND1003W	DORMA DOOR CONTROLS INC	1003 W BROADWAY	STEELEVILLE	RANDOLPH	IL	622881311	YES	NO	NO	NO								332510	332116	332721	332999	332813		38.008697	-89.669649	006291330								DORMA - ENNEPETAL GERMANY		1311209440318	007440473	CHROMIUM	TRI	Pounds																		NA									N 																																																			NO				YES	 	
2011	NO	60534PLRNC7847W	PELRON INC	7847 47TH ST	LYONS	COOK	IL	60534	YES	NO	NO	NO								325188						41.806082	-87.816734	005191044										1311209493941	000107186	ALLYL ALCOHOL	TRI	Pounds																																																																														NO	EPCRA@USCOMLIANCE.COM			NO	 	
2011	NO	60609CDPRD6W41S	ACID PRODUCTS CO INC	600 W 41ST ST	CHICAGO	COOK	IL	60609	YES	NO	NO	NO								424690						41.82033	-87.64096	148314503								ACID PRODUCTS CO INC	148314503	1311209507399	000067561	METHANOL	TRI	Pounds																																																																														NO				NO	 	
2011	NO	60007MTRNC2001L	AMITRON CORP	2001 LANDMEIER RD	ELK GROVE VILLAGE	COOK	IL	60007	YES	NO	NO	NO								334412						42.01032	-87.95274	154969893										1311209793215	007697372	NITRIC ACID	TRI	Pounds																		A	A03								N 	E5		W	H123	H121	H129	H082	H121				N 	E1		W	H121	H129	H082	H121					N 	E1																										NO	MORT@AMITRONCORP.COM			NO	 	
2011	NO	60439NCLCR135TH	CITGO PETROLEUM CORP LEMONT REFINERY	135TH ST & NEW AVE	LEMONT	WILL	IL	604393659	YES	NO	NO	NO								324110						41.648667	-88.057611	136968968								CITGO PETROLEUM CORP	102417268	1311209437870	000110543	N-HEXANE	TRI	Pounds																		W	H081	H123							N 	E4																																																		NO				NO	 	
2011	NO	61630STPRP600WE	EAST PEORIA PLANT--TTTD & TBU	901 W WASHINGTON ST	EAST PEORIA	TAZEWELL	IL	616307600	YES	NO	NO	NO								333120						40.67649	-89.58879	005070479								CATERPILLAR INC	005070479	1311209404730	007664417	AMMONIA	TRI	Pounds																		W	H083								N 	E5																																																		NO	DUGAN_JIM@CAT.COM			NO	 	
2011	NO	61068MCLC0100ES	ROCHELLE TERMINAL	100 E STANDARD OIL RD	ROCHELLE	OGLE	IL	61068	YES	NO	NO	NO								424710						41.9125	-89.05614									BP PRODUCTS NA INC	039596507	1311209567787	001330207	XYLENE (MIXED ISOMERS)	TRI	Pounds																		A	A01								N 	E4																																																		NO	JACK.COWART@BP.COM			NO	 	
2011	NO	60007VDJTS1855E	VIDEOJET TECHNOLOGIES INC	1855 ESTES AVE	ELK GROVE VILLAGE	COOK	IL	60007	YES	NO	NO	NO								325910						42.00605	-87.95587	047283486								VIDEOJET TECHNOLOGIES INC		1311209567472	000067561	METHANOL	TRI	Pounds																		NA									N 																																																			NO	PETE.PAPANTOS@VIDEOJET.COM			NO	 	
2011	NO	60005MRTHN3231B	MARATHON PETROLEUM CO - MT PROSPECT IL TERMINAL	3231 BUSSE RD	ARLINGTON HEIGHTS	COOK	IL	60005	YES	NO	NO	NO								424710						42.027846	-87.959992	059430298								MARATHON PETROLEUM CORP	968393996	1311209607593	N420	LEAD COMPOUNDS	PBT	Pounds																		A	A01								N 	E6																																																		NO				YES	 	
2011	NO	60466HYDRT2545B	HYDRITE CHEMICAL CO	2545 BOND ST	UNIVERSITY PARK	WILL	IL	604663103	YES	NO	NO	NO								424690						41.436109	-87.750069	627781735								HYDRITE CHEMICAL CO	006435887	1311209215490	000108883	TOLUENE	TRI	Pounds																																																																														NO	LOREN.MEISINGER@HYDRITE.COM			NO	 	
2011	NO	60614WSTRN3636N	MIDWESTERN RUST PROOF INC	3636 N KILBOURN AVE	CHICAGO	COOK	IL	60641	YES	NO	NO	NO								332813						41.94761	-87.74003											1311209240605	N511	NITRATE COMPOUNDS	TRI	Pounds																		NA									N 																																																			NO	GARTHDAVIES@MIDWESTERNRUSTPROOF.COM			NO	 	
2011	NO	62002LLNSPNO1CH	WOOD RIVER POWER STATION	#1 CHESSEN LN	ALTON	MADISON	IL	62002	YES	NO	NO	NO								221112						38.88612	-90.13495	093752004								DYNEGY INC	804405074	1311209355369	N150	DIOXIN AND DIOXIN-LIKE COMPOUNDS	DIOXIN	Grams																		A	A05								N 	E6																																																		NO	IR@DYNEGY.COM			NO	 	
2011	NO	61911CHVRH1485S	CHI OVERHEAD DOORS	1485 SUNRISE DR	ARTHUR	DOUGLAS	IL	61911	YES	NO	NO	NO								332321						39.709797	-88.455219	804417152								CHIDOORS HOLDINGS INC	087154613	1311209380738	N120	DIISOCYANATES	TRI	Pounds																		NA									N 																																																			NO				NO	 	
2011	NO	60622SPMTL1720E	SIPI METALS CORP	1720 ELSTON AVE	CHICAGO	COOK	IL	606425066	YES	NO	NO	NO								331492						41.91378	-87.66444	005121439										1311209765041	N511	NITRATE COMPOUNDS	TRI	Pounds																		NA									N 																																																			NO				NO	 	
2011	NO	61820DVNCD3206F	ADVANCED FILTRATION SYSTEMS INC	3206 FARBER DR	CHAMPAIGN	CHAMPAIGN	IL	618221084	YES	NO	NO	NO								336399						40.15549	-88.26845	155151418								DONALDSON CO INC	006477301	1311209318094	N120	DIISOCYANATES	TRI	Pounds																		S	H129								N 	E1																																																		NO	JBAILEY@AFSIFILTERS.COM			NO	 	
2011	NO	61607DDWRD7800S	AMEREN ENERGY RESOURCES GENERATING CO	7800 S CILCO LN	BARTONVILLE	PEORIA	IL	61607	YES	NO	NO	NO								221112						40.594861	-89.665548	364138990								AMEREN CORP	364138990	1311209594340	N420	LEAD COMPOUNDS	PBT	Pounds																		A	A05	A06	A07						N 	E4		W	H123								N 	E1																																						NO	JKSPALDING@AMEREN.COM			YES	 	
2011	NO	60607RLBLP1538W	RELIABLE PLATING	1538 W LAKE ST	CHICAGO	COOK	IL	60607	YES	NO	NO	NO								332813						41.88535	-87.66575	005137914										1311209665672	N511	NITRATE COMPOUNDS	TRI	Pounds																		W	H129	H121	H077	H123					N 	E6		S	H101								N 	E6																																						NO	COULT@RELIABLEPLATING.COM			NO	 	
2011	NO	62644HVNPWSTRTE	HAVANA POWER STATION	15260 N STATE RT 78	HAVANA	MASON	IL	62644	YES	NO	NO	NO								221112						40.281502	-90.079002	079148672								DYNEGY INC	804405074	1311209364847	N040	BARIUM COMPOUNDS	TRI	Pounds																		A	A05								N 	E2																																																		NO	IR@DYNEGY.COM			YES	 	
2011	NO	60608FSKGN1111W	FISK GENERATING STATION	1111 WCERMAK	CHICAGO	COOK	IL	60608	YES	NO	NO	NO								221112						41.852547	-87.653383	114466571								EDISON INTERNATIONAL	195138458	1311209372275	N150	DIOXIN AND DIOXIN-LIKE COMPOUNDS	DIOXIN	Grams																		NA									N 																																																			NO				NO	 	
2011	NO	60638THCPH5851W	HALLSTAR CO ESTER SOLUTIONS FACILITY	5851 W 73RD ST	BEDFORD PARK	COOK	IL	60638	YES	NO	NO	NO								325199						41.75973	-87.76749	004163283								HALLSTAR CO		1311209200120	N230	CERTAIN GLYCOL ETHERS	TRI	Pounds																		A	H040								N 	E4																																																		NO	DURREA@HALLSTAR.COM			NO	 	
