Year,TRI Facility ID,Facility Name,Street Address,City,County,ST,ZIP,Latitude,Longitude,Primary SIC,SIC 2,SIC 3,SIC 4,SIC 5,SIC 6,Primary NAICS,NAICS 2,NAICS 3,NAICS 4,NAICS 5,NAICS 6,Doc_Ctrl_Num,Chemical,CAS #/Compound ID,Clean Air Act Chemical,Classification,Metal,Metal Category,Carcinogen,Form Type,Unit of Measure,5.1 Fugitive Air,5.2 Stack Air,5.3 Water,5.4.1 Underground Class I,5.4.2 Underground Class II-V,5.5.1A RCRA C Landfills,5.5.1B Other Landfills,5.5.2 Land Treatment,5.5.3 Surface Impoundment,5.5.3A RCRA C Surface Impoundment,5.5.3B Other Surface Impoundment,5.5.4 Other Disposal,On-site Release Total,6.1 POTW - Metals and Metal Compounds,6.1 POTW - Non-Metals,6.1 POTW - Total Transfers,6.2 M10,6.2 M41,6.2 M62,6.2 M71,6.2 M81,6.2 M82,6.2 M72,6.2 M63,6.2 M66,6.2 M67,6.2 M64,6.2 M65,6.2 M73,6.2 M79,6.2 M90,6.2 M94,6.2 M99,Off-Site Release Total,6.2 M20,6.2 M24,6.2 M26,6.2 M28,6.2 M93,Off-Site Recycled Total,6.2 M56,6.2 M92,Off-Site Recovery Total,6.2 M40,6.2 M50,6.2 M54,6.2 M61,6.2 M69,6.2 M95,Off-Site Treated Total,Total Releases,8.1 Releases,8.1a On-site Contained Releases,8.1b On-site Other Releases,8.1c Off-site Contained Releases,8.1d Off-site Other Releases,8.2 Energy Recovery On-site,8.3 Energy Recovery Off-site,8.4 Recycling On-Site,8.5 Recycling Off-Site,8.6 Treatment On-site,8.7 Treatement Off-site,Production Waste (8.1 thru 8.7),8.8 One-time Release,8.9 Production Ratio,Parent Company Name,Parent Company DB Number,3/3/2012 v10
1988,12188GNRLL260HU,MPM SILICONES LLC,260 HUDSON RIVER RD,WATERFORD,SARATOGA,NY,12188,42.813917,-73.66,2821,2869,,,,,325211,,,,,,1388020009484,BENZENE,000071432,YES,NON-PBT,NO,0,YES,R,Pounds,30,610,130,0,0,0,1,0,0,0,0,0,771,0,0,0,0,0,0,0,0,0,0,0,0,0,0,0,0,0,0,0,0,0,0,0,0,0,0,0,0,0,0,0,0,0,0,0,0,0,771,0,0,0,0,0,0,0,0,0,0,0,0,0,,MOMENTIVE PERFORMANCE MATERIALS,NA
1988,12188GNRLL260HU,MPM SILICONES LLC,260 HUDSON RIVER RD,WATERFORD,SARATOGA,NY,12188,42.813917,-73.66,2821,2869,,,,,325211,,,,,,1388020009559,CERTAIN GLYCOL ETHERS,N230,YES,NON-PBT,NO,0,NO,R,Pounds,160,1,0,0,0,0,0,0,0,0,0,0,161,0,0,0,0,0,0,0,0,0,0,0,0,0,0,0,0,0,0,0,0,0,0,0,0,0,0,0,0,0,0,0,0,0,0,0,0,0,161,0,0,0,0,0,0,0,0,0,0,0,0,0,,MOMENTIVE PERFORMANCE MATERIALS,NA
1988,12188GNRLL260HU,MPM SILICONES LLC,260 HUDSON RIVER RD,WATERFORD,SARATOGA,NY,12188,42.813917,-73.66,2821,2869,,,,,325212,,,,,,1388020009647,XYLENE (MIXED ISOMERS),001330207,YES,NON-PBT,NO,0,NO,R,Pounds,9900,6000,140,0,0,0,46,0,0,0,0,0,16086,0,0,0,0,0,0,0,0,0,0,0,0,0,0,0,0,0,0,0,0,0,0,0,0,0,0,0,0,0,0,0,0,0,0,0,0,0,16086,0,0,0,0,0,0,0,0,0,0,0,0,0,,MOMENTIVE PERFORMANCE MATERIALS,NA
1988,13209FRZRJ3000M,FRAZER & JONES CO,3000 MILTON AVE,SOLVAY,ONONDAGA,NY,13209,43.062111,-76.228336,3322,3479,,,,,331511,,,,,,1388025049533,ZINC (FUME OR DUST),007440666,NO,NON-PBT,YES,4,NO,R,Pounds,250,1152,0,0,0,0,0,0,0,0,0,0,1402,0,0,0,0,0,0,0,0,0,0,0,0,0,0,0,0,0,0,0,0,0,0,0,0,0,0,0,0,0,0,0,0,0,0,0,0,0,1402,0,0,0,0,0,0,0,0,0,0,0,0,0,,THE EASTERN CO,001165679
1988,11222CMSTL513PO,ACME STEEL DOOR INC,513 PORTER AVE,BROOKLYN,KINGS,NY,11222,40.723721,-73.935922,3442,,,,,,332321,,,,,,1388025049750,TETRACHLOROETHYLENE,000127184,YES,NON-PBT,NO,0,YES,R,Pounds,67900,0,0,0,0,0,0,0,0,0,0,0,67900,0,0,0,0,0,0,0,0,0,0,0,0,0,0,0,0,0,0,0,0,0,0,0,0,0,0,0,0,0,0,0,0,0,0,0,0,0,67900,0,0,0,0,0,0,0,0,0,0,0,0,0,,MASCOTECH INC,119269827
1988,11237JFSTL1345H,JEFSTEEL BUSINESS EQUIPMENT CORP.,1345 HALSEY ST.,BROOKLYN,KINGS,NY,112376102,40.694691,-73.906413,2522,,,,,,337214,,,,,,1388025021128,TOLUENE,000108883,YES,NON-PBT,NO,0,NO,R,Pounds,845,7606,0,0,0,0,0,0,0,0,0,0,8451,0,0,0,0,0,0,0,0,0,0,0,0,0,0,0,0,0,0,0,0,0,0,0,0,0,0,0,0,0,0,0,0,0,0,0,0,0,8451,0,0,0,0,0,0,0,0,0,0,0,0,0,,NA,NA
1988,14760CPRPW1648D,COOPER POWER SYSTEMS INC,1648 DUGAN RD,OLEAN,CATTARAUGUS,NY,14760,42.072394,-78.390661,3643,,,,,,335931,,,,,,1388025025242,ANTIMONY,007440360,YES,NON-PBT,YES,1,NO,R,Pounds,0,250,0,0,0,0,0,0,0,0,0,0,250,0,0,0,0,0,0,0,0,0,3952,0,0,0,0,0,0,0,0,0,0,3952,0,0,0,0,0,0,0,0,0,0,0,0,0,0,0,0,4202,0,0,0,0,0,0,0,0,0,0,0,0,0,,COOPER US INC,602755428
1988,14048CPSMD3257M,INX INTERNATIONAL INK CO.,3257 MIDDLE RD,DUNKIRK,CHAUTAUQUA,NY,14048,42.498762,-79.277259,2893,,,,,,325910,,,,,,1388025038201,COPPER COMPOUNDS,N100,NO,NON-PBT,YES,1,NO,R,Pounds,0,0,0,0,0,0,0,0,0,0,0,0,0,250,0,250,0,0,0,0,0,0,1233,0,0,0,0,0,0,0,0,0,0,1233,0,0,0,0,0,0,0,0,0,0,0,0,0,0,0,0,1483,0,0,0,0,0,0,0,0,0,0,0,0,0,,INX GROUP LTD,051065035
1988,13902NTCMG40CHA,KODAK POLYCHROME GRAPHICS CO. LTD.,40 CHARLES ST.,BINGHAMTON,BROOME,NY,13902,42.109142,-75.928253,3861,,,,,,325992,,,,,,1388025052578,HYDROQUINONE,000123319,YES,NON-PBT,NO,0,NO,R,Pounds,0,0,0,0,0,0,0,0,0,0,0,0,0,0,35000,35000,0,0,0,0,0,0,0,0,0,0,0,0,0,0,0,0,0,0,0,0,0,0,0,0,0,0,0,0,0,0,0,0,0,0,0,0,0,0,0,0,0,0,0,0,0,0,0,0,,KODAK POLYCHROME GRAPHICS LLC,004198888
1988,14760CNPNC1405B,CYTEC OLEAN INC,1405 BUFFALO ST,OLEAN,CATTARAUGUS,NY,147601139,42.085,-78.44638,2821,,,,,,325211,,,,,,1388025057035,TRICHLOROETHYLENE,000079016,YES,NON-PBT,NO,0,YES,R,Pounds,750,750,0,0,0,0,0,0,0,0,0,0,1500,0,0,0,0,0,0,0,0,0,0,0,0,0,0,0,0,0,0,0,0,0,0,0,0,0,0,0,0,0,0,0,0,0,0,0,0,0,1500,0,0,0,0,0,0,0,0,0,0,0,0,0,,CYTEC INDUSTRIES INC,809749948
1988,14760CNPNC1405B,CYTEC OLEAN INC,1405 BUFFALO ST,OLEAN,CATTARAUGUS,NY,147601139,42.085,-78.44638,2821,,,,,,325211,,,,,,1388025057086,METHYLENEBIS(PHENYLISOCYANATE),000101688,NO,NON-PBT,NO,0,NO,R,Pounds,250,250,0,0,0,0,0,0,0,0,0,0,500,0,0,0,0,0,0,0,0,0,0,0,0,0,0,0,0,0,0,0,0,0,0,0,0,0,0,0,0,0,0,250,0,0,0,0,0,250,500,0,0,0,0,0,0,0,0,0,0,0,0,0,,CYTEC INDUSTRIES INC,809749948
1988,14613DPNTR666DR,DU PONT DRIVING PARK PLANT,666 DRIVING PARK AVE.,ROCHESTER,MONROE,NY,146131596,43.18088,-77.647721,3861,,,,,,325992,,,,,,1388020000687,SILVER COMPOUNDS,N740,NO,NON-PBT,YES,1,NO,R,Pounds,0,0,0,0,0,0,0,0,0,0,0,0,0,250,0,250,0,0,0,0,0,0,0,0,0,0,0,0,0,0,0,0,0,0,0,0,0,0,0,0,0,0,0,0,0,0,0,0,0,0,250,0,0,0,0,0,0,0,0,0,0,0,0,0,,E I DU PONT DE NEMOURS & CO INC,001315704
1988,14733DWCRF65SOU,DOWCRAFT CORP.,65 S. DOW ST.,FALCONER,CHAUTAUQUA,NY,14733,42.112097,-79.203648,3490,,,,,,337215,,,,,,1388025091479,ACETONE,000067641,NO,NON-PBT,NO,0,NO,R,Pounds,0,7247,0,0,0,0,0,0,0,0,0,0,7247,0,0,0,0,0,0,0,0,0,0,0,0,0,0,0,0,0,0,0,0,0,0,0,0,0,0,0,0,0,0,0,0,0,0,0,0,0,7247,0,0,0,0,0,0,0,0,0,0,0,0,0,,DOWCRAFT CORP,002100352
1988,14094TWNLK520MI,TWIN LAKE CHEMICAL INC,520 MILL ST,LOCKPORT,NIAGARA,NY,14094,43.184167,-78.699722,2869,,,,,,325199,,,,,,1388025095694,PHTHALIC ANHYDRIDE,000085449,YES,NON-PBT,NO,0,NO,R,Pounds,250,250,0,0,0,0,0,0,0,0,0,0,500,0,250,250,0,0,0,0,0,0,0,0,0,0,0,0,0,0,0,0,0,0,0,0,0,0,0,0,0,0,0,0,0,0,0,0,0,0,500,0,0,0,0,0,0,0,0,0,0,0,0,0,,NA,NA
1988,14120CCDNTWALCK,OCCIDENTAL CHEMICAL CORP. DUREZ,673 WALCK RD.,NORTH TONAWANDA,NIAGARA,NY,141200535,43.046611,-78.861833,2821,,,,,,325211,,,,,,1388025039708,"SULFURIC ACID (1994 AND AFTER ""ACID AEROSOLS"" ONLY)",007664939,NO,NON-PBT,NO,0,NO,R,Pounds,0,5,0,0,0,0,0,0,0,0,0,0,5,0,0,0,0,0,0,0,0,0,0,0,0,0,0,0,0,0,0,0,0,0,0,0,0,0,0,0,0,0,0,0,0,0,0,375,0,375,5,0,0,0,0,0,0,0,0,0,0,0,0,0,,OCCIDENTAL PETROLEUM CORP,006908354
1988,14120CCDNTWALCK,OCCIDENTAL CHEMICAL CORP. DUREZ,673 WALCK RD.,NORTH TONAWANDA,NIAGARA,NY,141200535,43.046611,-78.861833,2821,,,,,,325211,,,,,,1388025039773,FORMALDEHYDE,000050000,YES,NON-PBT,NO,0,YES,R,Pounds,978,12462,250,0,0,0,0,0,0,0,0,0,13690,0,0,0,0,0,0,0,0,0,1450,0,0,0,0,0,0,0,0,0,0,1450,0,0,0,0,0,0,0,0,0,0,0,0,0,29980,0,29980,15140,0,0,0,0,0,0,0,0,0,0,0,0,0,,OCCIDENTAL PETROLEUM CORP,006908354
1988,13317BCHNT2CHUR,BEECH-NUT NUTRITION CORP,102 CHURCH ST,CANAJOHARIE,MONTGOMERY,NY,13317,42.907211,-74.571241,2099,,,,,,311422,,,,,,1388025044241,SODIUM HYDROXIDE (SOLUTION),001310732,NO,NON-PBT,NO,0,NO,R,Pounds,0,0,0,0,0,0,0,0,0,0,0,0,0,0,574000,574000,0,0,0,0,0,0,0,0,0,0,0,0,0,0,0,0,0,0,0,0,0,0,0,0,0,0,0,0,0,0,0,0,0,0,0,0,0,0,0,0,0,0,0,0,0,0,0,0,,HERO,NA
1988,14760CNPNC1405B,CYTEC OLEAN INC,1405 BUFFALO ST,OLEAN,CATTARAUGUS,NY,147601139,42.085,-78.44638,2821,,,,,,325520,,,,,,1388025057100,"TOLUENE-2,4-DIISOCYANATE",000584849,YES,NON-PBT,NO,0,YES,R,Pounds,250,250,0,0,0,0,0,0,0,0,0,0,500,0,0,0,0,0,0,0,0,0,0,0,0,0,0,0,0,0,0,0,0,0,0,0,0,0,0,0,0,0,0,750,0,0,0,0,0,750,500,0,0,0,0,0,0,0,0,0,0,0,0,0,,CYTEC INDUSTRIES INC,809749948
1988,11520CLMBC159HA,ITW TACC FREEPORT,159 HANSE AVE,FREEPORT,NASSAU,NY,11520,40.646535,-73.572188,2891,,,,,,325520,,,,,,1388025028426,ACETONE,000067641,NO,NON-PBT,NO,0,NO,R,Pounds,750,4025,0,0,0,0,0,0,0,0,0,0,4775,0,0,0,0,0,0,0,0,0,0,0,0,0,0,0,0,0,0,0,0,0,0,0,0,0,0,0,0,0,0,0,3050,0,0,0,0,3050,4775,0,0,0,0,0,0,0,0,0,0,0,0,0,,ILLINOIS TOOL WORKS INC,361258310
1988,12010MHWKFROUTE,MOHAWK FINISHING PRODS. INC.,4715 ST. HWY. 30,AMSTERDAM,MONTGOMERY,NY,12010,42.98025,-74.186414,2851,,,,,,325510,,,,,,1388025047200,METHANOL,000067561,YES,NON-PBT,NO,0,NO,R,Pounds,250,250,0,0,0,0,0,0,0,0,0,0,500,0,0,0,0,0,0,0,0,0,0,0,0,0,0,0,0,0,0,0,0,0,0,0,0,0,0,0,0,0,0,0,0,0,0,0,0,0,500,0,0,0,0,0,0,0,0,0,0,0,0,0,,RPM INC,004155651
1988,12010MHWKFROUTE,MOHAWK FINISHING PRODS. INC.,4715 ST. HWY. 30,AMSTERDAM,MONTGOMERY,NY,12010,42.98025,-74.186414,2851,,,,,,325510,,,,,,1388025047248,"1,1,1-TRICHLOROETHANE",000071556,YES,NON-PBT,NO,0,NO,R,Pounds,250,2450,0,0,0,0,0,0,0,0,0,0,2700,0,0,0,0,0,0,0,0,0,0,0,0,0,0,0,0,0,0,0,0,0,0,0,0,0,0,0,0,0,0,0,0,0,0,0,0,0,2700,0,0,0,0,0,0,0,0,0,0,0,0,0,,RPM INC,004155651
1988,14094TWNLK520MI,TWIN LAKE CHEMICAL INC,520 MILL ST,LOCKPORT,NIAGARA,NY,14094,43.184167,-78.699722,2869,,,,,,325000,,,,,,1388025095769,SODIUM HYDROXIDE (SOLUTION),001310732,NO,NON-PBT,NO,0,NO,R,Pounds,0,0,0,0,0,0,0,0,0,0,0,0,0,0,0,0,0,0,0,0,0,0,0,0,0,0,0,0,0,0,0,0,0,0,0,0,0,0,0,0,0,0,0,0,0,0,0,0,0,0,0,0,0,0,0,0,0,0,0,0,0,0,0,0,,NA,NA
1988,11040ZCHMC1801F,ZOE CHEMICAL CO.,1801 FALMOUTH AVE.,NEW HYDE PARK,NASSAU,NY,11040,40.743078,-73.672847,2842,,,,,,325612,,,,,,1388025032881,"1,1,1-TRICHLOROETHANE",000071556,YES,NON-PBT,NO,0,NO,R,Pounds,250,0,0,0,0,0,0,0,0,0,0,0,250,0,250,250,0,0,0,0,0,0,0,0,0,0,0,0,0,0,0,0,0,0,0,0,0,0,0,0,0,0,0,0,0,0,0,0,0,0,250,0,0,0,0,0,0,0,0,0,0,0,0,0,,NA,NA
1988,13045PLLTR3643W,PALL CORP PALL TRINITY MICRO DIV,3643 NYS RT 281,CORTLANDVILLE,CORTLAND,NY,13045,42.583209,-76.214232,3569,,,,,,332000,,,,,,1388025116322,SODIUM HYDROXIDE (SOLUTION),001310732,NO,NON-PBT,NO,0,NO,R,Pounds,0,96,0,0,0,0,0,0,0,0,0,0,96,0,44198,44198,0,0,0,0,0,0,0,0,0,0,0,0,0,0,0,0,0,0,0,0,0,0,0,0,0,0,0,0,0,0,0,0,0,0,96,0,0,0,0,0,0,0,0,0,0,0,0,0,,PALL CORP,NA
1988,11106LVCMT34113,LEVCO METAL FINISHERS INC.,34-11 36TH ST.,LONG ISLAND CITY,QUEENS,NY,11106,40.757643,-73.923387,3471,,,,,,332813,,,,,,1388025079005,NITRIC ACID,007697372,NO,NON-PBT,NO,0,NO,R,Pounds,0,250,0,0,0,0,0,0,0,0,0,0,250,0,0,0,0,0,0,0,0,0,0,0,0,0,0,0,0,0,0,0,0,0,0,0,0,0,0,0,0,0,0,0,0,0,0,0,0,0,250,0,0,0,0,0,0,0,0,0,0,0,0,0,,NA,NA
1988,13077PNNWL43JAM,HENKEL CORP,43 JAMES ST,HOMER,CORTLAND,NY,13077,42.637684,-76.182114,2819,,,,,,325181,,,,,,1388025100114,SODIUM HYDROXIDE (SOLUTION),001310732,NO,NON-PBT,NO,0,NO,R,Pounds,250,99,0,0,0,0,0,0,0,0,0,0,349,0,5617,5617,0,0,0,0,0,0,0,0,0,0,0,0,0,0,0,0,0,0,0,0,0,0,0,0,0,0,0,0,0,0,0,0,0,0,349,0,0,0,0,0,0,0,0,0,0,0,0,0,,HENKEL CORP,051441731
1988,11542PHTCR31SEA,PHOTOCIRCUITS CORP,31 SEA CLIFF AVE,GLEN COVE,NASSAU,NY,11542,40.85183,-73.622792,3471,3672,,,,,334000,,,,,,1388025053253,"1,1,1-TRICHLOROETHANE",000071556,YES,NON-PBT,NO,0,NO,R,Pounds,5000,42500,0,0,0,0,0,0,0,0,0,0,47500,0,1296,1296,0,0,0,0,0,0,0,0,0,0,0,0,0,0,0,0,0,0,0,0,0,0,0,0,0,0,0,0,4800,0,0,0,0,4800,47500,0,0,0,0,0,0,0,0,0,0,0,0,0,,NA,NA
1988,11211MLSNS215KE,EMULSION SYSTEMS INC,215 KENT AVE.,BROOKLYN,KINGS,NY,11211,40.717198,-73.965061,INVA,,,,,,332813,,,,,,1388025056223,AMMONIA,007664417,NO,NON-PBT,NO,0,NO,R,Pounds,250,250,0,0,0,0,0,0,0,0,0,0,500,0,250,250,0,0,0,0,0,0,0,0,0,0,0,0,0,0,0,0,0,0,0,0,0,0,0,0,0,0,0,0,0,0,0,0,0,0,500,0,0,0,0,0,0,0,0,0,0,0,0,0,,"",""
1988,14207DPNTYSHERI,DUPONT YERKES PLANT,3115 RIVER RD,BUFFALO,ERIE,NY,14207,42.9615,-78.920667,3079,,,,,,326199,,,,,,1388020001400,CHLORINE,007782505,YES,NON-PBT,NO,0,NO,R,Pounds,0,0,3000,0,0,0,0,0,0,0,0,0,3000,0,250,250,0,0,0,0,0,0,0,0,0,0,0,0,0,0,0,0,0,0,0,0,0,0,0,0,0,0,0,0,0,0,0,0,0,0,3000,0,0,0,0,0,0,0,0,0,0,0,0,0,,E I DU PONT DE NEMOURS & CO INC,001315704
1988,14522GRLCK1666D,GARLOCK SEALING TECHNOLOGIES,1666 DIVISION ST,PALMYRA,WAYNE,NY,14522,43.070028,-77.224222,3069,,,,,,339991,,,,,,1388025045927,"SULFURIC ACID (1994 AND AFTER ""ACID AEROSOLS"" ONLY)",007664939,NO,NON-PBT,NO,0,NO,R,Pounds,0,0,12342,0,0,0,0,0,0,0,0,0,12342,0,0,0,0,0,0,0,0,0,0,0,0,0,0,0,0,0,0,0,0,0,0,0,0,0,0,0,0,0,0,0,0,0,0,0,0,0,12342,0,0,0,0,0,0,0,0,0,0,0,0,0,,ENPRO INDUSTRIES INC,004467452
1988,10014PRFCT200VA,PERFECT FINISHING CO.,200 VARICK ST.,NEW YORK,NEW YORK,NY,10014,40.728394,-74.005351,2641,,,,,,322222,,,,,,1388025017361,METHYL ETHYL KETONE,000078933,NO,NON-PBT,NO,0,NO,R,Pounds,0,250,0,0,0,0,0,0,0,0,0,0,250,0,0,0,0,0,0,0,0,0,0,0,0,0,0,0,0,0,0,0,0,0,0,0,0,0,0,0,0,0,0,0,0,0,0,0,0,0,250,0,0,0,0,0,0,0,0,0,0,0,0,0,,NA,NA
1988,14731SGNRN43JEF,SIGNORE INC,55-57 JEFFERSON ST,ELLICOTTVILLE,CATTARAUGUS,NY,147311448,42.272913,-78.671141,2522,,,,,,337214,,,,,,1388025036068,METHYL ETHYL KETONE,000078933,NO,NON-PBT,NO,0,NO,R,Pounds,128,37056,0,0,0,0,0,0,0,0,0,0,37184,0,403,403,0,0,0,0,0,0,0,0,0,0,0,0,0,0,0,0,0,0,0,0,0,0,0,0,0,0,0,0,0,0,0,0,0,0,37184,0,0,0,0,0,0,0,0,0,0,0,0,0,,NA,NA
1988,12828SCTTWEDDYS,SCOTT WORLDWIDE,EDDY ST.,FORT EDWARD,WASHINGTON,NY,12828,43.269889,-73.592306,2621,,,,,,322121,,,,,,1388025044672,"SULFURIC ACID (1994 AND AFTER ""ACID AEROSOLS"" ONLY)",007664939,NO,NON-PBT,NO,0,NO,R,Pounds,0,0,0,0,0,0,0,0,0,0,0,0,0,0,0,0,0,0,0,0,0,0,0,0,0,0,0,0,0,0,0,0,0,0,0,0,0,0,0,0,0,0,0,0,0,0,0,0,0,0,0,0,0,0,0,0,0,0,0,0,0,0,0,0,,SCOTT PAPER CO,001287879
1988,11802RCPLYNEWSO,BAYER CORP. (RUCO POLYMER CORP.),125 NEW S. RD.,HICKSVILLE,NASSAU,NY,11801,40.7575,-73.50416,2821,,,,,,325211,,,,,,1388020001119,ETHYLENE GLYCOL,000107211,YES,NON-PBT,NO,0,NO,R,Pounds,24,765,0,0,0,0,0,0,0,0,0,0,789,0,0,0,0,0,0,0,0,0,0,0,0,0,0,0,0,0,0,0,0,0,0,0,0,0,0,0,0,0,0,0,0,0,0,0,0,0,789,0,0,0,0,0,0,0,0,0,0,0,0,0,,BAYER CORP,NA
1988,11802RCPLYNEWSO,BAYER CORP. (RUCO POLYMER CORP.),125 NEW S. RD.,HICKSVILLE,NASSAU,NY,11801,40.7575,-73.50416,2821,,,,,,325211,,,,,,1388020001172,"TOLUENE-2,4-DIISOCYANATE",000584849,YES,NON-PBT,NO,0,YES,R,Pounds,0,0,0,0,0,0,0,0,0,0,0,0,0,0,0,0,0,0,0,0,0,0,0,0,0,0,0,0,0,0,0,0,0,0,0,0,0,0,0,0,0,0,0,0,0,0,0,0,0,0,0,0,0,0,0,0,0,0,0,0,0,0,0,0,,BAYER CORP,NA
1988,11356NDSTR20451,COMSTAR INTERNATIONAL INC,20-45 128 ST,COLLEGE POINT,QUEENS,NY,11356,40.781003,-73.840546,2899,,,,,,325998,,,,,,1388025030572,"SULFURIC ACID (1994 AND AFTER ""ACID AEROSOLS"" ONLY)",007664939,NO,NON-PBT,NO,0,NO,R,Pounds,0,0,0,0,0,0,0,0,0,0,0,0,0,0,0,0,0,0,0,0,0,0,0,0,0,0,0,0,0,0,0,0,0,0,0,0,0,0,0,0,0,0,0,0,0,0,0,0,0,0,0,0,0,0,0,0,0,0,0,0,0,0,0,0,,NA,NA
1988,13165WRGRC228EA,EVANS CHEMETICS LP,228 E MAIN ST,WATERLOO,SENECA,NY,13165,42.901556,-76.853917,2860,,,,,,325199,,,,,,1388025096456,AMMONIUM SULFATE (SOLUTION),007783202,NO,NON-PBT,NO,0,NO,R,Pounds,0,0,87000,0,0,0,0,0,0,0,0,0,87000,0,0,0,0,0,0,0,0,0,1400,0,0,0,0,0,0,0,0,0,0,1400,0,0,0,0,0,0,0,0,0,0,0,0,0,0,0,0,88400,0,0,0,0,0,0,0,0,0,0,0,0,0,,NA,NA
1988,13165WRGRC228EA,EVANS CHEMETICS LP,228 E MAIN ST,WATERLOO,SENECA,NY,13165,42.901556,-76.853917,2860,,,,,,325199,,,,,,1388025096506,SODIUM HYDROXIDE (SOLUTION),001310732,NO,NON-PBT,NO,0,NO,R,Pounds,0,0,0,0,0,0,0,0,0,0,0,0,0,0,0,0,0,0,0,0,0,0,0,0,0,0,0,0,0,0,0,0,0,0,0,0,0,0,0,0,0,0,0,0,0,0,0,0,0,0,0,0,0,0,0,0,0,0,0,0,0,0,0,0,,NA,NA
1988,14760DRSSRPOBOX,DRESSER-RAND,PAUL CLARK DR,OLEAN,CATTARAUGUS,NY,14760,42.087222,-78.435333,3563,,,,,,333912,,,,,,1388025061045,"SULFURIC ACID (1994 AND AFTER ""ACID AEROSOLS"" ONLY)",007664939,NO,NON-PBT,NO,0,NO,R,Pounds,0,0,0,0,0,0,0,0,0,0,0,0,0,0,0,0,0,0,0,0,0,0,0,0,0,0,0,0,0,0,0,0,0,0,0,0,0,0,0,0,0,0,0,0,0,0,0,0,0,0,0,0,0,0,0,0,0,0,0,0,0,0,0,0,,DRESSER RAND,NA
1988,13357DPNTRCLARK,REMINGTON ARMS CO INC,CLARK ST,ILION,HERKIMER,NY,13357,43.015139,-75.035,3484,,,,,,332994,,,,,,1388020003277,AMMONIA,007664417,NO,NON-PBT,NO,0,NO,R,Pounds,0,1700,0,0,0,0,0,0,0,0,0,0,1700,0,0,0,0,0,0,0,0,0,0,0,0,0,0,0,0,0,0,0,0,0,0,0,0,0,0,0,0,0,0,0,0,0,0,0,0,0,1700,0,0,0,0,0,0,0,0,0,0,0,0,0,,REMINGTON ARMS CO INC,001453216
1988,13357DPNTRCLARK,REMINGTON ARMS CO INC,CLARK ST,ILION,HERKIMER,NY,13357,43.015139,-75.035,3484,,,,,,332994,,,,,,1388020003341,"SULFURIC ACID (1994 AND AFTER ""ACID AEROSOLS"" ONLY)",007664939,NO,NON-PBT,NO,0,NO,R,Pounds,0,0,0,0,0,0,0,0,0,0,0,0,0,0,0,0,0,0,0,0,0,0,0,0,0,0,0,0,0,0,0,0,0,0,0,0,0,0,0,0,0,0,0,0,0,0,0,0,0,0,0,0,0,0,0,0,0,0,0,0,0,0,0,0,,REMINGTON ARMS CO INC,001453216
1988,12072WHTMPRIVER,WHITE MOP WRINGER CO.,RIVERSIDE DR.,FULTONVILLE,MONTGOMERY,NY,12072,42.945562,-74.353824,3471,,,,,,332813,,,,,,1388025083813,"SULFURIC ACID (1994 AND AFTER ""ACID AEROSOLS"" ONLY)",007664939,NO,NON-PBT,NO,0,NO,R,Pounds,0,760,0,0,0,0,0,0,0,0,0,0,760,0,0,0,0,0,0,0,0,0,0,0,0,0,0,0,0,0,0,0,0,0,0,0,0,0,0,0,0,0,0,0,0,0,0,0,0,0,760,0,0,0,0,0,0,0,0,0,0,0,0,0,,NA,NA
1988,13088STRTHBURRD,STRATHMORE PRODUCTS INC,BURR DR,CLAY,ONONDAGA,NY,13041,43.118623,-76.195092,2851,,,,,,325510,,,,,,1388025132364,METHYL ISOBUTYL KETONE,000108101,YES,NON-PBT,NO,0,NO,R,Pounds,827,906,0,0,0,0,0,0,0,0,0,0,1733,0,0,0,0,0,0,0,0,0,0,0,0,0,0,0,0,0,0,0,0,0,0,0,0,0,0,0,0,0,0,0,107,0,0,0,0,107,1733,0,0,0,0,0,0,0,0,0,0,0,0,0,,NA,NA
1988,12866BLLPC1ADAM,BALL METAL BEVERAGE CONTAINER CORP,11 ADAMS RD,SARATOGA SPRINGS,SARATOGA,NY,128669036,43.060515,-73.823594,3411,,,,,,332431,,,,,,1388025253600,"HYDROCHLORIC ACID (1995 AND AFTER ""ACID AEROSOLS"" ONLY)",007647010,YES,NON-PBT,NO,0,NO,R,Pounds,250,250,0,0,0,0,0,0,0,0,0,0,500,0,250,250,0,0,0,0,0,0,0,0,0,0,0,0,0,0,0,0,0,0,0,0,0,0,0,0,0,0,0,0,0,0,0,0,0,0,500,0,0,0,0,0,0,0,0,0,0,0,0,0,,BALL CORP,006419147
1988,10550DYNCS807SO,NORTHEAST PLATING INC,807 S FULTON AVE,MOUNT VERNON,WESTCHESTER,NY,105504703,40.89457,-73.823641,3471,,,,,,332813,,,,,,1388025265974,CYANIDE COMPOUNDS,N106,YES,NON-PBT,NO,0,NO,R,Pounds,750,0,0,0,0,0,0,0,0,0,0,0,750,0,250,250,0,0,0,0,0,0,0,0,0,0,0,0,0,0,0,0,0,0,0,0,0,0,0,0,0,0,0,0,0,0,0,0,0,0,750,0,0,0,0,0,0,0,0,0,0,0,0,0,,NA,NA
1988,14901KNNDY1021E,KENNEDY VALVE,1021 E WATER ST,ELMIRA,CHEMUNG,NY,14901,42.09277,-76.786313,3494,,,,,,332911,,,,,,1388025207984,XYLENE (MIXED ISOMERS),001330207,YES,NON-PBT,NO,0,NO,R,Pounds,32000,20000,0,0,0,0,0,0,0,0,0,0,52000,0,0,0,0,0,0,0,0,0,0,0,0,0,0,0,0,0,0,0,0,0,0,0,0,0,0,0,0,0,0,0,0,0,0,0,0,0,52000,0,0,0,0,0,0,0,0,0,0,0,0,0,,MCWANE INC,004001715
1988,14423JNSCH100SU,JCI JONES CHEMICALS INC,100 SUNNY SOL BLVD,CALEDONIA,LIVINGSTON,NY,14423,42.97653,-77.84556,2819,2812,,,,,325000,,,,,,1388025250818,AMMONIA,007664417,NO,NON-PBT,NO,0,NO,R,Pounds,250,250,0,0,0,0,0,0,0,0,0,1,501,0,0,0,0,0,0,0,0,0,0,0,0,0,0,0,0,0,0,0,0,0,0,0,0,0,0,0,0,0,0,0,0,0,0,0,0,0,501,0,0,0,0,0,0,0,0,0,0,0,0,0,,JCI JONES CHEMICALS INC,NA
1988,14423JNSCH100SU,JCI JONES CHEMICALS INC,100 SUNNY SOL BLVD,CALEDONIA,LIVINGSTON,NY,14423,42.97653,-77.84556,2819,2812,,,,,325188,,,,,,1388025250871,TOLUENE,000108883,YES,NON-PBT,NO,0,NO,R,Pounds,250,0,0,0,0,0,0,0,0,0,0,0,250,0,0,0,0,0,0,0,0,0,0,0,0,0,0,0,0,0,0,0,0,0,0,0,0,0,0,0,0,0,0,0,0,0,0,0,0,0,250,0,0,0,0,0,0,0,0,0,0,0,0,0,,JCI JONES CHEMICALS INC,NA
1988,12158GNRLLNORYL,SABIC INNOVATIVE PLASTICS US LLC,ONE NORYL AVE,SELKIRK,ALBANY,NY,12158,42.575472,-73.857111,2821,2869,3079,,,,325211,,,,,,1388025339906,CADMIUM COMPOUNDS,N078,YES,NON-PBT,YES,1,NO,R,Pounds,0,0,55,0,0,0,200,0,0,0,0,0,255,0,0,0,0,0,0,0,0,0,0,0,0,0,0,0,0,0,0,0,0,0,0,0,0,0,0,0,0,0,0,0,0,0,0,0,0,0,255,0,0,0,0,0,0,0,0,0,0,0,0,0,,SABIC INNOVATIVE PLASTICS US LLC,799533617
1988,14653STMNK901EL,EASTMAN KODAK CO. ELMGROVE PLANT,901 ELMGROVE RD.,ROCHESTER,MONROE,NY,146535710,43.15206,-77.7339,3861,,,,,,333315,,,,,,1388025392818,N-BUTYL ALCOHOL,000071363,NO,NON-PBT,NO,0,NO,R,Pounds,1200,9600,0,0,0,0,0,0,0,0,0,0,10800,0,0,0,0,0,0,0,0,0,0,0,0,0,0,0,0,0,0,0,0,0,0,0,0,0,0,0,0,0,0,0,3500,0,36,0,0,3536,10800,0,0,0,0,0,0,0,0,0,0,0,0,0,,EASTMAN KODAK CO,002206183
1988,14456HBFLL61GAT,BASIC CHEMICAL SOLUTIONS,61 GATES AVE,GENEVA,ONTARIO,NY,14456,42.881183,-76.981974,2841,,,,,,325611,,,,,,1388025394622,PHOSPHORIC ACID,007664382,NO,NON-PBT,NO,0,NO,R,Pounds,250,250,0,0,0,0,0,0,0,0,0,0,500,0,250,250,0,0,0,0,0,0,0,0,0,0,0,0,0,0,0,0,0,0,0,0,0,0,0,0,0,0,0,0,0,0,0,0,0,0,500,0,0,0,0,0,0,0,0,0,0,0,0,0,,BASIC CHEMICAL SOLUTIONS LLC,028968691
1988,11203MRCRY4808F,MERCURY PAINT CORP,4808 FARRAGUT RD,BROOKLYN,KINGS,NY,11203,40.637323,-73.930708,2851,,,,,,325510,,,,,,1388025385749,LEAD COMPOUNDS,N420,YES,PBT,YES,1,NO,R,Pounds,250,0,0,0,0,0,0,0,0,0,0,0,250,0,0,0,0,0,0,0,0,0,0,0,0,0,0,0,0,0,0,0,0,0,0,0,0,0,0,0,0,0,0,0,0,0,0,0,0,0,250,0,0,0,0,0,0,0,0,0,0,0,0,0,,NA,NA
1988,14218BTHLHBARRO,REPUBLIC ENGINEERED PRODUCTS INC  LACKAWANNA,S3049 LAKE SHORE RD,BLASDELL,ERIE,NY,142191447,42.800361,-78.840667,3312,,,,,,331111,,,,,,1388025361837,ETHYLENE GLYCOL,000107211,YES,NON-PBT,NO,0,NO,R,Pounds,0,0,0,0,0,0,0,0,0,0,0,0,0,0,0,0,0,0,0,0,0,0,0,0,0,0,0,0,0,0,0,0,0,0,0,0,0,0,0,0,0,0,0,0,0,0,0,0,0,0,0,0,0,0,0,0,0,0,0,0,0,0,0,0,,REPUBLIC ENGINEERED PRODUCTS INC,120806711
1988,14302CCDNT4700B,OCCIDENTAL CHEMICAL CORP NIAGARA PLANT,4700 BUFFALO AVE,NIAGARA FALLS,NIAGARA,NY,14302,43.086694,-79.003833,2812,2865,2819,2869,,,325181,,,,,,1388025434200,PHOSPHORUS (YELLOW OR WHITE),007723140,YES,NON-PBT,NO,0,NO,R,Pounds,0,0,0,0,0,0,0,0,0,0,0,0,0,0,0,0,0,0,0,0,0,0,0,0,0,0,0,0,0,0,0,0,0,0,0,0,0,0,0,0,0,0,0,0,0,0,0,0,0,0,0,0,0,0,0,0,0,0,0,0,0,0,0,0,,OCCIDENTAL PETROLEUM CORP,006908354
1988,11590TLTYM700MA,UTILITY MFG. CO. INC.,700 MAIN ST.,WESTBURY,NASSAU,NY,115905020,40.757265,-73.558094,2899,,,,,,325998,,,,,,1388025129091,"SULFURIC ACID (1994 AND AFTER ""ACID AEROSOLS"" ONLY)",007664939,NO,NON-PBT,NO,0,NO,R,Pounds,250,0,0,0,0,0,0,0,0,0,0,0,250,0,0,0,0,0,0,0,0,0,0,0,0,0,0,0,0,0,0,0,0,0,0,0,0,0,0,0,0,0,0,0,0,0,0,0,0,0,250,0,0,0,0,0,0,0,0,0,0,0,0,0,,NA,NA
1988,12803NBCNC50HAR,AMES GOLDSMITH,50 HARRISON AVE,SOUTH GLENS FALLS,WARREN,NY,12803,43.296208,-73.627434,3432,,,,,,332996,,,,,,1388025263385,ZINC (FUME OR DUST),007440666,NO,NON-PBT,YES,4,NO,R,Pounds,1145,22903,0,0,0,0,0,0,0,0,0,0,24048,0,0,0,0,0,0,0,0,0,0,0,0,0,0,0,0,12915,0,0,0,12915,0,0,0,0,0,0,0,0,0,0,0,0,0,0,0,0,36963,0,0,0,0,0,0,0,0,0,0,0,0,0,,NA,NA
1988,13209CHMTC321BR,NAKOH CHEMICAL CO INC,321 BRIDGE ST,SOLVAY,ONONDAGA,NY,13209,43.065432,-76.217126,2819,,,,,,325188,,,,,,1388025302480,"SULFURIC ACID (1994 AND AFTER ""ACID AEROSOLS"" ONLY)",007664939,NO,NON-PBT,NO,0,NO,R,Pounds,0,250,0,0,0,0,0,0,0,0,0,0,250,0,0,0,0,0,0,0,0,0,0,0,0,0,0,0,0,0,0,0,0,0,0,0,0,0,0,0,0,0,0,0,0,0,0,0,0,0,250,0,0,0,0,0,0,0,0,0,0,0,0,0,,NA,NA
1988,14652STMNK1669L,EASTMAN KODAK CO EASTMAN BUSINESS PARK,1669 LAKE AVE,ROCHESTER,MONROE,NY,146523615,43.202778,-77.655222,3861,,,,,,325992,,,,,,1388025405325,SODIUM HYDROXIDE (SOLUTION),001310732,NO,NON-PBT,NO,0,NO,R,Pounds,350,3900,0,0,0,0,0,0,0,0,0,0,4250,0,0,0,0,0,0,0,0,0,0,0,0,0,0,0,0,0,0,0,0,0,0,0,0,0,0,0,0,0,0,0,0,0,39,0,0,39,4250,0,0,0,0,0,0,0,0,0,0,0,0,0,,EASTMAN KODAK CO,002206183
1988,12586CHMPNCOLDE,INTERSTATE PACKAGING CORP.,COLDENHAM RD.,WALDEN,ORANGE,NY,12586,41.55486,-74.1865,2679,,,,,,322224,,,,,,1388025463858,LEAD COMPOUNDS,N420,YES,PBT,YES,1,NO,R,Pounds,0,0,0,0,0,0,0,0,0,0,0,0,0,0,0,0,0,0,0,0,0,0,0,0,0,0,0,0,0,0,0,0,0,14781,0,0,0,0,0,0,0,0,0,3906,0,0,10875,0,0,0,14781,0,0,0,0,0,0,0,0,0,0,0,0,0,,NA,NA
1988,11801LSYMN270DU,ALSY MFG. CO. INC.,270 DUFFY AVE.,HICKSVILLE,NASSAU,NY,11801,40.76215,-73.54169,3645,,,,,,335121,,,,,,1388025064938,"1,1,1-TRICHLOROETHANE",000071556,YES,NON-PBT,NO,0,NO,R,Pounds,0,101030,0,0,0,0,0,0,0,0,0,0,101030,0,0,0,0,0,0,0,0,0,0,0,0,0,0,0,0,0,0,0,0,0,0,0,0,0,0,0,0,0,0,0,0,0,0,200,0,200,101030,0,0,0,0,0,0,0,0,0,0,0,0,0,,PAGET-HULME LTD,NA
1988,12183FRDMT75TIB,FORD MOTOR CO. GREEN ISLAND PLANT,75 TIBBITS AVE.,GREEN ISLAND,ALBANY,NY,12183,42.757407,-73.687791,3714,,,,,,336000,,,,,,1388025146705,LEAD,007439921,YES,PBT,YES,1,YES,R,Pounds,250,2300,0,0,0,0,0,0,0,0,0,0,2550,250,0,250,0,0,0,0,0,0,14000,0,0,0,0,0,0,0,0,0,0,14250,0,0,0,0,0,0,0,0,0,250,0,0,0,0,0,0,17050,0,0,0,0,0,0,0,0,0,0,0,0,0,,FORD MOTOR CO,001344746
1988,13367BSCSC5592B,FIBERMARK NORTH AMERICA INC,5492 BOSTWICK ST,LOWVILLE,LEWIS,NY,133679390,43.793882,-75.489545,2641,,,,,,322222,,,,,,1388025135411,TOLUENE,000108883,YES,NON-PBT,NO,0,NO,R,Pounds,2270,451858,0,0,0,0,0,0,0,0,0,0,454128,0,0,0,0,0,0,0,0,0,0,0,0,0,0,0,0,0,0,0,0,0,0,0,0,0,0,0,0,0,0,0,18682,0,0,0,0,18682,454128,0,0,0,0,0,0,0,0,0,0,0,0,0,,FIBERMARK NORTH AMERICA INC,NA
1988,13440VRFLX512WE,VARFLEX CORP,512 W CT ST,ROME,ONEIDA,NY,13440,43.217776,-75.465064,3644,,,,,,335999,,,,,,1388025139573,XYLENE (MIXED ISOMERS),001330207,YES,NON-PBT,NO,0,NO,R,Pounds,7100,63870,0,0,0,0,0,0,0,0,0,0,70970,0,0,0,0,0,0,0,0,0,0,0,0,0,0,0,0,0,0,0,0,0,0,0,0,0,0,0,0,0,0,0,500,0,0,0,0,500,70970,0,0,0,0,0,0,0,0,0,0,0,0,0,,NA,NA
1988,12095KRGBR620EA,KARG BROTHERS INC.,6-20 E. FULTON ST.,JOHNSTOWN,FULTON,NY,12095,43.011051,-74.371414,3111,,,,,,316110,,,,,,1388025185125,"SULFURIC ACID (1994 AND AFTER ""ACID AEROSOLS"" ONLY)",007664939,NO,NON-PBT,NO,0,NO,R,Pounds,0,0,0,0,0,0,0,0,0,0,0,0,0,0,0,0,0,0,0,0,0,0,0,0,0,0,0,0,0,0,0,0,0,0,0,0,0,0,0,0,0,0,0,0,0,0,0,0,0,0,0,0,0,0,0,0,0,0,0,0,0,0,0,0,,FEUER LEATHER CORP,NA
1988,14304CCDNT56THS,OCCIDENTAL CHEMICAL CORP. ENERGY FROM WASTE,56TH ST. & ENERGY BLVD.,NIAGARA FALLS,NIAGARA,NY,14304,43.084583,-79.008167,4953,,,,,,325000,,,,,,1388025238736,"SULFURIC ACID (1994 AND AFTER ""ACID AEROSOLS"" ONLY)",007664939,NO,NON-PBT,NO,0,NO,R,Pounds,0,0,0,0,0,0,0,0,0,0,0,0,0,0,310,310,0,0,0,0,0,0,0,0,0,0,0,0,0,0,0,0,0,0,0,0,0,0,0,0,0,0,0,0,0,0,0,0,0,0,0,0,0,0,0,0,0,0,0,0,0,0,0,0,,OCCIDENTAL PETROLEUM CORP,006908354
1988,14150FMCCR37SAW,FMC CORP TONAWANDA PLAN T,35 SAWYER AVE,TONAWANDA,ERIE,NY,14150,42.973139,-78.926278,2819,,,,,,325188,,,,,,1388025278110,AMMONIUM SULFATE (SOLUTION),007783202,NO,NON-PBT,NO,0,NO,R,Pounds,0,0,120000,0,0,0,0,0,0,0,0,0,120000,0,0,0,0,0,0,0,0,0,26500,0,0,0,0,0,0,0,0,0,0,26500,0,0,0,0,0,0,0,0,0,0,0,0,0,0,0,0,146500,0,0,0,0,0,0,0,0,0,0,0,0,0,,FMC CORP,009146945
1988,13221BRSTLTHOMP,BRISTOL-MYERS SQUIBB CO,6000 THOMPSON RD,EAST SYRACUSE,ONONDAGA,NY,13057,43.065722,-76.087,2834,2833,,,,,325412,,,,,,1388025282575,ACETONE,000067641,NO,NON-PBT,NO,0,NO,R,Pounds,2300000,62000,0,0,0,0,0,0,0,0,0,0,2362000,0,540000,540000,0,0,0,0,0,0,0,0,0,0,0,0,0,0,0,0,0,0,0,0,0,0,0,0,0,0,0,0,86700,0,0,0,0,86700,2362000,0,0,0,0,0,0,0,0,0,0,0,0,0,,BRISTOL-MYERS SQUIBB CO,NA
1988,13069THMRR6MORR,SONOCO FLEXIBLE PACKAGING (CURRENTLY SPEAR NEW YORK),6 MORRILL PL,FULTON,OSWEGO,NY,13069,43.318439,-76.428981,2750,,,,,,322221,,,,,,1388025275482,METHANOL,000067561,YES,NON-PBT,NO,0,NO,R,Pounds,0,50000,0,0,0,0,0,0,0,0,0,0,50000,0,0,0,0,0,0,0,0,0,0,0,0,0,0,0,0,0,0,0,0,0,0,0,0,0,0,0,0,0,0,0,17800,0,0,0,0,17800,50000,0,0,0,0,0,0,0,0,0,0,0,0,0,,SPEAR USA,003151891
1988,14814GWYNC2883H,AGWAY INC.,2883 HAMMOND ST.,BIG FLATS,CHEMUNG,NY,14814,42.138849,-76.932503,2875,,,,,,325314,,,,,,1388025314941,"SULFURIC ACID (1994 AND AFTER ""ACID AEROSOLS"" ONLY)",007664939,NO,NON-PBT,NO,0,NO,R,Pounds,250,0,0,0,0,0,0,0,0,0,0,0,250,0,0,0,0,0,0,0,0,0,0,0,0,0,0,0,0,0,0,0,0,0,0,0,0,0,0,0,0,0,0,0,0,0,0,0,0,0,250,0,0,0,0,0,0,0,0,0,0,0,0,0,,AGWAY INC,002249159
1988,13126LCNRLLAKER,NOVELIS CORP,448 COUNTY RT 1A,OSWEGO,OSWEGO,NY,13126,43.488056,-76.453611,3353,,,,,,331315,,,,,,1388025331657,COPPER,007440508,NO,NON-PBT,YES,1,NO,R,Pounds,250,250,0,0,0,0,0,0,0,0,0,0,500,0,0,0,0,0,0,0,0,0,500,0,0,0,0,0,0,0,0,0,0,500,0,0,0,0,0,0,0,0,0,0,0,0,0,0,0,0,1000,0,0,0,0,0,0,0,0,0,0,0,0,0,,NOVELIS CORP,001504935
1988,12564PWLNG157CH,PAWLING CORP,157 CHARLES COLMAN BLVD,PAWLING,DUTCHESS,NY,12564,41.573139,-73.595278,3069,,,,,,326299,,,,,,1388025369137,ZINC COMPOUNDS,N982,NO,NON-PBT,YES,1,NO,R,Pounds,250,250,0,0,0,0,0,0,0,0,0,0,500,0,0,0,0,0,0,0,0,0,0,0,0,0,0,0,0,0,0,0,0,0,0,0,0,0,0,0,0,0,0,0,0,0,0,0,0,0,500,0,0,0,0,0,0,0,0,0,0,0,0,0,,NA,NA
1988,10550SPRYL716SO,SPRAYLAT CORP,716 S COLUMBUS AVE,MOUNT VERNON,WESTCHESTER,NY,105504717,40.89529,-73.82335,2851,,,,,,325510,,,,,,1388025373248,N-BUTYL ALCOHOL,000071363,NO,NON-PBT,NO,0,NO,R,Pounds,250,750,0,0,0,0,0,0,0,0,0,0,1000,0,0,0,0,0,0,0,0,0,0,0,0,0,0,0,0,0,0,0,0,0,0,0,0,0,0,0,0,0,0,0,0,0,0,0,0,0,1000,0,0,0,0,0,0,0,0,0,0,0,0,0,,SPRAYLAT CORP,NA
1988,14009MKYTR58CHU,EMKAY TRADING CORP. INC.,58 CHURCH ST.,ARCADE,WYOMING,NY,14009,42.535524,-78.424875,2022,,,,,,311513,,,,,,1388025152277,SODIUM HYDROXIDE (SOLUTION),001310732,NO,NON-PBT,NO,0,NO,R,Pounds,0,0,0,0,0,0,0,0,0,0,0,0,0,0,36000,36000,0,0,0,0,0,0,0,0,0,0,0,0,0,0,0,0,0,0,0,0,0,0,0,0,0,0,0,0,0,0,0,0,0,0,0,0,0,0,0,0,0,0,0,0,0,0,0,0,,EMKAY TRADING CORP INC,074005081
1988,11788STNDR35MAR,STANDARD MEMS INC.,35 MARCUS BLVD.,HAUPPAUGE,SUFFOLK,NY,117888847,40.808949,-73.245474,3674,,,,,,334413,,,,,,1388025206525,SODIUM HYDROXIDE (SOLUTION),001310732,NO,NON-PBT,NO,0,NO,R,Pounds,0,0,1600,0,0,0,0,0,0,0,0,0,1600,0,0,0,0,0,0,0,0,0,0,0,0,0,0,0,0,0,0,0,0,0,0,0,0,0,0,0,0,0,0,0,0,0,41000,0,0,41000,1600,0,0,0,0,0,0,0,0,0,0,0,0,0,,NA,NA
1988,14850THRMNHUDSO,THERM INC.,HUDSON ST. EXTENSION,ITHACA,TOMPKINS,NY,148500220,42.42475,-76.481306,3599,,,,,,333000,,,,,,1388025316201,TETRACHLOROETHYLENE,000127184,YES,NON-PBT,NO,0,YES,R,Pounds,250,250,0,0,0,0,0,0,0,0,0,0,500,0,0,0,0,0,0,0,0,0,0,0,0,0,0,0,0,0,0,0,0,0,0,0,0,0,0,0,0,0,0,0,0,0,0,0,0,0,500,0,0,0,0,0,0,0,0,0,0,0,0,0,,NA,NA
1988,14653STMNK901EL,EASTMAN KODAK CO. ELMGROVE PLANT,901 ELMGROVE RD.,ROCHESTER,MONROE,NY,146535710,43.15206,-77.7339,3861,,,,,,333315,,,,,,1388025392871,FREON 113,000076131,NO,NON-PBT,NO,0,NO,R,Pounds,180000,34000,0,0,0,0,0,0,0,0,0,0,214000,0,0,0,0,0,0,0,0,0,0,0,0,0,0,0,0,0,0,0,0,0,0,0,0,0,0,0,0,0,0,0,29000,0,900,0,0,29900,214000,0,0,0,0,0,0,0,0,0,0,0,0,0,,EASTMAN KODAK CO,002206183
1988,14653STMNK901EL,EASTMAN KODAK CO. ELMGROVE PLANT,901 ELMGROVE RD.,ROCHESTER,MONROE,NY,146535710,43.15206,-77.7339,3861,,,,,,333315,,,,,,1388025392933,NICKEL COMPOUNDS,N495,YES,NON-PBT,YES,1,NO,R,Pounds,0,6,0,0,0,0,0,0,0,0,0,0,6,85,0,85,0,0,0,0,0,0,33000,0,0,0,0,0,0,0,0,0,0,33000,0,0,0,0,0,0,0,0,0,0,95,0,0,0,0,95,33091,0,0,0,0,0,0,0,0,0,0,0,0,0,,EASTMAN KODAK CO,002206183
1988,14653STMNK901EL,EASTMAN KODAK CO. ELMGROVE PLANT,901 ELMGROVE RD.,ROCHESTER,MONROE,NY,146535710,43.15206,-77.7339,3861,,,,,,333315,,,,,,1388025392984,TETRACHLOROETHYLENE,000127184,YES,NON-PBT,NO,0,YES,R,Pounds,2100,70,0,0,0,0,0,0,0,0,0,0,2170,0,0,0,0,0,0,0,0,0,0,0,0,0,0,0,0,0,3,0,0,3,0,0,0,0,0,0,0,0,0,0,1900,0,0,0,0,1900,2173,0,0,0,0,0,0,0,0,0,0,0,0,0,,EASTMAN KODAK CO,002206183
1988,12584TRKTTRTE94,VAILS GATE MANUFACTURING LLC,1073 RT 94,VAILS GATE,ORANGE,NY,12584,41.448645,-74.06343,3996,,,,,,326192,,,,,,1388025370711,BUTYL BENZYL PHTHALATE,000085687,NO,NON-PBT,NO,0,NO,R,Pounds,0,750,0,0,0,0,0,0,0,0,0,0,750,0,0,0,0,0,0,0,0,0,22000,0,0,0,0,0,0,0,0,0,0,22000,0,0,0,0,0,0,0,0,0,0,0,0,0,0,0,0,22750,0,0,0,0,0,0,0,0,0,0,0,0,0,,TARKETT INC,054318142
1988,13069GNRLF607PH,BIRDS EYE FOODS LLC,607 PHILLIPS ST,FULTON,OSWEGO,NY,130691520,43.317222,-76.427778,2099,,,,,,311411,,,,,,1388025438971,AMMONIA,007664417,NO,NON-PBT,NO,0,NO,R,Pounds,13635,0,0,0,0,0,0,0,0,0,0,0,13635,0,250,250,0,0,0,0,0,0,0,0,0,0,0,0,0,0,0,0,0,0,0,0,0,0,0,0,0,0,0,0,0,0,0,0,0,0,13635,0,0,0,0,0,0,0,0,0,0,0,0,0,,PINNACLE FOODS GROUP LLC,965953359
1988,10702PLYCH2ASHB,POLYCHROME CORP.,2 ASHBURTON AVE.,YONKERS,WESTCHESTER,NY,10702,40.940165,-73.900691,INVA,,,,,,323000,,,,,,1388025423462,METHANOL,000067561,YES,NON-PBT,NO,0,NO,R,Pounds,6238,487,0,0,0,0,0,0,0,0,0,0,6725,0,0,0,0,0,0,0,0,0,0,0,0,0,0,0,0,0,0,0,0,0,0,0,0,0,0,0,0,0,0,0,34191,0,0,0,0,34191,6725,0,0,0,0,0,0,0,0,0,0,0,0,0,,DAINIPPON INKS & CHEMICALS OF AMERICAS,054527502
1988,11222JSHLW420MO,JOSH LOWENSTEIN & SONS INC,420 MORGAN AVE,BROOKLYN,KINGS,NY,11222,40.71878,-73.93724,2899,,,,,,325132,,,,,,1388025423500,CHROMIUM COMPOUNDS(EXCEPT CHROMITE ORE MINED IN THE TRANSVAAL REGION),N090,YES,NON-PBT,YES,1,NO,R,Pounds,0,0,0,0,0,0,0,0,0,0,0,0,0,250,0,250,0,0,0,0,0,0,0,0,0,0,0,0,0,0,0,0,0,0,0,0,0,0,0,0,0,0,0,0,0,0,0,0,0,0,250,0,0,0,0,0,0,0,0,0,0,0,0,0,,NA,NA
1988,11706RTFFN1545F,RITE-OFF INC.,1545 5TH INDL. CT.,BAY SHORE,SUFFOLK,NY,11706,40.752764,-73.264658,2842,,,,,,325612,,,,,,1388025105507,"1,1,1-TRICHLOROETHANE",000071556,YES,NON-PBT,NO,0,NO,R,Pounds,750,0,0,0,0,0,0,0,0,0,0,0,750,0,0,0,0,0,0,0,0,0,0,0,0,0,0,0,0,0,0,0,0,0,0,0,0,0,0,0,0,0,0,0,8925,0,0,0,0,8925,750,0,0,0,0,0,0,0,0,0,0,0,0,0,,NA,NA
1988,12401TLTYP412WA,UTILITY PLATERS INC.,412 WASHINGTON AVE.,KINGSTON,ULSTER,NY,12401,41.935326,-74.024928,3471,,,,,,332813,,,,,,1388025120294,"HYDROCHLORIC ACID (1995 AND AFTER ""ACID AEROSOLS"" ONLY)",007647010,YES,NON-PBT,NO,0,NO,R,Pounds,250,0,0,0,0,0,0,0,0,0,0,0,250,0,0,0,0,0,0,0,0,0,0,0,0,0,0,0,0,0,0,0,0,0,0,0,0,0,0,0,0,0,0,0,0,0,0,0,0,0,250,0,0,0,0,0,0,0,0,0,0,0,0,0,,NA,NA
1988,14701MRCBR402CH,SKF AEROENGINE JAMESTOWN,402 CHANDLER ST,JAMESTOWN,CHAUTAUQUA,NY,147013802,42.098028,-79.226889,3562,,,,,,332991,,,,,,1388025196698,MANGANESE COMPOUNDS,N450,YES,NON-PBT,YES,1,NO,R,Pounds,0,0,0,0,0,0,0,0,0,0,0,0,0,0,0,0,0,0,0,0,0,0,250,0,0,0,0,0,0,0,0,0,0,250,0,0,0,0,0,0,0,0,0,0,0,0,0,0,0,0,250,0,0,0,0,0,0,0,0,0,0,0,0,0,,SKF USA INC,002297661
1988,14623PNNWL755JE,UCB MANUFACTURING INC,755 JEFFERSON RD,ROCHESTER,MONROE,NY,14623,43.084207,-77.621621,2834,,,,,,325412,,,,,,1388025185240,METHANOL,000067561,YES,NON-PBT,NO,0,NO,R,Pounds,250,6025,0,0,0,0,0,0,0,0,0,0,6275,0,20367,20367,250,0,0,0,0,0,0,0,0,0,0,0,0,0,0,0,0,250,0,0,0,0,0,0,0,0,0,0,0,0,0,0,0,0,6525,0,0,0,0,0,0,0,0,0,0,0,0,0,,UCB INC,NA
1988,12047NRLTC628SO,NORLITE CORP,628 S SARATOGA ST,COHOES,ALBANY,NY,12047,42.753081,-73.700673,3299,,,,,,327992,,,,,,1388025218227,BENZENE,000071432,YES,NON-PBT,NO,0,YES,R,Pounds,250,1,0,0,0,0,0,0,0,0,0,0,251,0,0,0,0,0,0,0,0,0,0,0,0,0,0,0,0,0,0,0,0,0,0,0,0,0,0,0,0,0,0,0,20,0,0,0,0,20,251,0,0,0,0,0,0,0,0,0,0,0,0,0,,UNITED OIL RECOVERY,154133672
1988,12047NRLTC628SO,NORLITE CORP,628 S SARATOGA ST,COHOES,ALBANY,NY,12047,42.753081,-73.700673,3299,,,,,,327992,,,,,,1388025218280,METHANOL,000067561,YES,NON-PBT,NO,0,NO,R,Pounds,250,6,0,0,0,0,0,0,0,0,0,0,256,0,0,0,0,0,0,0,0,0,0,0,0,0,0,0,0,0,0,0,0,0,0,0,0,0,0,0,0,0,0,0,0,0,0,0,0,0,256,0,0,0,0,0,0,0,0,0,0,0,0,0,,UNITED OIL RECOVERY,154133672
1988,14831CRNNGTIOGA,CORNING INC FALL BROOK PLANT,TIOGA AVE,CORNING,STEUBEN,NY,14831,42.1445,-77.043778,3229,,,,,,327212,,,,,,1388025226376,"HYDROCHLORIC ACID (1995 AND AFTER ""ACID AEROSOLS"" ONLY)",007647010,YES,NON-PBT,NO,0,NO,R,Pounds,0,0,0,0,0,0,0,0,0,0,0,0,0,0,0,0,0,0,0,0,0,0,0,0,0,0,0,0,0,0,0,0,0,0,0,0,0,0,0,0,0,0,0,0,0,0,0,14520,0,14520,0,0,0,0,0,0,0,0,0,0,0,0,0,0,,CORNING INC,001307735
1988,14215GNRLM1001E,AMERICAN AXLE & MANUFACTURING INC. BUFFALO FACILITY,1001 E DELAVAN AVE,BUFFALO,ERIE,NY,14215,42.922601,-78.8192,3714,,,,,,336399,,,,,,1388025306820,"SULFURIC ACID (1994 AND AFTER ""ACID AEROSOLS"" ONLY)",007664939,NO,NON-PBT,NO,0,NO,R,Pounds,0,0,0,0,0,0,0,0,0,0,0,0,0,0,250,250,0,0,0,0,0,0,0,0,0,0,0,0,0,0,0,0,0,0,0,0,0,0,0,0,0,0,0,0,0,0,0,0,0,0,0,0,0,0,0,0,0,0,0,0,0,0,0,0,,AMERICAN AXLE & MANUFACTURING INC,808844567
1988,11217LNCRP601BE,ULANO CORP,601 BERGEN ST,BROOKLYN,KINGS,NY,11238,40.679683,-73.969533,3999,,,,,,339943,,,,,,1388025310879,METHYL ETHYL KETONE,000078933,NO,NON-PBT,NO,0,NO,R,Pounds,250,32000,0,0,0,0,0,0,0,0,0,0,32250,0,0,0,0,0,0,0,0,0,0,0,0,0,0,0,0,0,0,0,0,0,30000,0,0,0,0,30000,0,0,0,0,0,0,0,0,0,0,32250,0,0,0,0,0,0,0,0,0,0,0,0,0,,ULANO CORP,046806204
1988,12090FLRGLJOHNS,FLUORGLAS NORPLEX OAK,JOHN ST.,HOOSICK FALLS,RENSSELAER,NY,12090,42.901396,-73.35154,2295,2284,,,,,313320,,,,,,1388025346368,TOLUENE,000108883,YES,NON-PBT,NO,0,NO,R,Pounds,5500,103200,0,0,0,0,0,0,0,0,0,0,108700,0,0,0,0,0,0,0,0,0,0,0,0,0,0,0,0,0,0,0,0,0,0,0,0,0,0,0,0,0,0,0,5900,0,0,0,0,5900,108700,0,0,0,0,0,0,0,0,0,0,0,0,0,,ALLIED-SIGNAL INC,139691877
1988,13069NSTLF555SO,NESTLE CONFECTIONS AND SNACKS,555 SOUTH 4TH ST,FULTON,OSWEGO,NY,13069,43.313861,-76.403806,2065,2066,2099,,,,311514,,,,,,1388025352194,NITRIC ACID,007697372,NO,NON-PBT,NO,0,NO,R,Pounds,0,0,0,0,0,0,0,0,0,0,0,0,0,0,0,0,0,0,0,0,0,0,0,0,0,0,0,0,0,0,0,0,0,0,0,0,0,0,0,0,0,0,0,0,0,0,0,0,0,0,0,0,0,0,0,0,0,0,0,0,0,0,0,0,,NESTLE USA INC,NA
1988,12543STRNLHENRY,EASTERN ALLOYS INC,HENRY HENNING DR,MAYBROOK,ORANGE,NY,12543,41.509722,-74.202056,INVA,,,,,,331491,,,,,,1388025352358,ZINC COMPOUNDS,N982,NO,NON-PBT,YES,1,NO,R,Pounds,250,250,750,0,0,0,0,0,0,0,0,0,1250,0,0,0,0,0,0,0,0,0,0,0,0,0,0,0,0,0,0,0,0,0,0,0,0,0,0,0,0,0,0,0,0,0,0,0,0,0,1250,0,0,0,0,0,0,0,0,0,0,0,0,0,,EASTERN ALLOYS INC,NA
1988,10950MNRTBROUTE,PTC ALLIANCE MONROE PLANT,326 STATE HWY. 208,MONROE,ORANGE,NY,109502987,41.334864,-74.189694,3317,,,,,,331210,,,,,,1388025150970,SODIUM HYDROXIDE (SOLUTION),001310732,NO,NON-PBT,NO,0,NO,R,Pounds,0,0,0,0,0,0,0,0,0,0,0,0,0,0,0,0,0,0,0,0,0,0,0,0,0,0,0,0,0,0,0,0,0,0,0,0,0,0,0,0,0,0,0,0,0,0,0,0,0,0,0,0,0,0,0,0,0,0,0,0,0,0,0,0,,PTC ALLIANCE,004321485
1988,13221CRRRCCARRI,CARRIER CORP,CARRIER PKWY,SYRACUSE,ONONDAGA,NY,13221,43.08724,-76.08962,3585,,,,,,334111,,,,,,1388025247230,METHYL ETHYL KETONE,000078933,NO,NON-PBT,NO,0,NO,R,Pounds,16000,24000,0,0,0,0,0,0,0,0,0,0,40000,0,0,0,0,0,0,0,0,0,0,0,0,0,0,0,0,0,0,0,0,0,0,0,0,0,0,0,0,0,0,0,0,0,0,0,0,0,40000,0,0,0,0,0,0,0,0,0,0,0,0,0,,UNITED TECHNOLOGIES CORP,001344142
1988,13153WLCHL4341S,WELCH ALLYN INC,4341 STATE ST RD,SKANEATELES FALLS,ONONDAGA,NY,13153,42.9944,-76.4585,3841,,,,,,339112,,,,,,1388025251442,COPPER,007440508,NO,NON-PBT,YES,1,NO,R,Pounds,0,0,33,0,0,0,0,0,0,0,0,0,33,0,0,0,0,0,0,0,0,0,97,0,0,0,0,0,0,0,0,0,0,97,0,0,0,0,0,0,0,0,0,0,0,0,0,0,0,0,130,0,0,0,0,0,0,0,0,0,0,0,0,0,,NA,NA
1988,13221BRSTLTHOMP,BRISTOL-MYERS SQUIBB CO,6000 THOMPSON RD,EAST SYRACUSE,ONONDAGA,NY,13057,43.065722,-76.087,2834,2833,,,,,325412,,,,,,1388025282664,METHYL ISOBUTYL KETONE,000108101,YES,NON-PBT,NO,0,NO,R,Pounds,1300000,130000,0,0,0,0,0,0,0,0,0,0,1430000,0,400000,400000,0,0,0,0,0,0,0,0,0,0,0,0,0,0,0,0,0,0,0,0,0,0,0,0,0,0,0,0,217000,0,0,0,0,217000,1430000,0,0,0,0,0,0,0,0,0,0,0,0,0,,BRISTOL-MYERS SQUIBB CO,NA
1988,13221BRSTLTHOMP,BRISTOL-MYERS SQUIBB CO,6000 THOMPSON RD,EAST SYRACUSE,ONONDAGA,NY,13057,43.065722,-76.087,2834,2833,,,,,325412,,,,,,1388025282714,TOLUENE,000108883,YES,NON-PBT,NO,0,NO,R,Pounds,0,380,0,0,0,0,0,0,0,0,0,0,380,0,26000,26000,0,0,0,0,0,0,0,0,0,0,0,0,0,0,0,0,0,0,0,0,0,0,0,0,0,0,0,0,5800,0,0,0,0,5800,380,0,0,0,0,0,0,0,0,0,0,0,0,0,,BRISTOL-MYERS SQUIBB CO,NA
1988,14305TMCRM4511H,TAM CERAMICS INC,4511 HYDE PARK BLVD,NIAGARA FALLS,NIAGARA,NY,14305,43.127921,-79.038616,2819,3253,3356,,,,327992,,,,,,1388025338904,TITANIUM TETRACHLORIDE,007550450,YES,NON-PBT,YES,2,NO,R,Pounds,0,0,0,0,0,0,0,0,0,0,0,0,0,0,0,0,0,0,0,0,0,0,0,0,0,0,0,0,0,0,0,0,0,0,0,0,0,0,0,0,0,0,0,0,0,0,0,0,0,0,0,0,0,0,0,0,0,0,0,0,0,0,0,0,,ALL-AMERICAN HOLDINGS LLC,NA
1988,13666NWTNF1MAIN,NEWTON FALLS FINE PAPER CO LLC,875 COUNTY RT 60,NEWTON FALLS,ST LAWRENCE,NY,13666,44.2145,-74.989722,2621,,,,,,322121,,,,,,1388025284480,PHOSPHORIC ACID,007664382,NO,NON-PBT,NO,0,NO,R,Pounds,0,0,0,0,0,0,0,0,0,0,0,0,0,0,0,0,0,0,0,0,0,0,0,0,0,0,0,0,0,0,0,0,0,0,0,0,0,0,0,0,0,0,0,0,0,0,0,0,0,0,0,0,0,0,0,0,0,0,0,0,0,0,0,0,,SCOTIA INVESTMENTS,NA
1988,14546SBNMT1647W,SABIN METAL CORP,1647 WHEATLAND CENTER RD,SCOTTSVILLE,MONROE,NY,145460905,43.003542,-77.821413,3341,,,,,,331492,,,,,,1388025373681,LEAD,007439921,YES,PBT,YES,1,YES,R,Pounds,96,157,0,0,0,0,0,0,0,0,0,0,253,0,0,0,0,0,0,0,0,0,0,0,0,0,0,0,0,0,0,0,0,0,0,0,0,0,0,0,0,0,0,0,0,0,0,0,0,0,253,0,0,0,0,0,0,0,0,0,0,0,0,0,,SABIN METAL CORP,NA
1988,14304BTLSP5000P,DUREZ NIAGARA,5000 PACKARD RD,NIAGARA FALLS,NIAGARA,NY,14304,43.09719,-79.00525,2821,,,,,,325211,,,,,,1388025377944,"HYDROCHLORIC ACID (1995 AND AFTER ""ACID AEROSOLS"" ONLY)",007647010,YES,NON-PBT,NO,0,NO,R,Pounds,0,0,0,0,0,0,0,0,0,0,0,0,0,0,0,0,0,0,0,0,0,0,0,0,0,0,0,0,0,0,0,0,0,0,0,0,0,0,0,0,0,0,0,0,0,0,0,0,0,0,0,0,0,0,0,0,0,0,0,0,0,0,0,0,,DUREZ CORP,NA
1988,14625VPLXC763LI,"VOPLEX CORP., ALLERTON CHEMICAL DIV.",763 LINDEN AVE.,ROCHESTER,MONROE,NY,14625,43.120833,-77.505555,2851,,,,,,325510,,,,,,1388025426420,TOLUENE,000108883,YES,NON-PBT,NO,0,NO,R,Pounds,250,0,0,0,0,0,0,0,0,0,0,0,250,0,0,0,0,0,0,0,0,0,0,0,0,0,0,0,0,0,0,0,0,0,0,0,0,0,0,0,0,0,0,0,14000,0,0,0,0,14000,250,0,0,0,0,0,0,0,0,0,0,0,0,0,,VOPLEX CORP,002207181
1988,11797THWLB225CR,WOOL BUREAU INC.,225 CROSSWAYS PARK DR.,WOODBURY,NASSAU,NY,11797,40.808241,-73.483524,2231,2253,2269,,,,313000,,,,,,1388025127073,"SULFURIC ACID (1994 AND AFTER ""ACID AEROSOLS"" ONLY)",007664939,NO,NON-PBT,NO,0,NO,R,Pounds,0,0,0,0,0,0,0,0,0,0,0,0,0,0,8,8,0,0,0,0,0,0,0,0,0,0,0,0,0,0,0,0,0,0,0,0,0,0,0,0,0,0,0,0,0,0,0,0,0,0,0,0,0,0,0,0,0,0,0,0,0,0,0,0,,WOOL BUREAU INC,NA
1988,11797THWLB225CR,WOOL BUREAU INC.,225 CROSSWAYS PARK DR.,WOODBURY,NASSAU,NY,11797,40.808241,-73.483524,2231,2253,2269,,,,313000,,,,,,1388025127150,SODIUM HYDROXIDE (SOLUTION),001310732,NO,NON-PBT,NO,0,NO,R,Pounds,0,0,0,0,0,0,0,0,0,0,0,0,0,0,30,30,0,0,0,0,0,0,0,0,0,0,0,0,0,0,0,0,0,0,0,0,0,0,0,0,0,0,0,0,0,0,0,0,0,0,0,0,0,0,0,0,0,0,0,0,0,0,0,0,,WOOL BUREAU INC,NA
1988,10801BKRSP30PIN,BAKERS PRIDE OVEN CO INC,30 PINE ST,NEW ROCHELLE,WESTCHESTER,NY,10801,40.90647,-73.78779,3589,,,,,,333319,,,,,,1388025215260,TOLUENE,000108883,YES,NON-PBT,NO,0,NO,R,Pounds,16748,9141,0,0,0,0,0,0,0,0,0,0,25889,0,0,0,0,0,0,0,0,0,0,0,0,0,0,0,0,0,0,0,0,0,0,0,0,0,0,0,0,0,0,0,0,0,0,0,0,0,25889,0,0,0,0,0,0,0,0,0,0,0,0,0,,NA,NA
1988,13365CHRRY575EA,CHERRY-BURRELL PROCESS EQUIPMENT,575 E. MILL ST.,LITTLE FALLS,HERKIMER,NY,13365,43.041465,-74.85451,3551,,,,,,333294,,,,,,1388025270986,NICKEL COMPOUNDS,N495,YES,NON-PBT,YES,1,NO,R,Pounds,250,0,0,0,0,0,0,0,0,0,0,0,250,0,0,0,0,0,0,0,0,0,750,0,0,0,0,0,0,0,0,0,0,750,0,0,0,0,0,0,0,0,0,0,0,0,0,0,0,0,1000,0,0,0,0,0,0,0,0,0,0,0,0,0,,UNITED DOMINION IND INC,053144051
1988,10550MPCTC250ST,AMPACET CORP. MT. VERNON PLANT,250 S. TERRACE AVE.,MOUNT VERNON,WESTCHESTER,NY,10550,40.908878,-73.850762,2821,,,,,,325211,,,,,,1388025255670,CHROMIUM COMPOUNDS(EXCEPT CHROMITE ORE MINED IN THE TRANSVAAL REGION),N090,YES,NON-PBT,YES,1,NO,R,Pounds,0,1,0,0,0,0,0,0,0,0,0,0,1,1,0,1,0,0,0,0,0,0,0,0,0,0,0,0,0,0,0,0,0,0,0,0,0,0,0,0,0,0,0,0,439,0,0,0,0,439,2,0,0,0,0,0,0,0,0,0,0,0,0,0,,AMPACET CORP,081002871
1988,12095RHCRW100NM,R H CROWN CO INC,100 N MARKET ST,JOHNSTOWN,FULTON,NY,12095,43.00801,-74.37282,2841,,,,,,325611,,,,,,1388025259615,METHANOL,000067561,YES,NON-PBT,NO,0,NO,R,Pounds,250,250,0,0,0,0,0,0,0,0,0,0,500,0,0,0,0,0,0,0,0,0,0,0,0,0,0,0,0,0,0,0,0,0,0,0,0,0,0,0,0,0,0,0,0,0,0,0,0,0,500,0,0,0,0,0,0,0,0,0,0,0,0,0,,NA,NA
1988,14150RPDMS225EA,SFC ADAMS INC.,225 E PARK DR,TONAWANDA,ERIE,NY,141507813,42.937615,-78.901882,3469,,,,,,333298,,,,,,1388025390511,NICKEL COMPOUNDS,N495,YES,NON-PBT,YES,1,NO,R,Pounds,1,2,0,0,0,0,0,0,0,0,0,0,3,0,0,0,0,0,0,0,0,0,0,0,0,0,0,0,0,0,0,0,0,0,0,0,0,0,0,0,0,0,0,0,0,0,0,0,0,0,3,0,0,0,0,0,0,0,0,0,0,0,0,0,,"SERFILCO, LTD",005448469
1988,10926NPRNCROUTE,RUTHERFORD CHEMICALS LLC NEPERA DIV,41 ARDEN HOUSE RD,HARRIMAN,ORANGE,NY,10926,41.309528,-74.139111,2869,,,,,,325192,,,,,,1388025496910,PYRIDINE,000110861,NO,NON-PBT,NO,0,NO,R,Pounds,9900,44,0,0,0,0,0,0,0,0,0,0,9944,0,0,0,0,0,0,0,0,0,2,0,0,0,0,0,0,0,0,0,0,2,0,0,0,0,0,0,0,0,0,0,0,0,0,0,0,0,9946,0,0,0,0,0,0,0,0,0,0,0,0,0,,RUTHERFORD CHEMICALS LLC,029260833
1988,12095HDSNNMAPLE,HUDSON INDUSTRIES CORP MILLIGAN & HIGGINS DIV,100 MAPLE AVE   PO BOX 506,JOHNSTOWN,FULTON,NY,12095,43.03064,-74.369458,2891,,,,,,325520,,,,,,1388025069321,AMMONIA,007664417,NO,NON-PBT,NO,0,NO,R,Pounds,250,0,0,0,0,0,0,0,0,0,0,0,250,0,0,0,0,0,0,0,0,0,0,0,0,0,0,0,0,0,0,0,0,0,0,0,0,0,0,0,0,0,0,0,0,0,0,0,0,0,250,0,0,0,0,0,0,0,0,0,0,0,0,0,,UHFC,045783073
1988,12095HDSNNMAPLE,HUDSON INDUSTRIES CORP MILLIGAN & HIGGINS DIV,100 MAPLE AVE   PO BOX 506,JOHNSTOWN,FULTON,NY,12095,43.03064,-74.369458,2891,,,,,,325520,,,,,,1388025069396,DIETHANOLAMINE,000111422,YES,NON-PBT,NO,0,NO,R,Pounds,250,0,0,0,0,0,0,0,0,0,0,0,250,0,250,250,0,0,0,0,0,0,0,0,0,0,0,0,0,0,0,0,0,0,0,0,0,0,0,0,0,0,0,0,0,0,0,0,0,0,250,0,0,0,0,0,0,0,0,0,0,0,0,0,,UHFC,045783073
1988,14304NCTCR40047,NIACET CORP,400 47TH ST,NIAGARA FALLS,NIAGARA,NY,14304,43.090278,-79.00836,2869,,,,,,325000,,,,,,1388025199516,"HYDROCHLORIC ACID (1995 AND AFTER ""ACID AEROSOLS"" ONLY)",007647010,YES,NON-PBT,NO,0,NO,R,Pounds,250,250,0,0,0,0,0,0,0,0,0,0,500,0,0,0,0,0,0,0,0,0,0,0,0,0,0,0,0,0,0,0,0,0,0,0,0,0,0,0,0,0,0,0,0,0,0,0,0,0,500,0,0,0,0,0,0,0,0,0,0,0,0,0,,NIACET CORP,NA
1988,14304NCTCR40047,NIACET CORP,400 47TH ST,NIAGARA FALLS,NIAGARA,NY,14304,43.090278,-79.00836,2869,,,,,,325199,,,,,,1388025199555,CERTAIN GLYCOL ETHERS,N230,YES,NON-PBT,NO,0,NO,R,Pounds,250,0,0,0,0,0,0,0,0,0,0,0,250,0,0,0,0,0,0,0,0,0,0,0,0,0,0,0,0,0,0,0,0,0,0,0,0,0,0,0,0,0,0,0,0,0,0,0,0,0,250,0,0,0,0,0,0,0,0,0,0,0,0,0,,NIACET CORP,NA
1988,12801FNCHP1GLEN,FINCH PAPER  LLC,1 GLEN ST,GLENS FALLS,WARREN,NY,12801,43.306583,-73.639,2621,,,,,,322121,,,,,,1388025183993,CHLORINE,007782505,YES,NON-PBT,NO,0,NO,R,Pounds,250,43000,0,0,0,0,0,0,0,0,0,0,43250,0,0,0,0,0,0,0,0,0,0,0,0,0,0,0,0,0,0,0,0,0,0,0,0,0,0,0,0,0,0,0,0,0,0,0,0,0,43250,0,0,0,0,0,0,0,0,0,0,0,0,0,,FINCH PAPER HOLDINGS,NA
1988,12047NRLTC628SO,NORLITE CORP,628 S SARATOGA ST,COHOES,ALBANY,NY,12047,42.753081,-73.700673,3299,,,,,,327992,,,,,,1388025218292,METHYL ETHYL KETONE,000078933,NO,NON-PBT,NO,0,NO,R,Pounds,250,12,0,0,0,0,0,0,0,0,0,0,262,0,0,0,0,0,0,0,0,0,0,0,0,0,0,0,0,0,0,0,0,0,0,0,0,0,0,0,0,0,0,0,0,0,0,0,0,0,262,0,0,0,0,0,0,0,0,0,0,0,0,0,,UNITED OIL RECOVERY,154133672
1988,12047NRLTC628SO,NORLITE CORP,628 S SARATOGA ST,COHOES,ALBANY,NY,12047,42.753081,-73.700673,3299,,,,,,327992,,,,,,1388025218355,"1,1,1-TRICHLOROETHANE",000071556,YES,NON-PBT,NO,0,NO,R,Pounds,250,2,0,0,0,0,0,0,0,0,0,0,252,0,0,0,0,0,0,0,0,0,0,0,0,0,0,0,0,0,0,0,0,0,0,0,0,0,0,0,0,0,0,0,40,0,0,0,0,40,252,0,0,0,0,0,0,0,0,0,0,0,0,0,,UNITED OIL RECOVERY,154133672
1988,14845TSHBWWESTI,MATSUSHITA TOSHIBA PICTURE DISPLAY CORP OF AMERICA (NEW YORK),100 WESTINGHOUSE CIR,HORSEHEADS,CHEMUNG,NY,14845,42.161663,-76.840377,3671,,,,,,334411,,,,,,1388025343599,"SULFURIC ACID (1994 AND AFTER ""ACID AEROSOLS"" ONLY)",007664939,NO,NON-PBT,NO,0,NO,R,Pounds,250,0,0,0,0,0,0,0,0,0,0,0,250,0,0,0,0,0,0,0,0,0,0,0,0,0,0,0,0,0,0,0,0,0,0,0,0,0,0,0,0,0,0,0,0,0,0,0,0,0,250,0,0,0,0,0,0,0,0,0,0,0,0,0,,MATSUSHITA TOSHIBA PICTURE DISPLAY CO LTD,NA
1988,13440RMCBL421RI,ROME CABLE CORP.,421 RIDGE ST.,ROME,ONEIDA,NY,13440,43.211499,-75.466781,3357,,,,,,335929,,,,,,1388025464532,LEAD,007439921,YES,PBT,YES,1,YES,R,Pounds,250,0,250,0,0,0,0,0,0,0,0,0,500,0,0,0,0,0,0,0,0,0,0,0,0,0,0,0,0,0,0,0,0,0,0,0,0,0,0,0,0,0,0,0,0,0,0,0,0,0,500,0,0,0,0,0,0,0,0,0,0,0,0,0,,ROME GROUP INC,106621493
1988,13760NDCTT301GL,EJ FOOTWEAR CORP.,301 GLENDALE DR.,ENDICOTT,BROOME,NY,13760,42.099789,-76.086814,3149,,,,,,316219,,,,,,1388025505241,ACETONE,000067641,NO,NON-PBT,NO,0,NO,R,Pounds,2600,23000,0,0,0,0,0,0,0,0,0,0,25600,0,0,0,0,0,0,0,0,0,0,0,0,0,0,0,0,0,0,0,0,0,0,0,0,0,0,0,0,0,0,0,0,0,0,0,0,0,25600,0,0,0,0,0,0,0,0,0,0,0,0,0,,US INDUSTRIES INC,154129563
1988,13790NDCTTLESTE,ENDICOTT JOHNSON CORP. PARACORD/SUNRISE,LESTER AVE. E.S.,JOHNSON CITY,BROOME,NY,13790,42.114296,-75.950119,3021,,,,,,316211,,,,,,1388025505304,DI(2-ETHYLHEXYL) PHTHALATE,000117817,YES,NON-PBT,NO,0,YES,R,Pounds,0,250,0,0,0,0,0,0,0,0,0,0,250,0,0,0,0,0,0,0,0,0,0,0,0,0,0,0,0,0,0,0,0,0,0,0,0,0,0,0,0,0,0,0,0,0,0,0,0,0,250,0,0,0,0,0,0,0,0,0,0,0,0,0,,HM HOLDINGS INC,119219871
1988,10965LDRLLNORTH,WYETH PHARMACEUTICALS,401 N MIDDLETOWN RD,PEARL RIVER,ROCKLAND,NY,10965,41.075667,-74.020111,2833,2834,2836,8731,,,325411,,,,,,1388025505405,FORMALDEHYDE,000050000,YES,NON-PBT,NO,0,YES,R,Pounds,0,1,0,0,0,0,0,0,0,0,0,0,1,0,0,0,0,0,0,0,0,0,0,0,0,0,0,0,0,0,0,0,0,0,0,0,0,0,0,0,0,0,0,0,0,0,0,0,0,0,1,0,0,0,0,0,0,0,0,0,0,0,0,0,,PFIZER INC,113480771
1988,14701BLCKS1111A,TITANX ENGINE COOLING INC,2258 ALLEN ST,JAMESTOWN,CHAUTAUQUA,NY,14701,42.113056,-79.207472,3714,,,,,,336399,,,,,,1388025513779,"HYDROCHLORIC ACID (1995 AND AFTER ""ACID AEROSOLS"" ONLY)",007647010,YES,NON-PBT,NO,0,NO,R,Pounds,250,4000,0,0,0,0,0,0,0,0,0,0,4250,0,0,0,0,0,0,0,0,0,0,0,0,0,0,0,0,0,0,0,0,0,0,0,0,0,0,0,0,0,0,0,0,0,0,0,0,0,4250,0,0,0,0,0,0,0,0,0,0,0,0,0,,NA,NA
1988,14821PLLDR8600M,KRAFT FOODS GLOBAL INC,8600 MAIN ST,CAMPBELL,STEUBEN,NY,14821,42.228091,-77.187066,2011,,,,,,311611,,,,,,1388025082114,"SULFURIC ACID (1994 AND AFTER ""ACID AEROSOLS"" ONLY)",007664939,NO,NON-PBT,NO,0,NO,R,Pounds,0,0,0,0,0,0,0,0,0,0,0,0,0,0,0,0,0,0,0,0,0,0,0,0,0,0,0,0,0,0,0,0,0,0,0,0,0,0,0,0,0,0,0,0,0,0,0,0,0,0,0,0,0,0,0,0,0,0,0,0,0,0,0,0,,KRAFT FOODS INC,039010590
1988,11692MRCNC7236B,AMERICAN COMBINING CORP,72-36 BURCHELL AVE,ARVERNE,QUEENS,NY,11692,40.595989,-73.801866,2295,,,,,,313320,,,,,,1388025135726,METHYL ETHYL KETONE,000078933,NO,NON-PBT,NO,0,NO,R,Pounds,0,64000,0,0,0,0,0,0,0,0,0,0,64000,0,0,0,0,0,0,0,0,0,0,0,0,0,0,0,0,0,0,0,0,0,0,0,0,0,0,0,0,0,0,0,0,0,0,0,0,0,64000,0,0,0,0,0,0,0,0,0,0,0,0,0,,NA,NA
1988,14052MRCNP270QU,AMERICAN PRECEISION INDUSTRIES DELEVAN DIV,270 QUAKER RD,EAST AURORA,ERIE,NY,14052,42.763242,-78.636609,3677,,,,,,334416,,,,,,1388025140056,DICHLOROMETHANE,000075092,YES,NON-PBT,NO,0,YES,R,Pounds,28000,0,0,0,0,0,0,0,0,0,0,0,28000,0,0,0,0,0,0,0,0,0,0,0,0,0,0,0,0,0,0,0,0,0,0,0,0,0,0,0,0,0,0,0,8217,0,0,0,0,8217,28000,0,0,0,0,0,0,0,0,0,0,0,0,0,,DANAHER CORP,NA
1988,12401NTRNTNEIGH,IBM,NEIGHBORHOOD RD.,KINGSTON,ULSTER,NY,12401,41.97,-73.995472,3573,,,,,,334111,,,,,,1388025256025,SODIUM HYDROXIDE (SOLUTION),001310732,NO,NON-PBT,NO,0,NO,R,Pounds,0,0,0,0,0,0,0,0,0,0,0,0,0,0,0,0,0,0,0,0,0,0,0,0,0,0,0,0,0,0,0,0,0,0,0,0,0,0,0,0,0,0,0,0,0,0,0,0,0,0,0,0,0,0,0,0,0,0,0,0,0,0,0,0,,IBM CORP,001368083
1988,10598NTLBSRTE13,IBM T. J. WATSON RESEARCH CENTER,RTE. 134,YORKTOWN HEIGHTS,WESTCHESTER,NY,10598,41.212262,-73.802122,3571,3572,,,,,334111,,,,,,1388025276179,"SULFURIC ACID (1994 AND AFTER ""ACID AEROSOLS"" ONLY)",007664939,NO,NON-PBT,NO,0,NO,R,Pounds,0,0,0,0,0,0,0,0,0,0,0,0,0,0,2,2,0,0,0,0,0,0,0,0,0,0,0,0,0,0,0,0,0,0,0,0,0,0,0,0,0,0,0,0,0,0,0,0,0,0,0,0,0,0,0,0,0,0,0,0,0,0,0,0,,IBM CORP,001368083
1988,12202CBRPTPORTO,CIBRO PETROLEUM PRODUCTS INC,PORT OF ALBANY,ALBANY,ALBANY,NY,12202,42.614917,-73.7625,2911,5171,,,,,324110,,,,,,1388025386501,2-METHOXYETHANOL,000109864,NO,NON-PBT,NO,0,NO,R,Pounds,250,250,0,0,0,0,0,0,0,0,0,0,500,0,0,0,0,0,0,0,0,0,0,0,0,0,0,0,0,0,0,0,0,0,0,0,0,0,0,0,0,0,0,0,0,0,0,0,0,0,500,0,0,0,0,0,0,0,0,0,0,0,0,0,,CIBRO PETROLEUM PRODUCTS INC,084069426
1988,12201THRMPSIMMO,THERMO PRODS. INC.,SIMMONS LN.,ALBANY,ALBANY,NY,12204,42.67965,-73.72746,3089,,,,,,326199,,,,,,1388025354224,"1,3-BUTADIENE",000106990,YES,NON-PBT,NO,0,YES,R,Pounds,250,0,0,0,0,0,0,0,0,0,0,0,250,0,0,0,0,0,0,0,0,0,250,0,0,0,0,0,0,0,0,0,0,250,0,0,0,0,0,0,0,0,0,0,0,0,0,0,0,0,500,0,0,0,0,0,0,0,0,0,0,0,0,0,,SOUTH CHESTER TUBE CO INC,007910243
1988,14151XLNSK1000E,EXOLON-ESK CO,1000 EAST NIAGARA ST,TONAWANDA,ERIE,NY,14150,43.019235,-78.853329,2819,,,,,,333515,,,,,,1388025089451,ALUMINUM OXIDE (FIBROUS FORMS),001344281,NO,NON-PBT,YES,2,NO,R,Pounds,0,0,0,0,0,0,0,0,0,0,0,0,0,0,0,0,0,0,0,0,0,0,0,0,0,0,0,0,0,0,0,0,0,0,0,0,0,0,0,0,0,0,0,0,0,0,0,0,0,0,0,0,0,0,0,0,0,0,0,0,0,0,0,0,,NA,NA
1988,14028KZCHM2153L,AKZO NOBEL  POLYMER CHEMICALS LLC,2153 LOCKPORT-OLCOTT RD,BURT,NIAGARA,NY,14028,43.312737,-78.714823,2869,,,,,,325199,,,,,,1388025103286,BENZOYL CHLORIDE,000098884,NO,NON-PBT,NO,0,NO,R,Pounds,100,375,0,0,0,0,0,0,0,0,0,0,475,0,0,0,0,0,0,0,0,0,0,0,0,0,0,0,0,0,0,0,0,0,0,0,0,0,0,0,0,0,0,0,0,0,0,0,0,0,475,0,0,0,0,0,0,0,0,0,0,0,0,0,,AKZO NOBEL INC,062999347
1988,14468MNRFL36DRA,MONROE FLUID TECHNOLOGY,36 DRAFFIN RD,HILTON,MONROE,NY,14468,43.270115,-77.833791,2992,,,,,,324191,,,,,,1388025111840,"1,1,1-TRICHLOROETHANE",000071556,YES,NON-PBT,NO,0,NO,R,Pounds,100,100,0,0,0,0,0,0,0,0,0,0,200,0,0,0,0,0,0,0,0,0,0,0,0,0,0,0,0,0,0,0,0,0,0,0,0,0,0,0,0,0,0,0,0,0,0,0,0,0,200,0,0,0,0,0,0,0,0,0,0,0,0,0,,NA,NA
1988,12144STRLN33RIV,AMRI RENSSELAER INC,33 RIVERSIDE AVE,RENSSELAER,RENSSELAER,NY,12144,42.633056,-73.749722,2833,,,,,,325411,,,,,,1388025180112,"HYDROCHLORIC ACID (1995 AND AFTER ""ACID AEROSOLS"" ONLY)",007647010,YES,NON-PBT,NO,0,NO,R,Pounds,0,0,0,0,0,0,0,0,0,0,0,0,0,0,22462,22462,0,0,0,0,0,0,0,0,0,0,0,0,0,0,0,0,0,0,0,0,0,0,0,0,0,0,0,0,0,0,0,0,0,0,0,0,0,0,0,0,0,0,0,0,0,0,0,0,,NA,NA
1988,13209SYRCS7055I,SYRACUSE HEAT TREATING CORP,7055 INTERSTATE ISLAND RD,SYRACUSE,ONONDAGA,NY,13209,43.110263,-76.280152,3399,,,,,,332811,,,,,,1388025232164,AMMONIA,007664417,NO,NON-PBT,NO,0,NO,R,Pounds,250,750,0,0,0,0,0,0,0,0,0,0,1000,0,0,0,0,0,0,0,0,0,0,0,0,0,0,0,0,0,0,0,0,0,0,0,0,0,0,0,0,0,0,0,0,0,0,0,0,0,1000,0,0,0,0,0,0,0,0,0,0,0,0,0,,NA,NA
1988,11354PRKNM3410L,PARK NAMEPLATE CO. INC.,34-10 LINDEN PL.,FLUSHING,QUEENS,NY,11354,40.76638,-73.831362,3465,,,,,,336370,,,,,,1388025232238,TETRACHLOROETHYLENE,000127184,YES,NON-PBT,NO,0,YES,R,Pounds,0,34994,0,0,0,0,0,0,0,0,0,0,34994,0,0,0,0,0,0,0,0,0,0,0,0,0,0,0,0,0,0,0,0,0,0,0,0,0,0,0,0,0,0,0,0,0,0,0,0,0,34994,0,0,0,0,0,0,0,0,0,0,0,0,0,,NA,NA
1988,12550MRCNFWALSH,AMERICAN FELT & FILTER CO,WALSH AVE,NEW WINDSOR,ORANGE,NY,12550,41.48825,-74.015111,2291,,,,,,333999,,,,,,1388025259918,FORMALDEHYDE,000050000,YES,NON-PBT,NO,0,YES,R,Pounds,0,6667,0,0,0,0,0,0,0,0,0,0,6667,0,0,0,0,0,0,0,0,0,0,0,0,0,0,0,0,0,0,0,0,0,0,0,0,0,0,0,0,0,0,0,130,0,0,0,0,130,6667,0,0,0,0,0,0,0,0,0,0,0,0,0,,NA,NA
1988,12803JMSRVONERI,ENCORE PAPER CO,1 RIVER ST,SOUTH GLENS FALLS,SARATOGA,NY,128034718,43.305,-73.639083,2621,,,,,,322120,,,,,,1388025209800,"SULFURIC ACID (1994 AND AFTER ""ACID AEROSOLS"" ONLY)",007664939,NO,NON-PBT,NO,0,NO,R,Pounds,0,0,0,0,0,0,0,0,0,0,0,0,0,0,0,0,0,0,0,0,0,0,0,0,0,0,0,0,0,0,0,0,0,0,0,0,0,0,0,0,0,0,0,0,0,0,0,0,0,0,0,0,0,0,0,0,0,0,0,0,0,0,0,0,,NA,NA
1988,10474GNRLG652WH,GENERAL GALVANIZING & SUPPLY CO INC,652 WHITTIER ST,BRONX,BRONX,NY,10474,40.81385,-73.883443,3471,,,,,,332813,,,,,,1388025297502,"SULFURIC ACID (1994 AND AFTER ""ACID AEROSOLS"" ONLY)",007664939,NO,NON-PBT,NO,0,NO,R,Pounds,0,0,0,0,0,0,0,0,0,0,0,0,0,0,0,0,0,0,0,0,0,0,0,0,0,0,0,0,0,0,0,0,0,0,0,0,0,0,0,0,0,0,0,0,0,0,0,0,0,0,0,0,0,0,0,0,0,0,0,0,0,0,0,0,,NA,NA
1988,10474GNRLG810ED,GENERAL GALVANIZING & SUPPLY CO INC,810 EDGEWATER RD,BRONX,BRONX,NY,10474,40.817688,-73.88339,3471,,,,,,332813,,,,,,1388025297553,SODIUM HYDROXIDE (SOLUTION),001310732,NO,NON-PBT,NO,0,NO,R,Pounds,5,2,0,0,0,0,0,0,0,0,0,0,7,0,0,0,0,0,0,0,0,0,0,0,0,0,0,0,0,0,0,0,0,0,0,0,0,0,0,0,0,0,0,0,0,0,0,0,0,0,7,0,0,0,0,0,0,0,0,0,0,0,0,0,,NA,NA
1988,14533PNNWLROUTE,ARKEMA INC,RT 63,PIFFARD,LIVINGSTON,NY,14533,42.832361,-77.841917,2869,,,,,,325199,,,,,,1388025440823,PHOSPHORIC ACID,007664382,NO,NON-PBT,NO,0,NO,R,Pounds,0,0,0,0,0,0,0,0,0,0,0,0,0,0,0,0,0,0,0,0,0,0,0,0,0,0,0,0,0,0,0,0,0,0,0,0,0,0,0,0,0,0,0,0,0,0,0,0,0,0,0,0,0,0,0,0,0,0,0,0,0,0,0,0,,ARKEMA DELAWARE INC,002290773
1988,14533PNNWLROUTE,ARKEMA INC,RT 63,PIFFARD,LIVINGSTON,NY,14533,42.832361,-77.841917,2869,,,,,,325199,,,,,,1388025440886,SEC-BUTYL ALCOHOL,000078922,NO,NON-PBT,NO,0,NO,R,Pounds,4700,250,250,0,0,0,0,0,0,0,0,0,5200,0,0,0,0,0,0,0,0,0,0,0,0,0,0,0,0,0,0,0,0,0,0,0,0,0,0,0,0,0,0,0,0,0,0,0,0,0,5200,0,0,0,0,0,0,0,0,0,0,0,0,0,,ARKEMA DELAWARE INC,002290773
1988,10965LDRLLNORTH,WYETH PHARMACEUTICALS,401 N MIDDLETOWN RD,PEARL RIVER,ROCKLAND,NY,10965,41.075667,-74.020111,2833,2834,2836,8731,,,325411,,,,,,1388025505443,ACETONITRILE,000075058,YES,NON-PBT,NO,0,NO,R,Pounds,46700,8500,0,0,0,0,0,0,0,0,0,0,55200,0,33600,33600,0,0,0,0,0,0,0,0,0,0,0,0,0,0,0,0,0,0,0,0,0,0,0,0,0,0,0,0,6100,0,0,0,0,6100,55200,0,0,0,0,0,0,0,0,0,0,0,0,0,,PFIZER INC,113480771
1988,10990JNSCHRIVER,JCI JONES CHEMICALS INC,103 RIVER ST,WARWICK,ORANGE,NY,10990,41.254444,-74.376417,2819,2812,,,,,325188,,,,,,1388025230994,"SULFURIC ACID (1994 AND AFTER ""ACID AEROSOLS"" ONLY)",007664939,NO,NON-PBT,NO,0,NO,R,Pounds,250,0,0,0,0,0,0,0,0,0,0,0,250,0,0,0,0,0,0,0,0,0,0,0,0,0,0,0,0,0,0,0,0,0,0,0,0,0,0,0,0,0,0,0,0,0,0,0,0,0,250,0,0,0,0,0,0,0,0,0,0,0,0,0,,JCI JONES CHEMICALS INC,NA
1988,14225PSTTM1730D,UPSTATE NIAGARA COOPERATIVE INC,1730 DALE RD,CHEEKTOWAGA,ERIE,NY,142250650,42.904803,-78.772959,2026,,,,,,311511,,,,,,1388025239423,PHOSPHORIC ACID,007664382,NO,NON-PBT,NO,0,NO,R,Pounds,0,0,0,0,0,0,0,0,0,0,0,0,0,0,10000,10000,0,0,0,0,0,0,0,0,0,0,0,0,0,0,0,0,0,0,0,0,0,0,0,0,0,0,0,0,0,0,0,0,0,0,0,0,0,0,0,0,0,0,0,0,0,0,0,0,,NA,NA
1988,13221PSSSY50BOY,PASS & SEYMOUR LEGRAND,50 BOYD AVE.,SYRACUSE,ONONDAGA,NY,13209,43.061918,-76.223707,3644,,,,,,335931,,,,,,1388025279098,"HYDROCHLORIC ACID (1995 AND AFTER ""ACID AEROSOLS"" ONLY)",007647010,YES,NON-PBT,NO,0,NO,R,Pounds,0,0,0,0,0,0,0,0,0,0,0,0,0,0,10725,10725,0,0,0,0,0,0,0,0,0,0,0,0,0,0,0,0,0,0,0,0,0,0,0,0,0,0,0,0,0,0,0,0,0,0,0,0,0,0,0,0,0,0,0,0,0,0,0,0,,LEGRAND SA LIMOGES FRANCE,660000803
1988,14606DLCPR1555L,VALEO ELECTRICAL SYSTEMS INC.,1555 LYELL AVE,ROCHESTER,MONROE,NY,14606,43.16465,-77.667091,3714,,,,,,336399,,,,,,1388025330832,FREON 113,000076131,NO,NON-PBT,NO,0,NO,R,Pounds,130000,0,0,0,0,0,0,0,0,0,0,0,130000,0,0,0,0,0,0,0,0,0,0,0,0,0,0,0,0,0,0,0,0,0,0,0,0,0,0,0,0,0,0,0,0,0,0,0,0,0,130000,0,0,0,0,0,0,0,0,0,0,0,0,0,,VALEO SA,001929611
1988,14606DLCPR1555L,VALEO ELECTRICAL SYSTEMS INC.,1555 LYELL AVE,ROCHESTER,MONROE,NY,14606,43.16465,-77.667091,3714,,,,,,336399,,,,,,1388025330895,"SULFURIC ACID (1994 AND AFTER ""ACID AEROSOLS"" ONLY)",007664939,NO,NON-PBT,NO,0,NO,R,Pounds,250,1100,0,0,0,0,0,0,0,0,0,0,1350,0,0,0,0,0,0,0,0,0,250,0,0,0,0,0,0,0,0,0,0,250,0,0,0,0,0,0,0,0,0,0,0,0,0,0,0,0,1600,0,0,0,0,0,0,0,0,0,0,0,0,0,,VALEO SA,001929611
1988,14901SRFCF215JU,SURFACE FINISH TECHNOLOGIES INC,215 JUDSON ST,ELMIRA,CHEMUNG,NY,14901,42.093813,-76.791614,3471,,,,,,332813,,,,,,1388025344452,SODIUM HYDROXIDE (SOLUTION),001310732,NO,NON-PBT,NO,0,NO,R,Pounds,0,135,0,0,0,0,0,0,0,0,0,0,135,0,0,0,0,0,0,0,0,0,0,0,0,0,0,0,0,0,0,0,0,0,0,0,0,0,0,0,0,0,0,0,0,0,0,0,0,0,135,0,0,0,0,0,0,0,0,0,0,0,0,0,,NA,NA
1988,13461NDLTDEASTS,ONEIDA LTD  MAIN PLANT,E SENECA ST,SHERRILL,ONEIDA,NY,13461,43.078417,-75.603056,3914,,,,,,339912,,,,,,1388025433715,CYANIDE COMPOUNDS,N106,YES,NON-PBT,NO,0,NO,R,Pounds,0,6,8,0,0,0,0,0,0,0,0,0,14,0,0,0,0,0,0,0,0,0,0,0,0,0,0,0,0,0,0,0,0,0,0,0,0,0,0,0,0,0,0,0,0,0,500,1518,0,2018,14,0,0,0,0,0,0,0,0,0,0,0,0,0,,NA,NA
1988,14471MCMPN127EA,3M CO,127 E. LAKE RD.,HONEOYE,ONTARIO,NY,144710040,42.784539,-77.502787,3861,,,,,,325992,,,,,,1388025124633,METHANOL,000067561,YES,NON-PBT,NO,0,NO,R,Pounds,250,750,0,0,0,0,0,0,0,0,0,0,1000,0,0,0,0,0,0,0,0,0,0,0,0,0,0,0,0,0,0,0,0,0,0,0,0,0,0,0,0,0,0,0,0,0,0,0,0,0,1000,0,0,0,0,0,0,0,0,0,0,0,0,0,,3M CO INC,006173082
1988,10940RYNLDRD2BA,BALL METAL BEVERAGE CONTAINER CORP,95 BALLARD RD,MIDDLETOWN,ORANGE,NY,10940,41.46126,-74.361878,3411,,,,,,332431,,,,,,1388025174347,"SULFURIC ACID (1994 AND AFTER ""ACID AEROSOLS"" ONLY)",007664939,NO,NON-PBT,NO,0,NO,R,Pounds,0,0,0,0,0,0,0,0,0,0,0,0,0,0,0,0,0,0,0,0,0,0,0,0,0,0,0,0,0,0,0,0,0,0,0,0,0,0,0,0,0,0,0,0,0,0,0,0,0,0,0,0,0,0,0,0,0,0,0,0,0,0,0,0,,BALL CORP,006419147
1988,13795DVRLCKIRKW,DOVER ELECTRONICS CO.,KIRKWOOD INDL. PARK,KIRKWOOD,BROOME,NY,13795,42.102711,-75.832956,3679,,,,,,334000,,,,,,1388025140334,TETRACHLOROETHYLENE,000127184,YES,NON-PBT,NO,0,YES,R,Pounds,340000,77000,0,0,0,0,0,0,0,0,0,0,417000,0,250,250,0,0,0,0,0,0,0,0,0,0,0,0,0,0,0,0,0,0,0,0,0,0,0,0,0,0,0,0,0,0,0,0,0,0,417000,0,0,0,0,0,0,0,0,0,0,0,0,0,,DOVER CORP,148606767
1988,14214WLLMS2978M,WILLIAMS ADVANCED MATERIALS INC,2978 MAIN ST,BUFFALO,ERIE,NY,14214,42.946853,-78.830736,3341,3356,3469,,,,331492,,,,,,1388025258740,NITRIC ACID,007697372,NO,NON-PBT,NO,0,NO,R,Pounds,0,250,0,0,0,0,0,0,0,0,0,0,250,0,0,0,0,0,0,0,0,0,0,0,0,0,0,0,0,0,0,0,0,0,0,0,0,0,0,0,0,0,0,0,0,0,0,0,0,0,250,0,0,0,0,0,0,0,0,0,0,0,0,0,,BRUSH ENGINEERED MATERIALS,622913080
1988,11735TMRGC222SM,ATOMERGIC CHEMETALS CORP,222 SHERWOOD AVE,FARMINGDALE,SUFFOLK,NY,117351718,40.745469,-73.416281,2819,,,,,,325188,,,,,,1388025267028,NICKEL COMPOUNDS,N495,YES,NON-PBT,YES,1,NO,R,Pounds,0,0,0,0,0,0,0,0,0,0,0,0,0,0,0,0,0,0,0,0,0,0,0,0,0,0,0,0,0,0,0,0,0,0,0,0,0,0,0,0,0,0,0,0,0,0,0,0,0,0,0,0,0,0,0,0,0,0,0,0,0,0,0,0,,NA,NA
1988,14692BSCHL1400N,BAUSCH & LOMB INC,1400 N GOODMAN ST,ROCHESTER,MONROE,NY,14609,43.180062,-77.571981,3832,3851,,,,,339115,,,,,,1388025300310,FREON 113,000076131,NO,NON-PBT,NO,0,NO,R,Pounds,200000,0,0,0,0,0,0,0,0,0,0,0,200000,0,0,0,0,0,0,0,0,0,0,0,0,0,0,0,0,0,0,0,0,0,0,0,0,0,0,0,0,0,0,0,0,0,0,0,0,0,200000,0,0,0,0,0,0,0,0,0,0,0,0,0,,BAUSCH & LOMB INC,002207751
1988,13503MNRCH37MEA,MONARCH CHEMICALS INC.,"37 MEADOW ST., P.O. BOX 176",UTICA,ONEIDA,NY,13503,43.107216,-75.225816,2819,2812,,,,,325188,,,,,,1388025381068,PHOSPHORIC ACID,007664382,NO,NON-PBT,NO,0,NO,R,Pounds,250,250,0,0,0,0,0,0,0,0,0,0,500,0,0,0,0,0,0,0,0,0,0,0,0,0,0,0,0,0,0,0,0,0,0,0,0,0,0,0,0,0,0,0,0,0,0,0,0,0,500,0,0,0,0,0,0,0,0,0,0,0,0,0,,NA,NA
1988,13421NDLTDKENWO,ONEIDA LTD  KNIFE PLANT,KENWOOD AVE,SHERRILL,ONEIDA,NY,13461,43.079168,-75.601351,3914,,,,,,332811,,,,,,1388025433842,TRICHLOROETHYLENE,000079016,YES,NON-PBT,NO,0,YES,R,Pounds,0,12166,0,0,0,0,0,0,0,0,0,0,12166,0,0,0,0,0,0,0,0,0,0,0,0,0,0,0,0,0,0,0,0,0,0,0,0,0,0,0,0,0,0,0,0,0,0,6000,0,6000,12166,0,0,0,0,0,0,0,0,0,0,0,0,0,,NA,NA
1988,10305SNCHM441TO,SUN CHEMICAL CORP,441 TOMPKINS AVE,STATEN ISLAND,RICHMOND,NY,10305,40.614878,-74.073014,2865,,,,,,325188,,,,,,1388025428614,COPPER COMPOUNDS,N100,NO,NON-PBT,YES,1,NO,R,Pounds,250,250,0,0,0,0,0,0,0,0,0,0,500,70,0,70,0,0,0,0,0,0,430,0,0,0,0,0,0,0,0,0,0,430,0,0,0,0,0,0,0,0,0,0,0,0,0,0,0,0,1000,0,0,0,0,0,0,0,0,0,0,0,0,0,,SUN CHEMICAL CORP,144638558
1988,14603GNRLM1000L,GM COMPONENTS HOLDINGS LLC,1000 LEXINGTON AVE,ROCHESTER,MONROE,NY,146062810,43.179194,-77.656813,3714,,,,,,336312,,,,,,1388025191596,ETHYLENE GLYCOL,000107211,YES,NON-PBT,NO,0,NO,R,Pounds,0,0,0,0,0,0,0,0,0,0,0,0,0,0,160000,160000,0,0,0,0,0,0,0,0,0,0,0,0,0,0,0,0,0,0,0,0,0,0,0,0,0,0,0,0,0,0,0,0,0,0,0,0,0,0,0,0,0,0,0,0,0,0,0,0,,GENERAL MOTORS LLC,832447812
1988,12901CWLLCUNDER,IMPERIAL WALLCOVERINGS INC,80 UNDERWOOD AVE,PLATTSBURGH,CLINTON,NY,12901,44.681618,-73.467176,2649,,,,,,322222,,,,,,1388025204342,DI(2-ETHYLHEXYL) PHTHALATE,000117817,YES,NON-PBT,NO,0,YES,R,Pounds,0,40,0,0,0,0,0,0,0,0,0,0,40,0,5,5,0,0,0,0,0,0,337,0,0,0,0,0,0,0,0,0,0,337,0,0,0,0,0,0,0,0,0,0,0,0,0,0,0,0,377,0,0,0,0,0,0,0,0,0,0,0,0,0,,COLLINS & AIKMAN CORP,198492514
1988,13662RYNLDSOUTH,REYNOLDS METALS CO ST LAWRENCE REDUCTION PLANT,194 COUNTY RT 45,MASSENA,ST LAWRENCE,NY,13662,44.986556,-74.747139,3334,,,,,,331312,,,,,,1388025176153,CHLORINE,007782505,YES,NON-PBT,NO,0,NO,R,Pounds,0,3300,3100,0,0,0,0,0,0,0,0,0,6400,0,0,0,0,0,0,0,0,0,0,0,0,0,0,0,0,0,0,0,0,0,0,0,0,0,0,0,0,0,0,0,0,0,0,0,0,0,6400,0,0,0,0,0,0,0,0,0,0,0,0,0,,ALCOA INC,001339472
1988,14615MC   1999M,IMATION ENTS. CORP.,1999 MT. READ BLVD.,ROCHESTER,MONROE,NY,14615,43.19063,-77.662195,3861,,,,,,334613,,,,,,1388025273107,SODIUM HYDROXIDE (SOLUTION),001310732,NO,NON-PBT,NO,0,NO,R,Pounds,0,0,0,0,0,0,0,0,0,0,0,0,0,0,0,0,0,0,0,0,0,0,0,0,0,0,0,0,0,0,0,0,0,0,0,0,0,0,0,0,0,0,0,0,0,0,0,0,0,0,0,0,0,0,0,0,0,0,0,0,0,0,0,0,,IMATION CORP,933588691
1988,12967KRFTNWILLI,NORTH LAWRENCE DAIRY INC,22 COUNTY RT 52,NORTH LAWRENCE,ST LAWRENCE,NY,12967,44.8045,-74.676583,2026,,,,,,311513,,,,,,1388025333663,SODIUM HYDROXIDE (SOLUTION),001310732,NO,NON-PBT,NO,0,NO,R,Pounds,0,0,246351,0,0,0,0,0,0,0,0,0,246351,0,0,0,0,0,0,0,0,0,0,0,0,0,0,0,0,0,0,0,0,0,0,0,0,0,0,0,0,0,0,0,0,0,0,0,0,0,246351,0,0,0,0,0,0,0,0,0,0,0,0,0,,YOGURT HOLDINGS II INC,NA
1988,14701WBRKN441CH,WEBER KNAPP CO.,441 CHANDLER ST.,JAMESTOWN,CHAUTAUQUA,NY,147020518,42.099194,-79.225944,3429,,,,,,332510,,,,,,1388025318433,"HYDROCHLORIC ACID (1995 AND AFTER ""ACID AEROSOLS"" ONLY)",007647010,YES,NON-PBT,NO,0,NO,R,Pounds,250,250,250,0,0,0,0,0,0,0,0,0,750,0,0,0,0,0,0,0,0,0,0,0,0,0,0,0,0,0,0,0,0,0,0,0,0,0,0,0,0,0,0,0,0,0,0,0,0,0,750,0,0,0,0,0,0,0,0,0,0,0,0,0,,FKI INDS INC,001456953
1988,14611GNRLC95MTR,GENERAL CIRCUITS INC.,95 MOUNT READ BLVD.,ROCHESTER,MONROE,NY,14611,43.152104,-77.660702,3672,,,,,,334412,,,,,,1388025290634,ACETONE,000067641,NO,NON-PBT,NO,0,NO,R,Pounds,0,3060,0,0,0,0,0,0,0,0,0,0,3060,0,0,0,0,0,0,0,0,0,0,0,0,0,0,0,0,0,0,0,0,0,0,0,0,0,0,0,0,0,0,0,0,0,0,0,0,0,3060,0,0,0,0,0,0,0,0,0,0,0,0,0,,NA,NA
1988,13662LMNMCPARKA,ALCOA INC,PARK AVE E,MASSENA,ST LAWRENCE,NY,13662,44.939389,-74.873528,3334,3354,3355,,,,331312,,,,,,1388025452400,CHLORINE,007782505,YES,NON-PBT,NO,0,NO,R,Pounds,0,1400,0,0,0,0,0,0,0,0,0,0,1400,0,0,0,0,0,0,0,0,0,0,0,0,0,0,0,0,0,0,0,0,0,0,0,0,0,0,0,0,0,0,0,0,0,0,0,0,0,1400,0,0,0,0,0,0,0,0,0,0,0,0,0,,ALCOA INC,001339472
1988,14009MKYTR58CHU,EMKAY TRADING CORP. INC.,58 CHURCH ST.,ARCADE,WYOMING,NY,14009,42.535524,-78.424875,2022,,,,,,311513,,,,,,1388025130182,NITRIC ACID,007697372,NO,NON-PBT,NO,0,NO,R,Pounds,0,0,0,0,0,0,0,0,0,0,0,0,0,0,12500,12500,0,0,0,0,0,0,0,0,0,0,0,0,0,0,0,0,0,0,0,0,0,0,0,0,0,0,0,0,0,0,0,0,0,0,0,0,0,0,0,0,0,0,0,0,0,0,0,0,,EMKAY TRADING CORP INC,074005081
1988,14240PRCST710OH,HENKEL CORP,710 OHIO ST,BUFFALO,ERIE,NY,14203,42.8577,-78.866631,2851,2891,,,,,325510,,,,,,1388025201726,ACETONE,000067641,NO,NON-PBT,NO,0,NO,R,Pounds,18252,3622,0,0,0,0,0,0,0,0,0,0,21874,0,0,0,0,0,0,0,0,0,0,0,0,0,0,0,0,0,0,0,0,0,0,0,0,0,0,0,0,0,0,0,5400,0,0,0,0,5400,21874,0,0,0,0,0,0,0,0,0,0,0,0,0,,HENKEL CORP,051441731
1988,13367KRFTNUTICA,KRAFT FOODS GLOBAL INC - LOW VILLE,7388 UTICA BLVD,LOWVILLE,LEWIS,NY,13367,43.777727,-75.483272,2022,,,,,,311513,,,,,,1388025205941,PHOSPHORIC ACID,007664382,NO,NON-PBT,NO,0,NO,R,Pounds,0,0,0,0,0,0,0,0,0,0,0,0,0,0,0,0,0,0,0,0,0,0,0,0,0,0,0,0,0,0,0,0,0,0,0,0,0,0,0,0,0,0,0,0,0,0,0,0,0,0,0,0,0,0,0,0,0,0,0,0,0,0,0,0,,KRAFT FOODS INC,877147228
1988,12809MLLNCHOOKR,MALLINCKRODT ANESTHESIA PRODUCTS,HOOK ROAD,ARGYLE,WASHINGTON,NY,12809,43.286389,-73.428333,3841,,,,,,339112,,,,,,1388025254754,ETHYLENE OXIDE,000075218,YES,NON-PBT,NO,0,YES,R,Pounds,0,468,0,0,0,0,0,0,0,0,0,0,468,0,0,0,0,0,0,0,0,0,0,0,0,0,0,0,0,0,0,0,0,0,0,0,0,0,0,0,0,0,0,0,0,0,0,0,0,0,468,0,0,0,0,0,0,0,0,0,0,0,0,0,,MALLINCKRODT GROUP INC,047021092
1988,13045CRTLN3736K,CORTLAND LINE CO INC,3736 KELLOGG RD,CORTLAND,CORTLAND,NY,13045,42.589109,-76.152381,2298,,,,,,314991,,,,,,1388025254816,METHYL ETHYL KETONE,000078933,NO,NON-PBT,NO,0,NO,R,Pounds,0,17899,0,0,0,0,0,0,0,0,0,0,17899,0,0,0,0,0,0,0,0,0,0,0,0,0,0,0,0,0,0,0,0,0,0,0,0,0,0,0,0,0,0,0,3106,0,0,0,0,3106,17899,0,0,0,0,0,0,0,0,0,0,0,0,0,,NA,NA
1988,14063RDWNG196NE,RED WING CO. INC.,196 NEWTON ST.,FREDONIA,CHAUTAUQUA,NY,14063,42.445101,-79.325609,2033,,,,,,311421,,,,,,1388025296310,SODIUM HYDROXIDE (SOLUTION),001310732,NO,NON-PBT,NO,0,NO,R,Pounds,0,0,0,0,0,0,0,0,0,0,0,0,0,0,31500,31500,0,0,0,0,0,0,0,0,0,0,0,0,0,0,0,0,0,0,0,0,0,0,0,0,0,0,0,0,0,0,0,0,0,0,0,0,0,0,0,0,0,0,0,0,0,0,0,0,,RHM HOLDINGS USA INC,NA
1988,12090KMTSN1FIRS,OAK-MITSUI INC HOOSICK FALLS,80 FIRST ST,HOOSICK FALLS,RENSSELAER,NY,12090,42.902777,-73.355555,3679,,,,,,331421,,,,,,1388025365750,"SULFURIC ACID (1994 AND AFTER ""ACID AEROSOLS"" ONLY)",007664939,NO,NON-PBT,NO,0,NO,R,Pounds,250,250,0,0,0,0,0,0,0,0,0,0,500,0,0,0,0,0,0,0,0,0,0,0,0,0,0,0,0,0,0,0,0,0,0,0,0,0,0,0,0,0,0,0,0,0,0,0,0,0,500,0,0,0,0,0,0,0,0,0,0,0,0,0,,MITSUI KINZOKU,NA
1988,14302CCDNT4700B,OCCIDENTAL CHEMICAL CORP NIAGARA PLANT,4700 BUFFALO AVE,NIAGARA FALLS,NIAGARA,NY,14302,43.086694,-79.003833,2812,2865,2819,2869,,,325181,,,,,,1388025434085,BENZYL CHLORIDE,000100447,YES,NON-PBT,NO,0,NO,R,Pounds,61,0,0,0,0,0,0,0,0,0,0,0,61,0,0,0,0,0,0,0,0,0,0,0,0,0,0,0,0,0,0,0,0,0,0,0,0,0,0,0,0,0,0,0,0,0,0,0,0,0,61,0,0,0,0,0,0,0,0,0,0,0,0,0,,OCCIDENTAL PETROLEUM CORP,006908354
1988,13619JMSRV695WE,JAMES RIVER PAPER CO. INC.,695 W. END AVE.,CARTHAGE,JEFFERSON,NY,13619,43.984936,-75.620431,2621,,,,,,322121,,,,,,1388025438209,"SULFURIC ACID (1994 AND AFTER ""ACID AEROSOLS"" ONLY)",007664939,NO,NON-PBT,NO,0,NO,R,Pounds,0,12000,0,0,0,0,0,0,0,0,0,0,12000,0,0,0,0,0,0,0,0,0,0,0,0,0,0,0,0,0,0,0,0,0,0,0,0,0,0,0,0,0,0,0,0,0,0,0,0,0,12000,0,0,0,0,0,0,0,0,0,0,0,0,0,,JAMES RIVER CORP OF VA,046156626
1988,13503LLDSG211SE,LUCAS AEROSPACE POWER TRANSMISSION CORP,211 SEWARD AVENUE,UTICA,ONEIDA,NY,13503,43.082358,-75.280099,3720,,,,,,336413,,,,,,1388025423068,NICKEL COMPOUNDS,N495,YES,NON-PBT,YES,1,NO,R,Pounds,0,0,0,0,0,0,0,0,0,0,0,0,0,250,0,250,0,0,0,0,0,0,11200,0,0,0,0,0,0,0,0,0,0,11200,0,0,0,0,0,0,0,0,0,0,0,0,0,0,0,0,11450,0,0,0,0,0,0,0,0,0,0,0,0,0,,LUCAS INDUSTRIES INC,001666817
1988,13221GNRLM1000T,GENERAL MOTORS CORP INLAND FISHER GUIDE DIV,1 GENERAL MOTORS DR.,SYRACUSE,ONONDAGA,NY,13206,43.089639,-76.116944,3079,,,,,,336211,,,,,,1388025427218,XYLENE (MIXED ISOMERS),001330207,YES,NON-PBT,NO,0,NO,R,Pounds,8100,100000,0,0,0,0,0,0,0,0,0,0,108100,0,250,250,0,0,0,0,0,0,250,0,0,0,0,0,0,0,0,0,0,250,0,0,0,0,0,0,0,0,0,0,11250,0,0,0,0,11250,108350,0,0,0,0,0,0,0,0,0,0,0,0,0,,GENERAL MOTORS CORP,005356613
1988,11237LTVST7288S,BROOKLYN STEEL & TUBE CORP,72 SCOTT AVE,BROOKLYN,KINGS,NY,11237,40.709925,-73.922751,3331,,,,,,331411,,,,,,1388025181557,"SULFURIC ACID (1994 AND AFTER ""ACID AEROSOLS"" ONLY)",007664939,NO,NON-PBT,NO,0,NO,R,Pounds,0,0,0,0,0,0,0,0,0,0,0,0,0,0,0,0,0,0,0,0,0,0,0,0,0,0,0,0,0,0,0,0,34000,34000,0,0,0,0,0,0,0,0,0,0,0,0,0,0,0,0,34000,0,0,0,0,0,0,0,0,0,0,0,0,0,,LTV STEEL CO INC,112594213
1988,14009MTRLN400MA,MOTOROLA INC,400 MAIN ST,ARCADE,WYOMING,NY,14009,42.531592,-78.429101,3694,,,,,,336322,,,,,,1388025181759,FREON 113,000076131,NO,NON-PBT,NO,0,NO,R,Pounds,95000,0,0,0,0,0,0,0,0,0,0,0,95000,0,0,0,0,0,0,0,0,0,0,0,0,0,0,0,0,0,0,0,0,0,0,0,0,0,0,0,0,0,0,0,17600,0,0,0,0,17600,95000,0,0,0,0,0,0,0,0,0,0,0,0,0,,NA,NA
1988,14302DPNTNBUFFA,DU PONT NIAGARA FALLS PLANT,BUFFALO AVE & 26TH ST,NIAGARA FALLS,NIAGARA,NY,14302,43.081056,-79.022361,2869,,,,,,325188,,,,,,1388025170438,SODIUM HYDROXIDE (SOLUTION),001310732,NO,NON-PBT,NO,0,NO,R,Pounds,0,0,2,0,0,0,0,0,0,0,0,11,13,0,21000,21000,0,0,0,0,0,0,670,0,0,0,0,0,0,0,0,0,0,670,0,0,0,0,0,0,0,0,0,0,0,0,0,2300,0,2300,683,0,0,0,0,0,0,0,0,0,0,0,0,0,,E I DU PONT DE NEMOURS & CO INC,001315704
1988,14302DPNTNBUFFA,DU PONT NIAGARA FALLS PLANT,BUFFALO AVE & 26TH ST,NIAGARA FALLS,NIAGARA,NY,14302,43.081056,-79.022361,2869,,,,,,325188,,,,,,1388025170489,SILVER COMPOUNDS,N740,NO,NON-PBT,YES,1,NO,R,Pounds,0,80,0,0,0,0,0,0,0,0,0,0,80,770,0,770,0,0,0,0,0,0,0,0,0,0,0,0,0,0,0,0,0,0,0,0,0,0,0,0,0,0,0,0,0,0,0,0,0,0,850,0,0,0,0,0,0,0,0,0,0,0,0,0,,E I DU PONT DE NEMOURS & CO INC,001315704
1988,11232RTHRM4014F,ARTHUR MATNEY CO INC,4014 1ST AVE,BROOKLYN,KINGS,NY,112322705,40.655828,-74.013561,2844,,,,,,325600,,,,,,1388025145018,ACETONE,000067641,NO,NON-PBT,NO,0,NO,R,Pounds,250,250,0,0,0,0,0,0,0,0,0,0,500,0,0,0,0,0,0,0,0,0,0,0,0,0,0,0,0,0,9540,0,0,9540,0,0,0,0,0,0,0,0,0,0,0,0,0,0,0,0,10040,0,0,0,0,0,0,0,0,0,0,0,0,0,,NA,NA
1988,13827BMSYSROUTE,LOCKHEED MARTIN CORP,1801 STATE RT 17C,OWEGO,TIOGA,NY,138273998,42.100861,-76.222139,3699,,,,,,336411,,,,,,1388025211842,SODIUM HYDROXIDE (SOLUTION),001310732,NO,NON-PBT,NO,0,NO,R,Pounds,0,250,0,0,0,0,0,0,0,0,0,0,250,0,0,0,0,0,0,0,0,0,0,0,0,0,0,0,0,0,0,0,0,0,0,0,0,0,0,0,0,0,0,0,0,0,0,0,0,0,250,0,0,0,0,0,0,0,0,0,0,0,0,0,,LOCKHEED MARTIN CORP,834951691
1988,11450MRCNN815WE,AMERICAN NATIONAL CAN CO,815 W. WHITNEY RD.,FAIRPORT,MONROE,NY,14450,43.108476,-77.450211,3411,,,,,,332431,,,,,,1388025398936,"HYDROCHLORIC ACID (1995 AND AFTER ""ACID AEROSOLS"" ONLY)",007647010,YES,NON-PBT,NO,0,NO,R,Pounds,0,0,0,0,0,0,0,0,0,0,0,0,0,0,0,0,0,0,0,0,0,0,0,0,0,0,0,0,0,0,0,0,0,0,0,0,0,0,0,0,0,0,0,0,0,0,0,0,0,0,0,0,0,0,0,0,0,0,0,0,0,0,0,0,,AMERICAN NATIONAL CAN CO,005105366
1988,11450MRCNN815WE,AMERICAN NATIONAL CAN CO,815 W. WHITNEY RD.,FAIRPORT,MONROE,NY,14450,43.108476,-77.450211,3411,,,,,,332431,,,,,,1388025398999,CERTAIN GLYCOL ETHERS,N230,YES,NON-PBT,NO,0,NO,R,Pounds,27648,156863,0,0,0,0,0,0,0,0,0,0,184511,0,0,0,0,0,0,0,0,0,0,0,0,0,0,0,0,0,0,0,0,0,0,0,0,0,0,0,0,0,0,0,0,0,0,0,0,0,184511,0,0,0,0,0,0,0,0,0,0,0,0,0,,AMERICAN NATIONAL CAN CO,005105366
1988,12144BSFCR36RIV,BASF CORP COATINGS & COLORANTS DIV.,36 RIVERSIDE AVE.,RENSSELAER,RENSSELAER,NY,121442928,42.627482,-73.749438,2865,,,,,,325100,,,,,,1388025439795,DIMETHYL SULFATE,000077781,YES,NON-PBT,NO,0,YES,R,Pounds,450,2,0,0,0,0,0,0,0,0,0,0,452,0,0,0,0,0,0,0,0,0,0,0,0,0,0,0,0,0,0,0,0,0,0,0,0,0,0,0,0,0,0,0,0,0,0,0,0,0,452,0,0,0,0,0,0,0,0,0,0,0,0,0,,BASF CORP,071014385
1988,12144BSFCR36RIV,BASF CORP COATINGS & COLORANTS DIV.,36 RIVERSIDE AVE.,RENSSELAER,RENSSELAER,NY,121442928,42.627482,-73.749438,2865,,,,,,325100,,,,,,1388025439858,ETHYLENE GLYCOL,000107211,YES,NON-PBT,NO,0,NO,R,Pounds,1500,2,0,0,0,0,0,0,0,0,0,0,1502,0,130000,130000,0,0,0,0,0,0,0,0,0,0,0,0,0,0,0,0,0,0,0,0,0,0,0,0,0,0,0,0,0,0,0,0,0,0,1502,0,0,0,0,0,0,0,0,0,0,0,0,0,,BASF CORP,071014385
1988,13662LMNMCPARKA,ALCOA INC,PARK AVE E,MASSENA,ST LAWRENCE,NY,13662,44.939389,-74.873528,3334,3354,3355,,,,331312,,,,,,1388025452487,"SULFURIC ACID (1994 AND AFTER ""ACID AEROSOLS"" ONLY)",007664939,NO,NON-PBT,NO,0,NO,R,Pounds,0,250,0,0,0,0,0,0,0,0,0,0,250,0,0,0,0,0,0,0,0,0,0,0,0,0,0,0,0,0,0,0,0,0,0,0,0,0,0,0,0,0,0,18000,0,0,0,0,0,18000,250,0,0,0,0,0,0,0,0,0,0,0,0,0,,ALCOA INC,001339472
1988,14810PHLPS7265R,PHILIPS LIGHTING CO,7265 RT 54,BATH,STEUBEN,NY,14810,42.353317,-77.303689,3641,,,,,,335110,,,,,,1388025437258,AMMONIA,007664417,NO,NON-PBT,NO,0,NO,R,Pounds,250,750,0,0,0,0,0,0,0,0,0,0,1000,0,6000,6000,0,0,0,0,0,0,4000,0,0,0,0,0,0,0,0,0,0,4000,0,0,0,0,0,0,0,0,0,0,0,0,0,0,0,0,5000,0,0,0,0,0,0,0,0,0,0,0,0,0,,PHILIPS NA,196269088
1988,14086SCTTV225ER,SCOTT AVIATION,225 ERIE ST.,LANCASTER,ERIE,NY,140869502,42.905323,-78.658193,3728,,,,,,336413,,,,,,1388025094208,NITRIC ACID,007697372,NO,NON-PBT,NO,0,NO,R,Pounds,0,0,0,0,0,0,0,0,0,0,0,0,0,0,2700,2700,0,0,0,0,0,0,0,0,0,0,0,0,0,0,0,0,0,0,0,0,0,0,0,0,0,0,0,0,0,0,4500,0,0,4500,0,0,0,0,0,0,0,0,0,0,0,0,0,0,,FIGGIE INTL INC,00019112
1988,11210PYRMD761E4,PYRAMID PRINT PRODUCTS INC.,761 E. 42 ST.,BROOKLYN,KINGS,NY,11210,40.63654,-73.936463,2851,,,,,,325510,,,,,,1388025094273,ZINC COMPOUNDS,N982,NO,NON-PBT,YES,1,NO,R,Pounds,0,0,0,0,0,0,0,0,0,0,0,0,0,0,0,0,0,0,0,0,0,0,0,0,0,0,0,0,0,0,0,0,250,250,0,0,0,0,0,0,0,0,0,0,0,0,0,0,0,0,250,0,0,0,0,0,0,0,0,0,0,0,0,0,,NA,NA
1988,12180GRDNW29102,GARDEN WAY INC TROY,29 102ND ST,TROY,RENSSELAER,NY,12180,42.75624,-73.67976,3524,,,,,,333112,,,,,,1388025249463,COPPER,007440508,NO,NON-PBT,YES,1,NO,R,Pounds,0,0,0,0,0,0,0,0,0,0,0,0,0,0,0,0,0,0,0,0,0,0,0,0,0,0,0,0,0,0,0,0,0,0,0,0,0,0,0,0,0,0,0,0,0,0,0,0,0,0,0,0,0,0,0,0,0,0,0,0,0,0,0,0,,NA,NA
1988,11222LBRTS50DIV,ALBERTS PLATING WORKS INC,50 DIVISION PL,BROOKLYN,KINGS,NY,112225205,40.720697,-73.938619,3471,3499,,,,,332813,,,,,,1388025314511,PHOSPHORIC ACID,007664382,NO,NON-PBT,NO,0,NO,R,Pounds,0,200,0,0,0,0,0,0,0,0,0,0,200,0,0,0,0,0,0,0,0,0,0,0,0,0,0,0,0,0,0,0,0,0,0,0,0,0,0,0,0,0,0,0,0,0,0,0,0,0,200,0,0,0,0,0,0,0,0,0,0,0,0,0,,NA,NA
1988,14218BTHLHPOBOX,METALICO ALUMINUM RECOVERY INC,1951 HAMBURG TURNPIKE BOX 6,LACKAWANNA,ERIE,NY,14218,42.832563,-78.854012,3312,,,,,,331492,,,,,,1388025367107,QUINOLINE,000091225,YES,NON-PBT,NO,0,NO,R,Pounds,91,9,0,0,0,0,0,0,0,0,0,0,100,0,0,0,0,0,0,0,0,0,0,0,0,0,0,0,0,0,0,0,0,0,0,0,0,0,0,0,0,0,0,0,0,0,0,0,0,0,100,0,0,0,0,0,0,0,0,0,0,0,0,0,,METALICO INC,047877688
1988,14845TSHBWWESTI,MATSUSHITA TOSHIBA PICTURE DISPLAY CORP OF AMERICA (NEW YORK),100 WESTINGHOUSE CIR,HORSEHEADS,CHEMUNG,NY,14845,42.161663,-76.840377,3671,,,,,,334411,,,,,,1388025343512,COPPER COMPOUNDS,N100,NO,NON-PBT,YES,1,NO,R,Pounds,0,0,250,0,0,0,0,0,0,0,0,0,250,250,0,250,0,0,0,0,0,0,0,0,0,0,0,0,0,0,0,0,0,0,0,0,0,0,0,0,0,0,0,0,0,0,0,0,0,0,500,0,0,0,0,0,0,0,0,0,0,0,0,0,,MATSUSHITA TOSHIBA PICTURE DISPLAY CO LTD,NA
1988,10920PRPHR75BRE,PAR PHARMACEUTICAL INC. CONGERS FACILITY,77 BRENNER DR.,CONGERS,ROCKLAND,NY,10920,41.159043,-73.939065,2834,,,,,,325412,,,,,,1388025351747,METHANOL,000067561,YES,NON-PBT,NO,0,NO,R,Pounds,250,41000,0,0,0,0,0,0,0,0,0,0,41250,0,0,0,0,0,0,0,0,0,0,0,0,0,0,0,0,0,0,0,0,0,0,0,0,0,0,0,0,0,0,0,0,0,0,0,0,0,41250,0,0,0,0,0,0,0,0,0,0,0,0,0,,NA,NA
1988,14652STMNK1669L,EASTMAN KODAK CO EASTMAN BUSINESS PARK,1669 LAKE AVE,ROCHESTER,MONROE,NY,146523615,43.202778,-77.655222,3861,,,,,,325992,,,,,,1388025405061,DIETHANOLAMINE,000111422,YES,NON-PBT,NO,0,NO,R,Pounds,1400,0,5900,0,0,0,0,0,0,0,0,0,7300,0,0,0,0,0,0,0,0,0,0,0,0,0,0,0,0,0,0,0,0,0,0,0,0,0,0,0,0,0,0,0,0,0,0,0,0,0,7300,0,0,0,0,0,0,0,0,0,0,0,0,0,,EASTMAN KODAK CO,002206183
1988,14652STMNK1669L,EASTMAN KODAK CO EASTMAN BUSINESS PARK,1669 LAKE AVE,ROCHESTER,MONROE,NY,146523615,43.202778,-77.655222,3861,,,,,,325992,,,,,,1388025405123,ETHYLENE GLYCOL,000107211,YES,NON-PBT,NO,0,NO,R,Pounds,54000,48000,28000,0,0,0,0,0,0,0,0,0,130000,0,50,50,0,0,0,0,0,0,0,0,0,0,0,0,0,0,0,0,0,0,0,0,0,0,0,0,0,0,0,0,0,0,1640,0,0,1640,130000,0,0,0,0,0,0,0,0,0,0,0,0,0,,EASTMAN KODAK CO,002206183
1988,14652STMNK1669L,EASTMAN KODAK CO EASTMAN BUSINESS PARK,1669 LAKE AVE,ROCHESTER,MONROE,NY,146523615,43.202778,-77.655222,3861,,,,,,325992,,,,,,1388025405186,MANGANESE COMPOUNDS,N450,YES,NON-PBT,YES,1,NO,R,Pounds,0,670,49000,0,0,0,230,0,0,0,0,0,49900,25,0,25,0,0,0,0,0,0,50,0,0,0,0,0,0,0,0,0,0,50,0,0,0,0,0,0,0,0,0,0,8100,0,0,0,0,8100,49975,0,0,0,0,0,0,0,0,0,0,0,0,0,,EASTMAN KODAK CO,002206183
1988,14702JMSTW105WA,JAMESTOWN ELECTRO PLATING WORKS INC,105 WATER ST,JAMESTOWN,CHAUTAUQUA,NY,14701,42.0945,-79.229639,3471,,,,,,332813,,,,,,1388025466929,CHLORINE,007782505,YES,NON-PBT,NO,0,NO,R,Pounds,0,0,0,0,0,0,0,0,0,0,0,0,0,0,0,0,0,0,0,0,0,0,0,0,0,0,0,0,0,0,0,0,0,0,0,0,0,0,0,0,0,0,0,0,0,0,0,0,0,0,0,0,0,0,0,0,0,0,0,0,0,0,0,0,,NA,NA
1988,13760CHNNG2507W,CATALYST MANUFACTURING SERVICES  ENDICOTT,2507 WAYNE ST,ENDICOTT,BROOME,NY,13760,42.108866,-76.037099,3672,3678,3679,,,,334412,,,,,,1388025892605,ACETONE,000067641,NO,NON-PBT,NO,0,NO,R,Pounds,35000,51000,0,0,0,0,0,0,0,0,0,0,86000,0,0,0,0,0,0,0,0,0,0,0,0,0,0,0,0,0,0,0,0,0,0,0,0,0,0,0,0,0,0,0,0,0,0,0,0,0,86000,0,0,0,0,0,0,0,0,0,0,0,0,0,,NA,NA
1988,11101SCHWR50012,SCHWARTZ CHEMICAL CO. INC.,50-01 SECOND ST.,LONG ISLAND CITY,QUEENS,NY,11101,40.74356,-73.95839,2851,2891,,,,,325510,,,,,,1388025907496,ACETONE,000067641,NO,NON-PBT,NO,0,NO,R,Pounds,77,0,0,0,0,0,0,0,0,0,0,0,77,0,0,0,0,0,0,0,0,0,0,0,0,0,0,0,0,0,0,0,0,0,0,0,0,0,0,0,0,0,0,0,0,0,0,0,0,0,77,0,0,0,0,0,0,0,0,0,0,0,0,0,,NA,NA
1988,10591GNRLM199BE,GENERAL MOTORS CORP CHEVROLET PONTIAC CANADA GROUP,199 BEEKMAN AVE.,NORTH TARRYTOWN,WESTCHESTER,NY,105912494,41.082792,-73.866865,3711,,,,,,336000,,,,,,1388025495108,METHYL ISOBUTYL KETONE,000108101,YES,NON-PBT,NO,0,NO,R,Pounds,0,46302,0,0,0,0,0,0,0,0,0,0,46302,0,0,0,0,0,0,0,0,0,0,0,0,0,0,0,0,0,0,0,0,0,0,0,0,0,0,0,0,0,0,0,67556,0,0,0,0,67556,46302,0,0,0,0,0,0,0,0,0,0,0,0,0,,GENERAL MOTORS CORP,005356613
1988,10591GNRLM199BE,GENERAL MOTORS CORP CHEVROLET PONTIAC CANADA GROUP,199 BEEKMAN AVE.,NORTH TARRYTOWN,WESTCHESTER,NY,105912494,41.082792,-73.866865,3711,,,,,,336000,,,,,,1388025495161,METHYL TERT-BUTYL ETHER,001634044,YES,NON-PBT,NO,0,NO,R,Pounds,0,0,0,0,0,0,0,0,0,0,0,0,0,0,0,0,0,0,0,0,0,0,0,0,0,0,0,0,0,0,0,0,0,0,0,0,0,0,0,0,0,0,0,0,0,0,0,0,0,0,0,0,0,0,0,0,0,0,0,0,0,0,0,0,,GENERAL MOTORS CORP,005356613
1988,10591GNRLM199BE,GENERAL MOTORS CORP CHEVROLET PONTIAC CANADA GROUP,199 BEEKMAN AVE.,NORTH TARRYTOWN,WESTCHESTER,NY,105912494,41.082792,-73.866865,3711,,,,,,336000,,,,,,1388025495223,LEAD COMPOUNDS,N420,YES,PBT,YES,1,NO,R,Pounds,0,0,0,0,0,0,0,0,0,0,0,0,0,0,0,0,0,0,0,0,0,0,250,0,0,0,0,0,0,0,0,0,0,250,0,0,0,0,0,0,0,0,0,0,0,0,0,0,0,0,250,0,0,0,0,0,0,0,0,0,0,0,0,0,,GENERAL MOTORS CORP,005356613
1988,12303SCHNC10THA,SCHENECTADY INTL. INC.,1302 CONGRESS ST.,SCHENECTADY,SCHENECTADY,NY,12303,42.792861,-73.950528,2851,2821,,,,,325510,,,,,,1388025500911,METHYL ISOBUTYL KETONE,000108101,YES,NON-PBT,NO,0,NO,R,Pounds,750,250,0,0,0,0,0,0,0,0,0,0,1000,0,0,0,0,0,0,0,0,0,0,0,0,0,0,0,0,0,0,0,0,0,0,0,0,0,0,0,0,0,0,0,0,0,0,0,0,0,1000,0,0,0,0,0,0,0,0,0,0,0,0,0,,SCHENECTADY INTL GROUP INC,146710330
1988,11590DCHMC625MA,ADCHEM CORP,625 MAIN ST,WESTBURY,NASSAU,NY,11590,40.757,-73.5616,2672,2641,2891,,,,322222,,,,,,1388025647621,XYLENE (MIXED ISOMERS),001330207,YES,NON-PBT,NO,0,NO,R,Pounds,250,4400,0,0,0,0,0,0,0,0,0,0,4650,0,0,0,0,0,0,0,0,0,0,0,0,0,0,0,0,0,0,0,250,250,0,0,0,0,0,0,0,0,0,0,250,0,0,0,0,250,4900,0,0,0,0,0,0,0,0,0,0,0,0,0,,NA,NA
1988,11542LMCMNGARVI,LIMCO MANUFACTURING CORP.,GARVIES PT RD.,GLEN COVE,NASSAU,NY,11542,40.859838,-73.641116,3728,,,,,,336413,,,,,,1388025746088,SODIUM HYDROXIDE (SOLUTION),001310732,NO,NON-PBT,NO,0,NO,R,Pounds,0,0,0,0,0,0,0,0,0,0,0,0,0,0,20250,20250,0,0,0,0,0,0,0,0,0,0,0,0,0,0,0,0,0,0,0,0,0,0,0,0,0,0,0,0,0,0,0,0,0,0,0,0,0,0,0,0,0,0,0,0,0,0,0,0,,NA,NA
1988,13815SHFFLWOODS,KERRY BIO-SCIENCE,158 STATE HWY 320,NORWICH,CHENANGO,NY,13815,42.553167,-75.52225,2023,,,,,,311999,,,,,,1388025804168,"HYDROCHLORIC ACID (1995 AND AFTER ""ACID AEROSOLS"" ONLY)",007647010,YES,NON-PBT,NO,0,NO,R,Pounds,0,0,0,0,0,0,0,0,0,0,0,0,0,0,0,0,0,0,0,0,0,0,0,0,0,0,0,0,0,0,0,0,0,0,0,0,0,0,0,0,0,0,0,0,0,0,0,0,0,0,0,0,0,0,0,0,0,0,0,0,0,0,0,0,,KERRY GROUP,107517591
1988,13205JQTHNEBRIG,JAQUITH INDUSTRIES INC.,E. BRIGHTON & GLEN AVE.,SYRACUSE,ONONDAGA,NY,13205,43.008333,-76.125,3499,,,,,,332312,,,,,,1388025781523,ALUMINUM OXIDE (FIBROUS FORMS),001344281,NO,NON-PBT,YES,2,NO,R,Pounds,0,960,0,0,0,0,18200,0,0,0,0,0,19160,0,0,0,0,0,0,0,0,0,0,0,0,0,0,0,0,0,0,0,0,0,0,0,0,0,0,0,0,0,0,0,0,0,0,0,0,0,19160,0,0,0,0,0,0,0,0,0,0,0,0,0,,NA,NA
1988,14205BTHLCKATHE,BOOTH OIL CO,FOOT OF KATHERINE ST,BUFFALO,ERIE,NY,14210,42.856949,-78.859339,2992,,,,,,324191,,,,,,1388025811896,"SULFURIC ACID (1994 AND AFTER ""ACID AEROSOLS"" ONLY)",007664939,NO,NON-PBT,NO,0,NO,R,Pounds,0,0,0,0,0,0,0,0,0,0,0,0,0,0,12362,12362,0,0,0,0,0,0,0,0,0,0,0,0,0,0,0,0,0,0,0,0,0,0,0,0,0,0,0,0,0,0,0,0,0,0,0,0,0,0,0,0,0,0,0,0,0,0,0,0,,NA,NA
1988,13329DNLGR1MAIN,DANIEL GREEN CO.,1 MAIN ST.,DOLGEVILLE,HERKIMER,NY,13329,43.101907,-74.7707,3140,,,,,,316219,,,,,,1388025914007,"1,1,1-TRICHLOROETHANE",000071556,YES,NON-PBT,NO,0,NO,R,Pounds,10062,0,0,0,0,0,0,0,0,0,0,0,10062,0,0,0,0,0,0,0,0,0,0,0,0,0,0,0,0,0,0,0,0,0,0,0,0,0,0,0,0,0,0,0,0,0,0,0,0,0,10062,0,0,0,0,0,0,0,0,0,0,0,0,0,,NA,NA
1988,14611RCHST57SHE,ROCHESTER BRONZE & ALUMINUM FOUNDRY L.L.C.,57 SHERER ST.,ROCHESTER,MONROE,NY,146111696,43.15349,-77.649874,3365,INVA,,,,,331524,,,,,,1388025866587,COPPER,007440508,NO,NON-PBT,YES,1,NO,R,Pounds,1335,0,0,0,0,0,0,0,0,0,0,0,1335,0,0,0,0,0,0,0,0,0,0,0,0,0,0,0,0,0,0,0,0,0,0,0,0,0,0,0,0,0,0,0,0,0,0,0,0,0,1335,0,0,0,0,0,0,0,0,0,0,0,0,0,,NA,NA
1988,14305SKWLL3801H,GLOBE METALLURGICAL INC,3807 HIGHLAND AVE,NIAGARA FALLS,NIAGARA,NY,14305,43.12195,-79.044518,3313,,,,,,331112,,,,,,1388025729233,"SULFURIC ACID (1994 AND AFTER ""ACID AEROSOLS"" ONLY)",007664939,NO,NON-PBT,NO,0,NO,R,Pounds,0,0,0,0,0,0,0,0,0,0,0,0,0,0,16000,16000,0,0,0,0,0,0,0,0,0,0,0,0,0,0,0,0,0,0,0,0,0,0,0,0,0,0,0,0,0,0,0,0,0,0,0,0,0,0,0,0,0,0,0,0,0,0,0,0,,GLOBE SPECIALTY METALS INC,782847391
1988,14171SDPTFPOBOX,US DOE WEST VALLEY DEMONSTRATION PROJECT,10282 ROCK SPRINGS RD,WEST VALLEY,CATTARAUGUS,NY,141719799,42.45025,-78.653861,9999,,,,,,928110,,,,,,1388025742952,"SULFURIC ACID (1994 AND AFTER ""ACID AEROSOLS"" ONLY)",007664939,NO,NON-PBT,NO,0,NO,R,Pounds,0,0,0,0,0,0,0,0,0,0,0,0,0,0,0,0,0,0,0,0,0,0,0,0,0,0,0,0,0,0,0,0,0,0,0,0,0,0,0,0,0,0,0,0,0,0,0,0,0,0,0,0,0,0,0,0,0,0,0,0,0,0,0,0,,US DEPARTMENT OF ENERGY,NA
1988,12920MCCDM23COL,AGRI-MARK INC  MCCADAM PLANT,39 MCCADAM LN,CHATEAUGAY,FRANKLIN,NY,12920,44.923347,-74.078447,2022,,,,,,311513,,,,,,1388025817622,SODIUM HYDROXIDE (SOLUTION),001310732,NO,NON-PBT,NO,0,NO,R,Pounds,0,0,0,0,0,0,0,0,0,0,0,0,0,0,250,250,0,0,0,0,0,0,0,0,0,0,0,0,0,0,0,0,0,0,0,0,0,0,0,0,0,0,0,0,0,0,0,0,0,0,0,0,0,0,0,0,0,0,0,0,0,0,0,0,,AGRI-MARK INC,021719893
1988,14572GNLCKONEGU,GUNLOCKE CO,ONE GUNLOCKE DR,WAYLAND,STEUBEN,NY,14572,42.553626,-77.591465,2521,,,,,,337211,,,,,,1388025869898,DICHLOROMETHANE,000075092,YES,NON-PBT,NO,0,YES,R,Pounds,6700,0,0,0,0,0,0,0,0,0,0,0,6700,0,0,0,0,0,0,0,0,0,3800,0,0,0,0,0,0,0,0,0,0,3800,0,0,0,0,0,0,0,0,0,0,0,0,0,0,0,0,10500,0,0,0,0,0,0,0,0,0,0,0,0,0,,HNI CORP,199936550
1988,14304BTLSP5000P,DUREZ NIAGARA,5000 PACKARD RD,NIAGARA FALLS,NIAGARA,NY,14304,43.09719,-79.00525,2821,,,,,,325211,,,,,,1388025900705,"4,4'-ISOPROPYLIDENEDIPHENOL",000080057,NO,NON-PBT,NO,0,NO,R,Pounds,250,250,0,0,0,0,0,0,0,0,0,0,500,0,0,0,0,0,0,0,0,0,0,0,0,0,0,0,0,0,0,0,0,0,0,0,0,0,0,0,0,0,0,0,0,0,0,0,0,0,500,0,0,0,0,0,0,0,0,0,0,0,0,0,,DUREZ CORP,NA
1988,14845MGNGNWESTI,IMAGING & SENSING TECHNOLOGY TECH DIV,300 WESTINGHOUSE CIRCLE,HORSEHEADS,CHEMUNG,NY,148452299,42.162694,-76.841354,3663,3671,,,,,334220,,,,,,1388025481767,METHANOL,000067561,YES,NON-PBT,NO,0,NO,R,Pounds,750,7000,250,0,0,0,0,0,0,0,0,0,8000,0,0,0,0,0,0,0,0,0,0,0,0,0,0,0,0,0,0,0,0,0,0,0,0,0,0,0,0,0,0,0,0,0,0,0,0,0,8000,0,0,0,0,0,0,0,0,0,0,0,0,0,,NA,NA
1988,12150SCHNC1000M,SI GROUP INC,1000 MAIN ST,ROTTERDAM JUNCTION,SCHENECTADY,NY,12150,42.86077,-74.02846,2821,2869,,,,,325211,,,,,,1388025491376,O-CRESOL,000095487,YES,NON-PBT,NO,0,NO,R,Pounds,250,1019,250,0,0,0,0,0,0,0,0,0,1519,0,0,0,0,0,0,0,0,0,7730,0,0,0,0,0,0,0,0,0,0,7730,0,0,0,0,0,0,0,0,0,0,21600,0,0,0,0,21600,9249,0,0,0,0,0,0,0,0,0,0,0,0,0,,SI GROUP INC,146710330
1988,12150SCHNC1000M,SI GROUP INC,1000 MAIN ST,ROTTERDAM JUNCTION,SCHENECTADY,NY,12150,42.86077,-74.02846,2821,2869,,,,,325211,,,,,,1388025491414,ZINC (FUME OR DUST),007440666,NO,NON-PBT,YES,4,NO,R,Pounds,250,250,250,0,0,0,0,0,0,0,0,0,750,0,0,0,0,0,0,0,0,0,1710,0,0,0,0,0,0,0,0,0,0,1710,0,0,0,0,0,0,0,0,0,0,1250,0,0,0,0,1250,2460,0,0,0,0,0,0,0,0,0,0,0,0,0,,SI GROUP INC,146710330
1988,14502MBLCH200EA,MOBIL CHEMICAL CO FILMS DIV,200 E MAIN ST,MACEDON,WAYNE,NY,145020799,43.071167,-77.29075,2671,,,,,,322221,,,,,,1388025551553,"SULFURIC ACID (1994 AND AFTER ""ACID AEROSOLS"" ONLY)",007664939,NO,NON-PBT,NO,0,NO,R,Pounds,0,0,0,0,0,0,0,0,0,0,0,0,0,0,0,0,0,0,0,0,0,0,0,0,0,0,0,0,0,0,0,0,0,0,0,0,0,0,0,0,0,0,0,0,0,0,0,0,0,0,0,0,0,0,0,0,0,0,0,0,0,0,0,0,,MOBIL CORP,026555193
1988,14207PRTTL75TON,PRATT & LAMBERT UNITED INC.,75 TONAWANDA ST.,BUFFALO,ERIE,NY,14207,42.931555,-78.897113,2851,2821,,,,,325510,,,,,,1388025559954,ALUMINUM OXIDE (FIBROUS FORMS),001344281,NO,NON-PBT,YES,2,NO,R,Pounds,0,74,0,0,0,0,0,0,0,0,0,0,74,0,0,0,0,0,0,0,0,0,0,0,0,0,0,0,0,0,0,0,0,0,0,0,0,0,0,0,0,0,0,0,0,0,0,0,0,0,74,0,0,0,0,0,0,0,0,0,0,0,0,0,,SHERWIN-WILLIAMS CO,004206397
1988,12546KFFLSROUTE,KEUFFEL & ESSER CO. TACONIC PLANT,RTE. 22,MILLERTON,DUTCHESS,NY,12546,41.95591,-73.517032,3861,,,,,,325992,,,,,,1388025608112,METHYL ETHYL KETONE,000078933,NO,NON-PBT,NO,0,NO,R,Pounds,13200,21455,0,0,0,0,0,0,0,0,0,0,34655,0,0,0,0,0,0,0,0,0,0,0,0,0,0,0,0,0,0,0,0,0,0,0,0,0,0,0,0,0,0,0,37950,0,0,0,0,37950,34655,0,0,0,0,0,0,0,0,0,0,0,0,0,,AZON CORP,032303604
1988,14204MRLTT2929M,KEYSTONE CORP.,2929 MAIN ST.,BUFFALO,ERIE,NY,14214,42.945638,-78.832061,3471,,,,,,332813,,,,,,1388025588486,"HYDROCHLORIC ACID (1995 AND AFTER ""ACID AEROSOLS"" ONLY)",007647010,YES,NON-PBT,NO,0,NO,R,Pounds,0,0,0,0,0,0,0,0,0,0,0,0,0,0,0,0,0,0,0,0,0,0,0,0,0,0,0,0,0,0,0,0,0,0,0,0,0,0,0,0,0,0,0,0,0,0,0,0,0,0,0,0,0,0,0,0,0,0,0,0,0,0,0,0,,NA,NA
1988,14303LXCRP3943B,K-C DIVESTITURE CORP.,3943 BUFFALO AV,NIAGARA FALLS,NIAGARA,NY,143032136,43.081657,-79.015696,2992,,,,,,324191,,,,,,1388025653080,SODIUM HYDROXIDE (SOLUTION),001310732,NO,NON-PBT,NO,0,NO,R,Pounds,0,0,0,0,0,0,0,0,0,0,0,0,0,0,22421,22421,0,0,0,0,0,0,0,0,0,0,0,0,0,0,0,0,0,0,0,0,0,0,0,0,0,0,0,0,0,0,0,0,0,0,0,0,0,0,0,0,0,0,0,0,0,0,0,0,,RPM INC,004155651
1988,11237NTNMC1226F,ANTON MACHINE WORKS INC.,1226 FLUSHING AVE.,BROOKLYN,KINGS,NY,11237,40.70739,-73.92419,INVA,,,,,,332813,,,,,,1388025740034,CYANIDE COMPOUNDS,N106,YES,NON-PBT,NO,0,NO,R,Pounds,0,0,0,0,0,0,0,0,0,0,0,0,0,0,0,0,0,0,0,0,0,0,0,0,0,0,0,0,0,0,0,0,0,0,0,0,0,0,0,0,0,0,0,0,0,0,0,0,0,0,0,0,0,0,0,0,0,0,0,0,0,0,0,0,,NA,NA
1988,14608RGFDS1680L,VAN DEN BERGH FOODS CO.,1680 LYELL AVE.,ROCHESTER,MONROE,NY,14606,43.16467,-77.670282,2032,,,,,,311000,,,,,,1388025732797,NITRIC ACID,007697372,NO,NON-PBT,NO,0,NO,R,Pounds,0,0,0,0,0,0,0,0,0,0,0,0,0,0,25279,25279,0,0,0,0,0,0,0,0,0,0,0,0,0,0,0,0,0,0,0,0,0,0,0,0,0,0,0,0,0,0,0,0,0,0,0,0,0,0,0,0,0,0,0,0,0,0,0,0,,UNILEVER,002216638
1988,13413SPCLMMIDDL,SPECIAL METALS CORP,4317 MIDDLE SETTLEMENT RD,NEW HARTFORD,ONEIDA,NY,13413,43.07675,-75.34375,3313,,,,,,331112,,,,,,1388025770823,ALUMINUM OXIDE (FIBROUS FORMS),001344281,NO,NON-PBT,YES,2,NO,R,Pounds,0,250,0,0,0,0,0,0,0,0,0,0,250,0,0,0,0,0,0,0,0,0,0,0,0,0,0,0,0,0,0,0,0,0,0,0,0,0,0,0,0,0,0,0,0,0,0,0,0,0,250,0,0,0,0,0,0,0,0,0,0,0,0,0,,PRECISION CASTPARTS CORP,002241669
1988,13365MPRFBRIVER,EMPIRE FIBERGLASS PRODUCTS INC,RIVERSIDE INDUSTRIAL PARK,LITTLE FALLS,HERKIMER,NY,13365,43.041111,-74.852778,3089,,,,,,326199,,,,,,1388025767967,ACETONE,000067641,NO,NON-PBT,NO,0,NO,R,Pounds,20000,0,0,0,0,0,0,0,0,0,0,0,20000,0,0,0,0,0,0,0,0,0,0,0,0,0,0,0,0,0,0,0,0,0,0,0,0,0,0,0,0,0,0,0,0,0,0,0,0,0,20000,0,0,0,0,0,0,0,0,0,0,0,0,0,,NA,NA
1988,11215KNTLF58SEC,KENTILE FLOORS INC.,58 2ND AVE.,BROOKLYN,KINGS,NY,11215,40.6732,-73.99287,3089,,,,,,326199,,,,,,1388025772738,BUTYL BENZYL PHTHALATE,000085687,NO,NON-PBT,NO,0,NO,R,Pounds,10,905,0,0,0,0,0,0,0,0,0,0,915,0,0,0,0,0,0,0,0,0,0,0,0,0,0,0,0,0,0,0,0,0,0,0,0,0,0,0,0,0,0,0,0,0,0,0,0,0,915,0,0,0,0,0,0,0,0,0,0,0,0,0,,KENTILE FLOORS INC,001496124
1988,14227RCRP 3695B,ARO CORP. LIFE SUPPORT PROD. DIV.,3695 BROADWAY,BUFFALO,ERIE,NY,14227,42.90393,-78.740922,3728,,,,,,336413,,,,,,1388025894155,FREON 113,000076131,NO,NON-PBT,NO,0,NO,R,Pounds,11000,0,0,0,0,0,0,0,0,0,0,0,11000,0,0,0,0,0,0,0,0,0,0,0,0,0,0,0,0,0,0,0,0,0,0,0,0,0,0,0,0,0,0,0,0,0,0,0,0,0,11000,0,0,0,0,0,0,0,0,0,0,0,0,0,,TODD SHIPYARDS CORP,009206087
1988,13790NDCTTLESTE,ENDICOTT JOHNSON CORP. PARACORD/SUNRISE,LESTER AVE. E.S.,JOHNSON CITY,BROOME,NY,13790,42.114296,-75.950119,3021,,,,,,316211,,,,,,1388025914110,"1,1,1-TRICHLOROETHANE",000071556,YES,NON-PBT,NO,0,NO,R,Pounds,0,12200,0,0,0,0,0,0,0,0,0,0,12200,0,0,0,0,0,0,0,0,0,0,0,0,0,0,0,0,0,0,0,0,0,0,0,0,0,0,0,0,0,0,0,0,0,0,0,0,0,12200,0,0,0,0,0,0,0,0,0,0,0,0,0,,HM HOLDINGS INC,119219871
1988,14207MRLTT25RAN,MARLETTE NATIONAL CORP,25 RANO ST,BUFFALO,ERIE,NY,14207,42.947364,-78.901066,3471,,,,,,332813,,,,,,1388025593892,"HYDROCHLORIC ACID (1995 AND AFTER ""ACID AEROSOLS"" ONLY)",007647010,YES,NON-PBT,NO,0,NO,R,Pounds,0,1430,0,0,0,0,0,0,0,0,0,0,1430,0,0,0,0,0,0,0,0,0,0,0,0,0,0,0,0,0,0,0,0,0,0,0,0,0,0,0,0,0,0,0,0,0,0,0,0,0,1430,0,0,0,0,0,0,0,0,0,0,0,0,0,,NA,NA
1988,12834HLLNGROUTE,GREENWICH MILL,2322 STATE RD RT 29,GREENWICH,WASHINGTON,NY,12834,43.096972,-73.460139,2621,,,,,,322121,,,,,,1388025570185,SODIUM HYDROXIDE (SOLUTION),001310732,NO,NON-PBT,NO,0,NO,R,Pounds,0,250,0,0,0,0,0,0,0,0,0,0,250,0,0,0,0,0,0,0,0,0,0,0,0,0,0,0,0,0,0,0,0,0,0,0,0,0,0,0,0,0,0,0,0,0,0,0,0,0,250,0,0,0,0,0,0,0,0,0,0,0,0,0,,NA,NA
1988,14215WNFLD33CLA,FENNER PRECISION,33 CLARENCE AVE,BUFFALO,ERIE,NY,14215,42.934252,-78.822814,3079,,,,,,326199,,,,,,1388025574359,TRICHLOROETHYLENE,000079016,YES,NON-PBT,NO,0,YES,R,Pounds,0,14619,0,0,0,0,0,0,0,0,0,0,14619,0,0,0,0,0,0,0,0,0,0,0,0,0,0,0,0,0,0,0,0,0,0,0,0,0,0,0,0,0,0,0,61,0,0,0,0,61,14619,0,0,0,0,0,0,0,0,0,0,0,0,0,,NA,NA
1988,11705DWNBS900SY,STIMPSON CO INC,900 SYLVAN AVE,BAYPORT,SUFFOLK,NY,11705,40.767123,-73.049355,3469,,,,,,339993,,,,,,1388025663889,"SULFURIC ACID (1994 AND AFTER ""ACID AEROSOLS"" ONLY)",007664939,NO,NON-PBT,NO,0,NO,R,Pounds,250,250,0,0,0,0,0,0,0,0,0,0,500,0,0,0,0,0,0,0,0,0,0,0,0,0,0,0,0,0,0,0,0,0,0,0,0,0,0,0,0,0,0,0,0,0,4700,0,0,4700,500,0,0,0,0,0,0,0,0,0,0,0,0,0,,NA,NA
1988,11590PRKNL1101P,SULZER METCO (US) INC,1101 PROSPECT AVE,WESTBURY,NASSAU,NY,11590,40.763435,-73.555514,3542,,,,,,332117,,,,,,1388025658853,CHROMIUM,007440473,YES,NON-PBT,YES,1,YES,R,Pounds,0,0,0,0,0,0,0,0,0,0,0,0,0,0,0,0,0,0,0,0,0,0,0,0,0,0,0,0,0,0,0,0,0,0,0,0,0,0,0,0,0,0,0,0,0,0,0,0,0,0,0,0,0,0,0,0,0,0,0,0,0,0,0,0,,SULZER US INDUSTRIES HOLDING INC,001826957
1988,14470DZCHM40JAC,DIAZ CHEMICAL CORP,40 JACKSON ST,HOLLEY,ORLEANS,NY,14470,43.22294,-78.02927,2865,,,,,,325100,,,,,,1388025656164,M-CRESOL,000108394,YES,NON-PBT,NO,0,NO,R,Pounds,0,50,0,0,0,0,0,0,0,0,0,0,50,0,9,9,0,0,0,0,0,0,0,0,0,0,0,0,0,0,0,0,0,0,0,0,0,0,0,0,0,0,0,0,74000,0,31000,0,0,105000,50,0,0,0,0,0,0,0,0,0,0,0,0,0,,NA,NA
1988,13350HMQCK220PR,HM QUACKENBUSH INC,220 N PROSPECT ST,HERKIMER,HERKIMER,NY,13350,43.026129,-74.988794,3471,3429,,,,,332813,,,,,,1388025716299,"SULFURIC ACID (1994 AND AFTER ""ACID AEROSOLS"" ONLY)",007664939,NO,NON-PBT,NO,0,NO,R,Pounds,250,800,0,0,0,0,0,0,0,0,0,0,1050,0,0,0,0,0,0,0,0,0,0,0,0,0,0,0,0,0,0,0,0,0,0,0,0,0,0,0,0,0,0,0,0,0,0,0,0,0,1050,0,0,0,0,0,0,0,0,0,0,0,0,0,,NA,NA
1988,13760BM   1701N,IBM CORP,1701 NORTH ST,ENDICOTT,BROOME,NY,13760,42.106306,-76.043889,3471,3573,3679,7391,,,334000,,,,,,1388025680719,FORMALDEHYDE,000050000,YES,NON-PBT,NO,0,YES,R,Pounds,250,11000,250,0,0,0,0,0,0,0,0,0,11500,0,0,0,0,0,0,0,0,0,250,0,0,0,0,0,0,0,0,0,0,250,0,0,0,0,0,0,0,0,0,0,0,0,5750,0,0,5750,11750,0,0,0,0,0,0,0,0,0,0,0,0,0,,IBM CORP,001368083
1988,11210BLNDZ984E3,ABLE ANODIZING CORP,984 E 35TH ST,BROOKLYN,KINGS,NY,11210,40.6306,-73.9431,3471,,,,,,332813,,,,,,1388025809068,PHOSPHORIC ACID,007664382,NO,NON-PBT,NO,0,NO,R,Pounds,250,250,750,0,0,0,0,0,0,0,0,0,1250,0,750,750,0,0,0,0,0,0,0,0,0,0,0,0,0,0,0,0,0,0,0,0,0,0,0,0,0,0,0,0,0,0,0,0,0,0,1250,0,0,0,0,0,0,0,0,0,0,0,0,0,,NA,NA
1988,14692GLSNW1000U,GLEASON WORKS,1000 UNIVERSITY AVE,ROCHESTER,MONROE,NY,146071239,43.154308,-77.575614,3541,,,,,,333512,,,,,,1388025786310,TOLUENE,000108883,YES,NON-PBT,NO,0,NO,R,Pounds,0,25064,0,0,0,0,0,0,0,0,0,0,25064,0,0,0,0,0,0,0,0,0,0,0,0,0,0,0,0,0,0,0,0,0,0,0,0,0,0,0,0,0,0,0,1407,0,0,0,0,1407,25064,0,0,0,0,0,0,0,0,0,0,0,0,0,,GLEASON CORP,118789825
1988,13021PWRXNWESTG,POWEREX INC.,WEST GENESEE RD.,AUBURN,CAYUGA,NY,130210617,42.91989,-76.596267,3674,,,,,,334413,,,,,,1388025519315,NITRIC ACID,007697372,NO,NON-PBT,NO,0,NO,R,Pounds,0,10576,0,0,0,0,0,0,0,0,0,0,10576,0,0,0,0,0,0,0,0,0,0,0,0,0,0,0,0,0,0,0,0,0,0,0,0,0,0,0,0,0,0,0,0,0,0,0,0,0,10576,0,0,0,0,0,0,0,0,0,0,0,0,0,,POWEREX INC,148719625
1988,12804CBGGYLOWER,CIBA-GEIGY PRETREATMENT PLANT,LOWER WARREN ST.,QUEENSBURY,WARREN,NY,12804,43.3109,-73.60766,2816,,,,,,325100,,,,,,1388025678475,BARIUM COMPOUNDS,N040,NO,NON-PBT,YES,3,NO,R,Pounds,250,250,0,0,0,0,0,0,0,0,0,0,500,0,0,0,0,0,0,0,0,0,1900,0,0,0,0,0,0,0,0,0,0,63600,0,0,0,0,0,0,0,0,0,0,0,0,61700,0,0,0,64100,0,0,0,0,0,0,0,0,0,0,0,0,0,,CIBA GEIGY CORP,001221845
1988,12804CBGGYLOWER,CIBA-GEIGY PRETREATMENT PLANT,LOWER WARREN ST.,QUEENSBURY,WARREN,NY,12804,43.3109,-73.60766,2816,,,,,,325100,,,,,,1388025678549,"SULFURIC ACID (1994 AND AFTER ""ACID AEROSOLS"" ONLY)",007664939,NO,NON-PBT,NO,0,NO,R,Pounds,250,250,0,0,0,0,0,0,0,0,0,0,500,0,0,0,0,0,0,0,0,0,0,0,0,0,0,0,0,0,0,0,0,0,0,0,0,0,0,0,0,0,0,0,0,0,15500000,0,0,15500000,500,0,0,0,0,0,0,0,0,0,0,0,0,0,,CIBA GEIGY CORP,001221845
1988,13753DLTWNROUTE,FRIESLAND CAMPINA,40196 STATE HWY 10,DELHI,DELAWARE,NY,13753,42.243464,-74.963904,2023,,,,,,311514,,,,,,1388025722493,PHOSPHORIC ACID,007664382,NO,NON-PBT,NO,0,NO,R,Pounds,0,0,0,0,0,0,0,0,0,0,0,0,0,0,0,0,0,0,0,0,0,0,0,0,0,0,0,0,0,0,0,0,0,0,0,0,0,0,0,0,0,0,0,0,0,0,0,0,0,0,0,0,0,0,0,0,0,0,0,0,0,0,0,0,,NA,NA
1988,14206BFFLB147BU,BUFFALO BUMPER EXCHANGE,147 BUSHNELL AVE,BUFFALO,ERIE,NY,14206,42.876482,-78.828772,3471,,,,,,332813,,,,,,1388025702402,"HYDROCHLORIC ACID (1995 AND AFTER ""ACID AEROSOLS"" ONLY)",007647010,YES,NON-PBT,NO,0,NO,R,Pounds,0,0,0,0,0,0,0,0,0,0,0,0,0,0,0,0,0,0,0,0,0,0,0,0,0,0,0,0,0,0,0,0,0,0,0,0,0,0,0,0,0,0,0,0,0,0,0,0,0,0,0,0,0,0,0,0,0,0,0,0,0,0,0,0,,MARLETTE NATL CORP,002113975
1988,10980LGHTNINDUS,LIGHTING SERVICES INC.,2 KAY FRIES DR.,STONY POINT,ROCKLAND,NY,10980,41.21618,-73.98643,3646,,,,,,335122,,,,,,1388025766700,"1,1,1-TRICHLOROETHANE",000071556,YES,NON-PBT,NO,0,NO,R,Pounds,0,0,0,0,0,0,0,0,0,0,0,0,0,0,0,0,0,0,0,0,0,0,0,0,0,0,0,0,0,0,0,0,0,0,0,0,0,0,0,0,0,0,0,0,0,0,0,0,0,0,0,0,0,0,0,0,0,0,0,0,0,0,0,0,,NA,NA
1988,13413SPCLMMIDDL,SPECIAL METALS CORP,4317 MIDDLE SETTLEMENT RD,NEW HARTFORD,ONEIDA,NY,13413,43.07675,-75.34375,3313,,,,,,331112,,,,,,1388025859873,"SULFURIC ACID (1994 AND AFTER ""ACID AEROSOLS"" ONLY)",007664939,NO,NON-PBT,NO,0,NO,R,Pounds,0,250,0,0,0,0,0,0,0,0,0,0,250,0,814,814,0,0,0,0,0,0,0,0,0,0,0,0,0,0,0,0,0,0,0,0,0,0,0,0,0,0,0,0,0,0,11685,0,0,11685,250,0,0,0,0,0,0,0,0,0,0,0,0,0,,PRECISION CASTPARTS CORP,002241669
1988,14120BFFLP874OL,BUFFALO PUMPS INC,874 OLIVER ST,NORTH TONAWANDA,NIAGARA,NY,141203298,43.04541,-78.88348,3561,,,,,,333911,,,,,,1388025824172,ACETONE,000067641,NO,NON-PBT,NO,0,NO,R,Pounds,0,250,0,0,0,0,0,0,0,0,0,0,250,0,0,0,0,0,0,0,0,0,0,0,0,0,0,0,0,0,0,0,0,0,0,0,0,0,0,0,0,0,0,0,250,0,0,0,0,250,250,0,0,0,0,0,0,0,0,0,0,0,0,0,,AMPCO-PITTSBURG CORP,004327876
1988,10509LYBLDMTEBO,LEYBOLD INC,MT. EBO CORPORATE CENTER,BREWSTER,PUTNAM,NY,10509,41.39733,-73.6031,3561,,,,,,333911,,,,,,1388025560273,FREON 113,000076131,NO,NON-PBT,NO,0,NO,R,Pounds,23500,0,0,0,0,0,0,0,0,0,0,0,23500,0,0,0,0,0,0,0,0,0,0,0,0,0,0,0,0,0,0,0,0,0,0,0,0,0,0,0,0,0,0,0,0,0,0,0,0,0,23500,0,0,0,0,0,0,0,0,0,0,0,0,0,,NA,NA
1988,12602BMCRPSOUTH,IBM CORP,2455 S RD,POUGHKEEPSIE,DUTCHESS,NY,126015400,41.650167,-73.944111,3571,,,,,,334111,,,,,,1388025568864,SODIUM HYDROXIDE (SOLUTION),001310732,NO,NON-PBT,NO,0,NO,R,Pounds,70,210,0,0,0,0,0,0,0,0,0,0,280,0,0,0,0,0,0,0,0,0,40,0,0,0,0,0,0,0,0,0,0,40,0,0,0,0,0,0,0,0,0,0,0,0,0,2830,0,2830,320,0,0,0,0,0,0,0,0,0,0,0,0,0,,IBM CORP,001368083
1988,12834HLLNGCOUNT,EASTON MILL,3235 COUNTY RT 113,GREENWICH,WASHINGTON,NY,12834,43.114222,-73.569556,2621,,,,,,322121,,,,,,1388025568926,"HYDROCHLORIC ACID (1995 AND AFTER ""ACID AEROSOLS"" ONLY)",007647010,YES,NON-PBT,NO,0,NO,R,Pounds,0,8500,0,0,0,0,0,0,0,0,0,0,8500,0,0,0,0,0,0,0,0,0,0,0,0,0,0,0,0,0,0,0,0,0,0,0,0,0,0,0,0,0,0,0,0,0,0,0,0,0,8500,0,0,0,0,0,0,0,0,0,0,0,0,0,,NA,NA
1988,13142SCHLLCENTE,FELIX SCHOELLER TECHNICAL PAPERS INC,179 COUNTY RT 2A,PULASKI,OSWEGO,NY,13142,43.558111,-76.1045,2621,,,,,,322121,,,,,,1388025645110,METHANOL,000067561,YES,NON-PBT,NO,0,NO,R,Pounds,20000,353100,69500,0,0,0,0,0,0,0,0,0,442600,0,0,0,0,0,0,0,0,0,0,0,0,0,0,0,0,0,0,0,0,0,0,0,0,0,0,0,0,0,0,0,0,0,0,0,0,0,442600,0,0,0,0,0,0,0,0,0,0,0,0,0,,NA,NA
1988,14738SGKYWFALCO,KEYWELL L.L.C. VAC AIR DIV,300 FALCONER ST,FREWSBURG,CHAUTAUQUA,NY,14738,42.068361,-79.157056,INVA,,,,,,331000,,,,,,1388025780216,CHROMIUM,007440473,YES,NON-PBT,YES,1,YES,R,Pounds,0,0,0,0,0,0,0,0,0,0,0,0,0,0,0,0,0,0,0,0,0,0,0,0,0,0,0,0,0,0,0,0,0,0,0,0,0,0,0,0,0,0,0,0,0,0,0,0,0,0,0,0,0,0,0,0,0,0,0,0,0,0,0,0,,KEYWELL CORP,382653724
1988,11520LRNLN272BU,ROHM & HAAS ELECTRONIC MATERIALS LLC,272 BUFFALO AVE,FREEPORT,NASSAU,NY,11520,40.648539,-73.569736,INVA,,,,,,325188,,,,,,1388025763739,"HYDROCHLORIC ACID (1995 AND AFTER ""ACID AEROSOLS"" ONLY)",007647010,YES,NON-PBT,NO,0,NO,R,Pounds,0,4,0,0,0,0,0,0,0,0,0,0,4,0,0,0,0,0,0,0,0,0,0,0,0,0,0,0,0,0,0,0,0,0,0,0,0,0,0,0,0,0,0,0,0,0,0,0,0,0,4,0,0,0,0,0,0,0,0,0,0,0,0,0,,ROHM & HAAS CO,002292043
1988,11101QNSPL36163,QUEENS PLATING CO. INC.,36-16 37TH ST.,LONG ISLAND CITY,QUEENS,NY,11101,40.754027,-73.925213,3471,,,,,,332813,,,,,,1388025863224,"SULFURIC ACID (1994 AND AFTER ""ACID AEROSOLS"" ONLY)",007664939,NO,NON-PBT,NO,0,NO,R,Pounds,250,250,0,0,0,0,0,0,0,0,0,0,500,0,0,0,0,0,0,0,0,0,0,0,0,0,0,0,0,0,0,0,0,0,0,0,0,0,0,0,0,0,0,0,0,0,0,0,0,0,500,0,0,0,0,0,0,0,0,0,0,0,0,0,,NA,NA
1988,13905HTTCH67CLI,E H TITCHENER & CO,67 CLINTON ST,BINGHAMTON,BROOME,NY,13905,42.104645,-75.920844,3496,3471,3469,,,,332618,,,,,,1388025581618,CHROMIUM,007440473,YES,NON-PBT,YES,1,YES,R,Pounds,0,250,0,0,0,0,0,0,0,0,0,750,1000,250,0,250,0,0,0,0,0,0,0,0,0,0,0,0,0,0,0,0,0,750,0,0,0,0,0,0,0,0,0,750,0,0,0,0,0,0,2000,0,0,0,0,0,0,0,0,0,0,0,0,0,,NA,NA
1988,14613PHTCH1000D,PHOTECH IMAGING SYSTEMS INC,1000 DRIVING PARK AVE.,ROCHESTER,MONROE,NY,14613,43.185323,-77.656187,3861,,,,,,325992,,,,,,1388025681471,SILVER COMPOUNDS,N740,NO,NON-PBT,YES,1,NO,R,Pounds,0,0,0,0,0,0,0,0,0,0,0,0,0,262,0,262,0,0,0,0,0,0,0,0,0,0,0,0,0,0,0,0,0,0,0,0,0,0,0,0,0,0,0,0,0,0,0,0,0,0,262,0,0,0,0,0,0,0,0,0,0,0,0,0,,RHOTECH IMAGING SYS INC,006894054
1988,14424LBLNC10CHA,LABELON CORP.,10 CHAPIN ST.,CANANDAIGUA,ONTARIO,NY,14424,42.886881,-77.281293,2641,,,,,,322222,,,,,,1388025781966,ACETONE,000067641,NO,NON-PBT,NO,0,NO,R,Pounds,0,79020,0,0,0,0,0,0,0,0,0,0,79020,0,0,0,0,0,0,0,0,0,0,0,0,0,0,0,0,0,0,0,0,0,0,0,0,0,0,0,0,0,0,0,7877,0,0,0,0,7877,79020,0,0,0,0,0,0,0,0,0,0,0,0,0,,NA,NA
1988,14302SBFLX47THS,ESAB GROUP INC.,47TH & SIMMONS,NIAGARA FALLS,NIAGARA,NY,14303,43.09,-79.008888,3313,,,,,,331112,,,,,,1388025908094,MANGANESE COMPOUNDS,N450,YES,NON-PBT,YES,1,NO,R,Pounds,250,9651,250,0,0,0,0,0,0,0,0,0,10151,0,0,0,0,0,0,0,0,0,22844,0,0,0,0,0,0,0,0,0,0,22844,0,0,0,0,0,0,0,0,0,0,0,0,0,0,0,0,32995,0,0,0,0,0,0,0,0,0,0,0,0,0,,THE ESAB GROUP INC,131456113
