REPORTING YEAR	TRADE SECRET INDICATOR	TRIFID	FACILITY NAME	FACILITY STREET	FACILITY CITY	FACILITY COUNTY	FACILITY STATE	FACILITY ZIP CODE	ENTIRE FACILITY IND	PARTIAL FACILITY IND	FEDERAL FACILITY IND	GOCO FACILITY FLAG	PRIMARY SIC CODE	SIC CODE 2	SIC CODE 3	SIC CODE 4	SIC CODE 5	SIC CODE 6	NAICS ORIGIN	PRIMARY NAICS CODE	NAICS CODE 2	NAICS CODE 3	NAICS CODE 4	NAICS CODE 5	NAICS CODE 6	LATITUDE	LONGITUDE	DB NR A	DB NR B	RCRA NR A	RCRA NR B	NPDES NR A	NPDES NR B	UIC NR A	UIC NR B	PARENT COMPANY NAME	PARENT COMPANY DB NR	DOCUMENT CONTROL NUMBER	CAS NUMBER	CHEMICAL NAME	CLASSIFICATION	UNIT OF MEASURE	DIOXIN DISTRIBUTION 1	DIOXIN DISTRIBUTION 2	DIOXIN DISTRIBUTION 3	DIOXIN DISTRIBUTION 4	DIOXIN DISTRIBUTION 5	DIOXIN DISTRIBUTION 6	DIOXIN DISTRIBUTION 7	DIOXIN DISTRIBUTION 8	DIOXIN DISTRIBUTION 9	DIOXIN DISTRIBUTION 10	DIOXIN DISTRIBUTION 11	DIOXIN DISTRIBUTION 12	DIOXIN DISTRIBUTION 13	DIOXIN DISTRIBUTION 14	DIOXIN DISTRIBUTION 15	DIOXIN DISTRIBUTION 16	DIOXIN DISTRIBUTION 17	STREAM 1 - WASTE STREAM CODE	STREAM 1 - TRTMT METHOD -  SEQUENCE 1	STREAM 1 - TRTMT METHOD -  SEQUENCE 2	STREAM 1 - TRTMT METHOD -  SEQUENCE 3	STREAM 1  -TRTMT METHOD -  SEQUENCE 4	STREAM 1 - TRTMT METHOD -  SEQUENCE 5	STREAM 1 - TRTMT METHOD -  SEQUENCE 6	STREAM 1 - TRTMT METHOD -  SEQUENCE 7	STREAM 1 - TRTMT METHOD -  SEQUENCE 8	STREAM 1 - RANGE INFLUENT CONCENT	STREAM 1 - TRTMT EFFICIENCY EST	STREAM 1 - BASED ON OPERATING DATA?	STREAM 2 - WASTE STREAM CODE	STREAM 2 - TRTMT METHOD -  SEQUENCE 1	STREAM 2 - TRTMT METHOD -  SEQUENCE 2	STREAM 2 - TRTMT METHOD -  SEQUENCE 3	STREAM 2  -TRTMT METHOD -  SEQUENCE 4	STREAM 2 - TRTMT METHOD -  SEQUENCE 5	STREAM 2 - TRTMT METHOD -  SEQUENCE 6	STREAM 2 - TRTMT METHOD -  SEQUENCE 7	STREAM 2 - TRTMT METHOD -  SEQUENCE 8	STREAM 2 - RANGE INFLUENT CONCENT	STREAM 2 - TRTMT EFFICIENCY EST	STREAM 2 - BASED ON OPERATING DATA?	STREAM 3 - WASTE STREAM CODE	STREAM 3 - TRTMT METHOD -  SEQUENCE 1	STREAM 3 - TRTMT METHOD -  SEQUENCE 2	STREAM 3 - TRTMT METHOD -  SEQUENCE 3	STREAM 3  -TRTMT METHOD -  SEQUENCE 4	STREAM 3 - TRTMT METHOD -  SEQUENCE 5	STREAM 3 - TRTMT METHOD -  SEQUENCE 6	STREAM 3 - TRTMT METHOD -  SEQUENCE 7	STREAM 3 - TRTMT METHOD -  SEQUENCE 8	STREAM 3 - RANGE INFLUENT CONCENT	STREAM 3 - TRTMT EFFICIENCY EST	STREAM 3 - BASED ON OPERATING DATA?	STREAM 4 - WASTE STREAM CODE	STREAM 4 - TRTMT METHOD -  SEQUENCE 1	STREAM 4 - TRTMT METHOD -  SEQUENCE 2	STREAM 4 - TRTMT METHOD -  SEQUENCE 3	STREAM 4  -TRTMT METHOD -  SEQUENCE 4	STREAM 4 - TRTMT METHOD -  SEQUENCE 5	STREAM 4 - TRTMT METHOD -  SEQUENCE 6	STREAM 4 - TRTMT METHOD -  SEQUENCE 7	STREAM 4 - TRTMT METHOD -  SEQUENCE 8	STREAM 4 - RANGE INFLUENT CONCENT	STREAM 4 - TRTMT EFFICIENCY EST	STREAM 4 - BASED ON OPERATING DATA?	STREAM 5 - WASTE STREAM CODE	STREAM 5 - TRTMT METHOD -  SEQUENCE 1	STREAM 5 - TRTMT METHOD -  SEQUENCE 2	STREAM 5 - TRTMT METHOD -  SEQUENCE 3	STREAM 5  -TRTMT METHOD -  SEQUENCE 4	STREAM 5 - TRTMT METHOD -  SEQUENCE 5	STREAM 5 - TRTMT METHOD -  SEQUENCE 6	STREAM 5 - TRTMT METHOD -  SEQUENCE 7	STREAM 5 - TRTMT METHOD -  SEQUENCE 8	STREAM 5 - RANGE INFLUENT CONCENT	STREAM 5 - TRTMT EFFICIENCY EST	STREAM 5 - BASED ON OPERATING DATA	ASSIGNED FED. FACILITY FLAG	PUBLIC CONTACT EMAIL	REVISION CODE 1	REVISION CODE 2	METAL INDICATOR	20-NOV-13	
2012	NO	4817WTLSTB1311E	ATLAS TUBE- PLYMOUTH PLANT	13101 ECKLES RD	PLYMOUTH	WAYNE	MI	48170	YES	NO	NO	NO								331210	332312					42.37988	-83.43116									JMC STEEL GROUP		1312210235812	007439965	MANGANESE	TRI	Pounds																		NA									N 																																																			NO	KIMBERLY.HAWKINS@JMCSTEEL.COM			YES	 	
2012	NO	48150MCGNR38521	MCGEAN-ROHCO INC	38521 SCHOOLCRAFT AVE	LIVONIA	WAYNE	MI	48150	YES	NO	NO	NO								325998						42.381533	-83.422822	069820181								MCGEAN-ROHCO INC	071112593	1312210281667	N090	CHROMIUM COMPOUNDS(EXCEPT CHROMITE ORE MINED IN THE TRANSVAAL REGION)	TRI	Pounds																		W	H071	H121	H123						N 	E4																																																		NO	TOM.EDMUNDS@MCGEAN.COM			YES	 	
2012	NO	48150MCGNR38521	MCGEAN-ROHCO INC	38521 SCHOOLCRAFT AVE	LIVONIA	WAYNE	MI	48150	YES	NO	NO	NO								325998						42.381533	-83.422822	069820181								MCGEAN-ROHCO INC	071112593	1312210281782	N511	NITRATE COMPOUNDS	TRI	Pounds																		NA									N 																																																			NO	TOM.EDMUNDS@MCGEAN.COM			NO	 	
2012	NO	48184FRDMT38303	FORD MOTOR CO MICHIGAN ASSEMBLY PLANT	38303 MICHIGAN AVE	WAYNE	WAYNE	MI	48184	YES	NO	NO	NO								336112						42.26666	-83.4	120551403								FORD MOTOR CO	001344746	1312210292165	007440508	COPPER	TRI	Pounds																		NA									N 																																																			NO	JNOWAK2@FORD.COM			YES	 	
2012	NO	49727STJRD301SP	EAST JORDAN FOUNDRY	301 SPRING ST	EAST JORDAN	CHARLEVOIX	MI	49727	YES	NO	NO	NO								331511						45.1587	-85.1292	006020309								EAST JORDAN IRON WORKS INC (DBA EJ USA INC.)	006020309	1312210417438	N120	DIISOCYANATES	TRI	Pounds																																																																														NO	TRACY.MALPASS@EJCO.COM			NO	 	
2012	NO	48066HFLYM15500	GLOBAL ROLLFORMING SYSTEMS	15500 12 MILE RD	ROSEVILLE	MACOMB	MI	48066	YES	NO	NO	NO								336399						42.508737	-82.964896	789000473								GLOBAL AUTOMOTIVE SYSTEMS	614897440	1312210373116	007440473	CHROMIUM	TRI	Pounds																		NA									N 																																																			NO	KEVIN.MEGER@GLOBALAUTOSYS.COM			YES	 	
2012	NO	4866WSTYRN164BU	STYRON LLC - MI OPERATIONS	1604 BUILDING	MIDLAND	MIDLAND	MI	48667	YES	NO	NO	NO								325211						43.617297	-84.200045	833167310								STYRON LLC	833167310	1312210147599	000141322	BUTYL ACRYLATE	TRI	Pounds																		A	A01								N 	E4																																																		NO	JNSCOTT@STYRON.COM			NO	 	
2012	NO	48212CNTNN7500E	HOOVER TREATED WOOD PRODUCTS INC	7500 E DAVISON AVE	DETROIT	WAYNE	MI	48212	YES	NO	NO	NO								321999	321114					42.42337	-83.026032	108643479								HOOVER WOOD PRODUCTS HOLDING INC		1312210066015	N090	CHROMIUM COMPOUNDS(EXCEPT CHROMITE ORE MINED IN THE TRANSVAAL REGION)	TRI	Pounds																																																																														NO	REDMONDSON@FRTW.COM			YES	 	
2012	NO	48077STRLN38111	CHRYSLER STERLING HEIGHTS ASSEMBLY PLANT	38111 VAN DYKE	STERLING HEIGHTS	MACOMB	MI	48312	YES	NO	NO	NO								336111						42.57361	-83.02969	108426180								CHRYSLER GROUP LLC	830966904	1312210367557	N120	DIISOCYANATES	TRI	Pounds																		A	A06								N 	E4																																																		NO				NO	 	
2012	NO	48139PRGRS10850	PROGRESSIVE METAL FORMING INC	10850 HALL RD	HAMBURG	LIVINGSTON	MI	48139	YES	NO	NO	NO								332116						42.44694	-83.79416	005498423										1312210851515	007440473	CHROMIUM	TRI	Pounds																		NA									N 																																																			NO	THERESA@PMFDRAW.COM			YES	 	
2012	NO	4950WGRSPR76BND	GR SPRING & STAMPING INC	706 BOND AVE NW	GRAND RAPIDS	KENT	MI	49503	YES	NO	NO	NO								336370						42.975236	-85.671412									HZ INDUSTRIES	006018311	1312210558538	007440508	COPPER	TRI	Pounds																		NA									N 																																																			NO	JENNIFERROBINSON@GRS-S.COM			YES	 	
2012	NO	48218SCKBT14ZUG	EES COKE BATTERY LLC	1400 ZUG ISLAND	RIVER ROUGE	WAYNE	MI	48218	YES	NO	NO	NO								324199						42.29	-83.11	876235490								DTE ENERGY CO	839329158	1312210774598	000074851	ETHYLENE	TRI	Pounds																		NA									N 																																																			NO				NO	 	
2012	NO	48458FLNTMG6065	MARATHON PETROLEUM CO - FLINT MI TERMINAL	G-6065 N DORT HWY	MOUNT MORRIS	GENESEE	MI	48458	YES	NO	NO	NO								424710						43.091667	-83.675	124826517								MARATHON PETROLEUM CORP	968393996	1312210400848	000110543	N-HEXANE	TRI	Pounds																		NA									N 																																																			NO	WGMOORE@MARATHONPETROLEUM.COM			NO	 	
2012	NO	49090WYCKF1421K	ALBEMARLE INC	1421 KALAMAZOO ST	SOUTH HAVEN	VAN BUREN	MI	49090	YES	NO	NO	NO								325411						42.383333	-86.273333	825080096								ALBEMARLE CORP		1312210182705	000108883	TOLUENE	TRI	Pounds																		W	H081	H121	H123	H129	H124				N 	E3		A	A02	A03	A07						N 	E3																																						NO	DRU.MANUEL@ALBEMARLE.COM			NO	 	
2012	NO	48111WYNDS49350	WAYNE DISPOSAL INC	49350 N I-94 SERVICE DR	BELLEVILLE	WAYNE	MI	48111	NO	YES	NO	NO								562211	562219	562998				42.21917	-83.522691	048090633	058972555	MID048090633		MI0056413				EQ HOLDING CO	022528553	1312210541431	000120127	ANTHRACENE	TRI	Pounds																		S	H111								N 	E4		A	A06	A07	A03						N 	E4																																						NO	BOB.DOYLE@EQONLINE.COM			NO	 	
2012	NO	48111WYNDS49350	WAYNE DISPOSAL INC	49350 N I-94 SERVICE DR	BELLEVILLE	WAYNE	MI	48111	NO	YES	NO	NO								562211	562219	562998				42.21917	-83.522691	048090633	058972555	MID048090633		MI0056413				EQ HOLDING CO	022528553	1312210541621	N495	NICKEL COMPOUNDS	TRI	Pounds																		S	H111								N 	E4		A	A06	A07	A03						N 	E4																																						NO	BOB.DOYLE@EQONLINE.COM			YES	 	
2012	NO	48111WYNDS49350	WAYNE DISPOSAL INC	49350 N I-94 SERVICE DR	BELLEVILLE	WAYNE	MI	48111	NO	YES	NO	NO								562211	562219	562998				42.21917	-83.522691	048090633	058972555	MID048090633		MI0056413				EQ HOLDING CO	022528553	1312210541660	001336363	POLYCHLORINATED BIPHENYLS	PBT	Pounds																		A	A06	A07	A03						N 	E4		S	H111								N 	E4																																						NO	BOB.DOYLE@EQONLINE.COM			NO	 	
2012	NO	49442BXTRH1953S	HONEYWELL BURDICK & JACKSON	1953 S HARVEY ST	MUSKEGON	MUSKEGON	MI	494426184	YES	NO	NO	NO								325199						43.216605	-86.206452	879085116								HONEYWELL INTERNATIONAL INC	139691877	1312210371605	000110543	N-HEXANE	TRI	Pounds																		NA									N 																																																			NO	DOUG.DIESELBERG@HONEYWELL.COM			NO	 	
2012	NO	49512TMMFG3559K	COMPASS AUTOMOTIVE GROUP	3559 KRAFT AVE SE	GRAND RAPIDS	KENT	MI	49512	YES	NO	NO	NO								331521						42.8992	-85.528899											1312210708374	007439921	LEAD	TRI	Pounds																		NA									N 																																																			NO	RECKHEART@C-T-C.COM			YES	 	
2012	NO	48161TWBCR1600N	TAILOR WELDED BLANKS	1600 NADEAU RD	MONROE	MONROE	MI	48162	YES	NO	NO	NO								332999						41.962199	-83.338389	806148755								WORTHINGTON INDUSTRIES INC	004312401	1312210865263	007440473	CHROMIUM	TRI	Pounds																																																																														NO	CMLYTTLE@WORTHINGTONINDUSTRIES.COM			YES	 	
2012	NO	48170TWRTM43955	TOWER AUTOMOTIVE PLYMOUTH	43955 PLYMOUTH OAKS BLVD	PLYMOUTH	WAYNE	MI	48170	YES	NO	NO	NO								336111						42.38222	-83.47333	805609224								TOWER INTERNATIONAL LLC		1312210604563	007439965	MANGANESE	TRI	Pounds																		NA									N 																																																			NO	MOONEY.MARK@TOWERINTERNATIONAL.COM			YES	 	
2012	NO	4839WDPTPL354BE	ADEPT PLASTIC FINISHING PLANT #4	30540 BECK RD	WIXOM	OAKLAND	MI	48393	YES	NO	NO	NO								332813						42.5185	-83.5161	829881387								ADEPT PLASTIC FINISHING INC	121524318	1312210173884	N495	NICKEL COMPOUNDS	TRI	Pounds																		W	H071	H121	H123						N 	E3																																																		NO	CGIBSON@ADEPTFINISH.COM			YES	 	
2012	NO	4839WDPTPL354BE	ADEPT PLASTIC FINISHING PLANT #4	30540 BECK RD	WIXOM	OAKLAND	MI	48393	YES	NO	NO	NO								332813						42.5185	-83.5161	829881387								ADEPT PLASTIC FINISHING INC	121524318	1312210173910	007697372	NITRIC ACID	TRI	Pounds																		W	H071	H121	H123						N 	E1																																																		NO	CGIBSON@ADEPTFINISH.COM			NO	 	
2012	NO	49829MDPBLCOUNT	ESCANABA PAPER CO	7100 COUNTY RD 426	ESCANABA	DELTA	MI	49829	YES	NO	NO	NO								322121						45.804856	-87.094498	030179782								NEWPAGE CORP	197533446	1312210236547	007664417	AMMONIA	TRI	Pounds																		A	H040								N 	E4		W	H123	H081	H123	H101					N 	E5																																						NO	JACKIE.PRIDE@NEWPAGECORP.COM			NO	 	
2012	NO	48192BSFCR1609B	BASF CORP	1609 BIDDLE AVE	WYANDOTTE	WAYNE	MI	481923729	YES	NO	NO	NO								325211						42.2183	-83.1459	064197742								BASF CORP	071014385	1312210594521	000078922	SEC-BUTYL ALCOHOL	TRI	Pounds																		A	H040								N 	E3																																																		NO				NO	 	
2012	NO	48111WYNDS49350	WAYNE DISPOSAL INC	49350 N I-94 SERVICE DR	BELLEVILLE	WAYNE	MI	48111	NO	YES	NO	NO								562212						42.21917	-83.522691	048090633	058972555	MID048090633		MI0056413				EQ HOLDING CO	022528553	1312210338911	001330207	XYLENE (MIXED ISOMERS)	TRI	Pounds																		NA									N 																																																			NO	BOB.DOYLE@EQONLINE.COM			NO	 	
2012	NO	48192SHSTV18655	ASH STEVENS INC	18655 KRAUSE ST	RIVERVIEW	WAYNE	MI	48193	YES	NO	NO	NO								325412						42.172958	-83.174292	048265333										1312210370452	000075092	DICHLOROMETHANE	TRI	Pounds																		NA									N 																																																			NO	SMUNK@ASHSTEVENS.COM			NO	 	
2012	NO	49001THPJH7171P	PHARMACIA & UPJOHN CO LLC A SUBSIDIARY OF PFIZER INC	7171 PORTAGE RD	KALAMAZOO	KALAMAZOO	MI	49001	YES	NO	NO	NO								325412						42.213044	-85.556083	007702681								PFIZER INC	001326495	1312210674558	007782505	CHLORINE	TRI	Pounds																		W	H123								N 	E6		W	H129								N 	E4		A	A07	A03							N 	E4		W	H121	H123							N 	E6														NO	CHRISTOPHER.LODER@PFIZER.COM			NO	 	
2012	NO	49349NRTHMM378T	NORTH AMERICAN REFRACTORIES CO	1301 E 8TH ST	WHITE CLOUD	NEWAYGO	MI	49349	YES	NO	NO	NO								327124						43.5413	-85.7696	147481741	093902542							NORTH AMERICAN REFRACTORIES CO	093902542	1312210216077	000107211	ETHYLENE GLYCOL	TRI	Pounds																		NA									N 																																																			NO	RVETE@ANHREFRACTORIES.COM			NO	 	
2012	NO	49712LXMRC100LE	LEXAMAR CORP	100 LEXAMAR DR	BOYNE CITY	CHARLEVOIX	MI	49712	YES	NO	NO	NO								326199						45.2052	-84.9869	118730472										1312210010993	001330207	XYLENE (MIXED ISOMERS)	TRI	Pounds																		A	A07								N 	E4																																																		NO	DAN_ANDERSON@LEXAMAR.COM			NO	 	
2012	NO	49068CMCST425LE	COMCAST URETHANE	425 LEGGITT RD	MARSHALL	CALHOUN	MI	49068	YES	NO	NO	NO								326150						42.252863	-84.968191	046179685										1312210346159	000075092	DICHLOROMETHANE	TRI	Pounds																																																																														NO	DRYAN@COMCASTURETHANE.COM			NO	 	
2012	NO	48150STLND331CA	STEEL INDUSTRIES INC PLANT 5	33100 CAPITOL AVE	LIVONIA	WAYNE	MI	48150	YES	NO	NO	NO								332710						42.37283	-83.36989	102673725								AMERIFORGE GROUP	136438327	1312210007148	007440484	COBALT	TRI	Pounds																																																																														NO	RMICALLEF@AFGLOBALCORP.COM			YES	 	
2012	NO	48071HWRDP32565	HOWARD FINISHING LLC	32565 DEQUINDRE	MADISON HEIGHTS	OAKLAND	MI	48071	YES	NO	NO	NO								332813						42.531682	-83.088014	113233691								HOWARD FINISHING LLC	113233691	1312210132585	N511	NITRATE COMPOUNDS	TRI	Pounds																		W	H129	H071	H121	H077	H123	H101			N 	E2																																																		NO	JEGRIMES@HOWARDFINISHING.COM			NO	 	
2012	NO	48161NRTHS3000E	GERDAU MACSTEEL MONROE	3000 E FRONT ST	MONROE	MONROE	MI	48161	YES	NO	NO	NO								331111						41.8925	-83.3562	087054078								GERDAU GROUP	068814482	1312210715544	N450	MANGANESE COMPOUNDS	TRI	Pounds																		A	A02	A03							N 	E4		A	A07								N 	E4		S	H123								N 	E5																										NO	CHUCK.SHORT@GERDAU.COM			YES	 	
2012	NO	49201JCKSN2090M	MARATHON PETROLEUM CO - JACKSON MI TERMINAL	2090 MORRILL RD	JACKSON	JACKSON	MI	49201	YES	NO	NO	NO								424710						42.312	-84.422	113053755								MARATHON PETROLEUM CORP	968393996	1312210400798	000071432	BENZENE	TRI	Pounds																		A	A01								N 	E4																																																		NO	WGMOORE@MARATHONPETROLEUM.COM			NO	 	
2012	NO	48089CDLLC23849	CADILLAC PLATING CORP	23849 GROESBECK HWY	WARREN	MACOMB	MI	48089	YES	NO	NO	NO								332813						42.470169	-82.986702	006004451										1312210723021	N982	ZINC COMPOUNDS	TRI	Pounds																		W	H071	H121	H071	H123	H101				N 	E3																																																		NO	CRAIG@CADILLACPLATING.COM			YES	 	
2012	NO	48326RCTCL1653A	RECTICEL UREPP NA INC	1653 ATLANTIC BLVD	AUBURN HILLS	OAKLAND	MI	48326	YES	NO	NO	NO								325211						42.697024	-83.269224	119288103								RECTICEL NV		1312210222333	N120	DIISOCYANATES	TRI	Pounds																		NA									N 																																																			NO	MAXSON.SCOTT@RECTICEL.COM			NO	 	
2012	NO	48043DPNTM400GR	AXALTA COATING SYSTEMS LLC - MOUNT CLEMENS PLANT	400 GROESBECK HWY	MOUNT CLEMENS	MACOMB	MI	48043	YES	NO	NO	NO								325510	325211					42.613141	-82.889814	606875391								AXALTA COATING SYSTEMS LLC	078611267	1312210641799	000872504	N-METHYL-2-PYRROLIDONE	TRI	Pounds																		A	H040								N 	E4																																																		NO	JOSEPH.F.CAMPBELL@USA.DUPONT.COM			NO	 	
2012	NO	48043DPNTM400GR	AXALTA COATING SYSTEMS LLC - MOUNT CLEMENS PLANT	400 GROESBECK HWY	MOUNT CLEMENS	MACOMB	MI	48043	YES	NO	NO	NO								325510	325211					42.613141	-82.889814	606875391								AXALTA COATING SYSTEMS LLC	078611267	1312210641825	000100425	STYRENE	TRI	Pounds																		NA									N 																																																			NO	JOSEPH.F.CAMPBELL@USA.DUPONT.COM			NO	 	
2012	NO	48150BSFCR13000	BASF CORP	13000 LEVAN RD	LIVONIA	WAYNE	MI	481501240	YES	NO	NO	NO								325211						42.3775	-83.401388	144240041								BASF CORP	071014385	1312210163972	N982	ZINC COMPOUNDS	TRI	Pounds																																																																														NO	THOMAS.LYNCH@BASF.COM			YES	 	
2012	NO	49036CLMXS460JA	H C STARCK INC	460 JAY ST	COLDWATER	BRANCH	MI	49036	YES	NO	NO	NO								332117						41.9353	-85.0074	060091995										1312210165938	007440508	COPPER	TRI	Pounds																		NA									N 																																																			NO	LARRY.DAMRAU@HCSTARCK.COM			YES	 	
2012	NO	48220MCDRM1221F	MACDERMID INC	1221 FARROW AVE	FERNDALE	OAKLAND	MI	48220	YES	NO	NO	NO								325998						42.456667	-83.118889	001164599								MACDERMID INC		1312210180939	N230	CERTAIN GLYCOL ETHERS	TRI	Pounds																		A	A03	A07							N 	E4		W	H077	H123	H101	H121	H071				N 	E5																																						NO	KBUDZIAK@MACDERMID.COM			NO	 	
2012	NO	48220MCDRM1221F	MACDERMID INC	1221 FARROW AVE	FERNDALE	OAKLAND	MI	48220	YES	NO	NO	NO								325998						42.456667	-83.118889	001164599								MACDERMID INC		1312210180941	N090	CHROMIUM COMPOUNDS(EXCEPT CHROMITE ORE MINED IN THE TRANSVAAL REGION)	TRI	Pounds																		A	A03	A07							N 	E4		W	H077	H123	H101	H121	H071				N 	E5																																						NO	KBUDZIAK@MACDERMID.COM			YES	 	
2012	NO	48217MRTHN1300S	MARATHON PETROLEUM CO LP - MICHIGAN REFINING DIV	1300 S FORT ST HES DEPT	DETROIT	WAYNE	MI	48217	YES	NO	NO	NO								324110						42.282182	-83.158756	962993101								MARATHON PETROLEUM CORP	968393996	1312210565558	N458	MERCURY COMPOUNDS	PBT	Pounds																		W	H124	H129	H123						N 	E6		A	A01								N 	E6																																						NO	CTRUTUES@MARATHONPETROLEUM.COM			YES	 	
2012	NO	49634PCKGN2245U	PACKAGING CORP OF AMERICA	2246 UDELL ST	FILER CITY	MANISTEE	MI	49634	YES	NO	NO	NO								322121						44.21336	-86.284609	060047151								PACKAGING CORP OF AMERICA		1312210553804	N420	LEAD COMPOUNDS	PBT	Pounds																		S	H101								N 	E3		W	H123	H081	H123						N 	E4																																						NO	SKALTUNAS@PACKAGINGCORP.COM			YES	 	
2012	NO	49022HRBRM800SF	BENTON HARBOR LLC	800 S FAIR	BENTON HARBOR	BERRIEN	MI	49022	YES	NO	NO	NO								332811						42.103288	-86.436722	061572475		MID061572475						BLUEWATER THERMAL PROCESSING LLC	783197184	1312210853166	007664417	AMMONIA	TRI	Pounds																		NA									N 																																																			NO	BASHLEY@BLUEWATERTHERMAL.COM			NO	 	
2012	NO	48164MRCNS36506	BONSAL AMERICAN INC	36506 SIBLEY RD	NEW BOSTON	WAYNE	MI	48164	YES	NO	NO	NO								327999	324199					42.16527	-83.39416	003149457								OLDCASTLE INC	037176591	1312209922020	000120127	ANTHRACENE	TRI	Pounds																		NA									N 																																																			NO	JACK.COVER@OLDCASTLE.COM			NO	 	
2012	NO	49423RPCLT473W1	REPCOLITE PAINTS INC	473 W 17TH ST	HOLLAND	OTTAWA	MI	49423	YES	NO	NO	NO								325510						42.78194	-86.12916	006014674										1312210567780	001330207	XYLENE (MIXED ISOMERS)	TRI	Pounds																		NA									N 																																																			NO	INFO@REPCOLITE.COM			NO	 	
2012	NO	48184FRDMT38303	FORD MOTOR CO MICHIGAN ASSEMBLY PLANT	38303 MICHIGAN AVE	WAYNE	WAYNE	MI	48184	YES	NO	NO	NO								336112						42.26666	-83.4	120551403								FORD MOTOR CO	001344746	1312210291997	000095636	1,2,4-TRIMETHYLBENZENE	TRI	Pounds																		A	A03	A05	H082	H040					N 	E5		W	H123	H071	H124	H101					N 	E6		A	A06								N 	E6																										NO	JNOWAK2@FORD.COM			NO	 	
2012	NO	48157JRWHT4525E	JR WHITING GENERATING PLANT	4525 E ERIE RD	ERIE	MONROE	MI	48133	YES	NO	NO	NO								221112						41.791905	-83.449167	087050506								CMS ENERGY	006959803	1312210383131	N458	MERCURY COMPOUNDS	PBT	Pounds																		A	A05								N 	E6																																																		NO	DEBRA.MCINTYRE-DODD@CMSENERGY.COM			YES	 	
2012	NO	49507PLYMR1415S	ARKEMA INC	1415 STEELE AVE SW	GRAND RAPIDS	KENT	MI	49507	YES	NO	NO	NO								325211						42.9378	-85.6761	002290773								ARKEMA INC.	002290773	1312210696151	000071363	N-BUTYL ALCOHOL	TRI	Pounds																		A	H040								N 	E4																																																		NO	JEFF.MILLS@ARKEMA.COM			NO	 	
2012	NO	49512LCKSW49BAR	LACKS WHEEL TRIM SYSTEMS BARDEN PLATER	4090 BARDEN SE	KENTWOOD	KENT	MI	49512	YES	NO	NO	NO								332813	326199	336399				42.87629	-85.56039	618232144								LACKS ENTERPRISES INC	616811659	1312210265029	007439921	LEAD	TRI	Pounds																		W	H121	H071							N 	E6																																																		NO	S.RADAKOVITZ@LACKSENTERPRISES.COM			YES	 	
2012	NO	48220GGPRD625WA	GAGE PRODUCTS CO	625 WANDA AVE	FERNDALE	OAKLAND	MI	48220	YES	NO	NO	NO								325510						42.451389	-83.114722	005355086		MID005338801								1312210685816	N420	LEAD COMPOUNDS	PBT	Pounds																		NA									N 																																																			NO	JMILESKIY@GAGEPRODUCTS.COM			YES	 	
2012	NO	4866WSTYRN164BU	STYRON LLC - MI OPERATIONS	1604 BUILDING	MIDLAND	MIDLAND	MI	48667	YES	NO	NO	NO								325211						43.617297	-84.200045	833167310								STYRON LLC	833167310	1312210147613	000100414	ETHYLBENZENE	TRI	Pounds																		A	A01								N 	E3		A	A01								N 	E4																																						NO	JNSCOTT@STYRON.COM			NO	 	
2012	NO	48750TTNDS4700N	COOPER STANDARD AUTOMOTIVE INC	4700 N INDUSTRIAL ROW	OSCODA	IOSCO	MI	48750	YES	NO	NO	NO								326199						44.416944	-83.349167	183568419								COOPER STANDARD AUTOMOTIVE INC.	004183273	1312210326233	N010	ANTIMONY COMPOUNDS	TRI	Pounds																		NA									N 																																																			NO	DPONTBRIAND@COOPERSTANDARD.COM			YES	 	
2012	NO	48909JTD  5300A	BARNES AEROSPACE - LANSING DIV	5300 AURELIUS RD	LANSING	INGHAM	MI	48911	YES	NO	NO	NO								336412	336413					42.680159	-84.523517	157272146								BARNES GROUP INC	001145481	1312210496459	N511	NITRATE COMPOUNDS	TRI	Pounds																		NA									N 																																																			NO	LHUGHES@BARNESAERO.COM			NO	 	
2012	NO	49601CDLLC603WE	AVON AUTOMOTIVE PLANT 1	603 W 7TH ST	CADILLAC	WEXFORD	MI	49601	YES	NO	NO	NO								326220						44.260798	-85.418246	151927944										1312210524486	000117817	DI(2-ETHYLHEXYL) PHTHALATE	TRI	Pounds																		NA									N 																																																			NO	BSOMERS@AVONAUTO.COM			NO	 	
2012	NO	49423BHNLM365W2	BENTELER ALUMINIUM SYSTEMS MICHIGAN INC	365 W 24TH ST	HOLLAND	OTTAWA	MI	49423	YES	NO	NO	NO								331316						42.776134	-86.125041	806348579								BENTELER AUTOMOTIVE CORP		1312210134831	007439921	LEAD	TRI	Pounds																		NA									N 																																																			NO	GERRY.BUTTS@BENTELER.COM			YES	 	
2012	NO	49423LLNXT1305L	ALLEN EXTRUDERS LLC	1305 LINCOLN AVE	HOLLAND	ALLEGAN	MI	49423	YES	NO	NO	NO								326113						42.753651	-86.096863	052497419								SEKISUI AMERICA CORP	001926708	1312210265397	000100425	STYRENE	TRI	Pounds																		NA									N 																																																			NO	LARRYV@ALLENX.COM			NO	 	
2012	NO	49631VRTPR601WS	VENTRA EVART LLC	601 W SEVENTH ST	EVART	OSCEOLA	MI	49631	YES	NO	NO	NO								336399						43.8988	-85.2677	805650756								FLEX-N-GATE CORP		1312210515755	000100414	ETHYLBENZENE	TRI	Pounds																		A	H040								N 	E4																																																		NO	BCRAWFORD@VENTRAPLASTICS.COM			NO	 	
2012	NO	49631VRTPR601WS	VENTRA EVART LLC	601 W SEVENTH ST	EVART	OSCEOLA	MI	49631	YES	NO	NO	NO								336399						43.8988	-85.2677	805650756								FLEX-N-GATE CORP		1312210515817	001330207	XYLENE (MIXED ISOMERS)	TRI	Pounds																		A	H040								N 	E4																																																		NO	BCRAWFORD@VENTRAPLASTICS.COM			NO	 	
2012	NO	49464HXCLC215CE	VERTELLUS HEALTH & SPECIALTY PRODUCTS LLC	215 N CENTENNIAL ST	ZEELAND	OTTAWA	MI	49464	YES	NO	NO	NO								325192						42.815556	-86.011667									VERTELLUS SPECIALTIES INC	029260833	1312210431348	000067561	METHANOL	TRI	Pounds																		NA									N 																																																			NO	AFRYE@VERTELLUS.COM			NO	 	
2012	NO	48921GMCGL920TO	GMVM-LANSING GRAND RIVER ASSEMBLY	920 TOWNSEND ST MAIL CODE: 489-066-600	LANSING	INGHAM	MI	48933	YES	NO	NO	NO								336111						42.724042	-84.555676	125356613								GENERAL MOTORS LLC	831247536	1312210549681	000108883	TOLUENE	TRI	Pounds																		NA									N 																																																			NO	SHARON.BASEL@GM.COM			NO	 	
2012	NO	49085HFFMN229KE	HOFFMANN DIE CAST CORP	229 KERTH ST	SAINT JOSEPH	BERRIEN	MI	49085	YES	NO	NO	NO								331521						42.074722	-86.497222	155162621										1312209925662	007440508	COPPER	TRI	Pounds																		NA									N 																																																			NO	HDCMIKE@HOFFMANNDC.COM			YES	 	
2012	NO	49090WYCKF1421K	ALBEMARLE INC	1421 KALAMAZOO ST	SOUTH HAVEN	VAN BUREN	MI	49090	YES	NO	NO	NO								325411						42.383333	-86.273333	825080096								ALBEMARLE CORP		1312210182681	000071363	N-BUTYL ALCOHOL	TRI	Pounds																		W	H081	H121	H123	H129	H124				N 	E3		A	A02	A03	A07						N 	E3																																						NO	DRU.MANUEL@ALBEMARLE.COM			NO	 	
2012	NO	49441CNNNM2875L	CANNON-MUSKEGON	2875 LINCOLN ST	MUSKEGON	MUSKEGON	MI	49441	YES	NO	NO	NO								331513						43.200924	-86.304788	006022586								PRECISION CASTPARTS CORP	009027970	1312210263810	007440508	COPPER	TRI	Pounds																		A	A06								N 	E5																																																		NO	JBLUE@CANMKG.COM			YES	 	
2012	NO	48121FRDM23001M	FORD MOTOR CO DEARBORN TRUCK PLANT	3001 MILLER RD	DEARBORN	WAYNE	MI	48121	YES	NO	NO	NO								336112						42.301742	-83.162934	150420214								FORD MOTOR CO	001344746	1312210572463	000191242	BENZO(G,H,I)PERYLENE	PBT	Pounds																		NA									N 																																																			NO				NO	 	
2012	NO	48121FRDM23001M	FORD MOTOR CO DEARBORN TRUCK PLANT	3001 MILLER RD	DEARBORN	WAYNE	MI	48121	YES	NO	NO	NO								336112						42.301742	-83.162934	150420214								FORD MOTOR CO	001344746	1312210572588	000091203	NAPHTHALENE	TRI	Pounds																		A	A03	H082	H040						N 	E5		A	A06								N 	E6																																						NO				NO	 	
2012	NO	48054DTRTD4901P	DTE ELECTRIC CO ST CLAIR POWER PLANT (PART)	4901 POINTE DR	EAST CHINA TOWNSHIP	ST CLAIR	MI	48054	NO	YES	NO	NO								221112						42.7748	-82.4945	021091061								DTE ENERGY CO	839329158	1312210333480	007647010	HYDROCHLORIC ACID (1995 AND AFTER "ACID AEROSOLS" ONLY)	TRI	Pounds																		A	H121	A07	A05						N 	E6																																																		NO	BERRISR@DTEENERGY.COM			NO	 	
2012	NO	48551GMCTRG3100	GM LLC POWERTRAIN FLINT ENGINE OPERATIONS	2100 BRISTOL RD	FLINT	GENESEE	MI	48552	NO	YES	NO	NO								336370						42.985622	-83.716612	070628511	005356662							GENERAL MOTORS LLC	831247536	1312210412173	000071363	N-BUTYL ALCOHOL	TRI	Pounds																		NA									N 																																																			NO	KIMBERLY.CARPENTER@GM.COM			NO	 	
2012	NO	48732DKRNJNWEAD	DE KARN JC WEADOCK GENERATING PLANT	N WEADOCK HWY	ESSEXVILLE	BAY	MI	48732	YES	NO	NO	NO								221112						43.64403	-83.840328	149954919								CMS ENERGY	006959803	1312210506477	N450	MANGANESE COMPOUNDS	TRI	Pounds																		A	A05	A07							N 	E3																																																		NO	MARY.KULIS@CMSENERGY.COM			YES	 	
2012	NO	49646CDNGP111WP	ILLINOIS TOOL WORKS  CODING PRODUCTS  DIV	111 W PARK DR	KALKASKA	KALKASKA	MI	49646	YES	NO	NO	NO								339944						44.735068	-85.168519	005183939								ILLINOIS TOOL WORKS INC	005146428	1312210536090	000067561	METHANOL	TRI	Pounds																		NA									N 																																																			NO	MKYRO@CODINGPRODUCTS.COM			NO	 	
2012	NO	48161TWBCR1600N	TAILOR WELDED BLANKS	1600 NADEAU RD	MONROE	MONROE	MI	48162	YES	NO	NO	NO								332999						41.962199	-83.338389	806148755								WORTHINGTON INDUSTRIES INC	004312401	1312210865275	007439921	LEAD	TRI	Pounds																		NA									N 																																																			NO	CMLYTTLE@WORTHINGTONINDUSTRIES.COM			YES	 	
2012	NO	49221NDRSN1415E	ANDERSON DEVELOPMENT CO	1415 E MICHIGAN ST	ADRIAN	LENAWEE	MI	49221	YES	NO	NO	NO								325211						41.89361	-84.01721	002931228								ANDERSON DEVELOPMENT CO	002931228	1312210623233	N458	MERCURY COMPOUNDS	PBT	Pounds																		NA									N 																																																			NO	CHRIS.GOELOE@ANDDEV.COM			YES	 	
2012	NO	48045SLFRD42081	SELFRIDGE PLATING INC	42081 IRWIN	HARRISON TOWNSHIP	MACOMB	MI	48045	YES	NO	NO	NO								332813						42.603918	-82.851823	054676580										1312210133613	007440508	COPPER	TRI	Pounds																		W	H073								N 	E4																																																		NO				YES	 	
2012	NO	49445NRTHM3005H	MARATHON PETROLEUM CO - NORTH MUSKEGON MI TERMINAL	3005 HOLTON RD	NORTH MUSKEGON	MUSKEGON	MI	494452513	YES	NO	NO	NO								424710						43.27	-86.2441	092954098								MARATHON PETROLEUM CORP	968393996	1312210403768	000110543	N-HEXANE	TRI	Pounds																		NA									N 																																																			NO	WGMOORE@MARATHONPETROLEUM.COM			NO	 	
2012	NO	48667THDWCMICHI	THE DOW CHEMICAL CO	1790 BUILDING	MIDLAND	MIDLAND	MI	48667	YES	NO	NO	NO								325199	325211	325320				43.6003	-84.2234	877223370								THE DOW CHEMICAL CO	001381581	1312210575724	000106898	EPICHLOROHYDRIN	TRI	Pounds																		W	H123	H081	H121	H123	H077				N 	E4		L	H040	H077							N 	E1		S	H040	H077							N 	E1																										NO	MORLOCK@DOW.COM			NO	 	
2012	NO	48192BSFCR1609B	BASF CORP	1609 BIDDLE AVE	WYANDOTTE	WAYNE	MI	481923729	YES	NO	NO	NO								325211						42.2183	-83.1459	064197742								BASF CORP	071014385	1312210594457	N120	DIISOCYANATES	TRI	Pounds																		W	H129								N 	E3		L	H129								N 	E5		A	H082								N 	E3																										NO				NO	 	
2012	NO	48111WYNDS49350	WAYNE DISPOSAL INC	49350 N I-94 SERVICE DR	BELLEVILLE	WAYNE	MI	48111	NO	YES	NO	NO								562212						42.21917	-83.522691	048090633	058972555	MID048090633		MI0056413				EQ HOLDING CO	022528553	1312210338760	N090	CHROMIUM COMPOUNDS(EXCEPT CHROMITE ORE MINED IN THE TRANSVAAL REGION)	TRI	Pounds																		A	A06	A07	A03						N 	E4		L	H129	H077	H123	H082	H073	H075			N 	E4																																						NO	BOB.DOYLE@EQONLINE.COM			YES	 	
2012	NO	48165CNTNN29201	CONTINENTAL ALUMINUM	29201 MILFORD RD	NEW HUDSON	OAKLAND	MI	48165	YES	NO	NO	NO								331314						42.4998	-83.6165									METAL EXCHANGE CORP		1312210583480	N420	LEAD COMPOUNDS	PBT	Pounds																		NA									N 																																																			NO	FLINDSAY@CONTALUM.COM			YES	 	
2012	NO	48077STRLN35777	DAIMLERCHRYSLER CORP STERLING STAMPING PLANT (PART)	35777 VAN DYKE	STERLING HEIGHTS	MACOMB	MI	48312	NO	YES	NO	NO								336370						42.556157	-83.033974	072782683								CHRYSLER GROUP LLC	001344928	1312210666513	000110543	N-HEXANE	TRI	Pounds																		NA									N 																																																			NO				NO	 	
2012	NO	48189TRCHS1781P	TORCH SURFACE TECHNOLOGIES	10781 PLAZA DR	WHITMORE LAKE	LIVINGSTON	MI	48189	NO	NO	NO	NO								325611	325188	325613				42.447285	-83.764087	0134763										1312210832782	N450	MANGANESE COMPOUNDS	TRI	Pounds																																																																														NO	ROS@TORCHSURFACETECH.COM			YES	 	
2012	NO	48228PVSNL9000H	PVS NOLWOOD CHEMICALS INC	9000 HUBBELL AVE	DETROIT	WAYNE	MI	48228	YES	NO	NO	NO								424690						42.36131	-83.18736	004912309								PVS CHEMICALS INC	004912309	1312210410193	000111422	DIETHANOLAMINE	TRI	Pounds																		W	H129								N 	E6																																																		NO	JWHITTEN@PVSCHEMICALS.COM			NO	 	
2012	NO	48229GRTLKNO1QU	US STEEL CORP GREAT LAKES WORKS	1 QUALITY DR	ECORSE	WAYNE	MI	48229	YES	NO	NO	NO								331111						42.281735	-83.110231	004320479								US STEEL CORP	029990699	1312210572234	007647010	HYDROCHLORIC ACID (1995 AND AFTER "ACID AEROSOLS" ONLY)	TRI	Pounds																		A	A03								N 	E3																																																		NO				NO	 	
2012	NO	48213PVSTC6500F	PVS TECHNOLOGIES INC	10825 HARPER AVE	DETROIT	WAYNE	MI	48213	YES	NO	NO	NO								325188						42.395279	-82.997822	151369303								PVS CHEMICALS INC	005630273	1312210798637	007782505	CHLORINE	TRI	Pounds																		NA									N 																																																			NO	SWASKO@PVSCHEMICALS.COM			NO	 	
2012	NO	48089DRMTC11350	CERATIZIT-MICHIGAN	11350 STEPHENS RD	WARREN	MACOMB	MI	48089	YES	NO	NO	NO								332117						42.4705	-83.0104	067341677								CERATIZIT		1312210074860	007440484	COBALT	TRI	Pounds																																																																														NO	CHRIS.JAMES@CERATIZIT.COM			YES	 	
2012	NO	49417RMLLR14516	RA MILLER INDUSTRIES INC	14500 168TH AVE	GRAND HAVEN	OTTAWA	MI	494179454	YES	NO	NO	NO								334290						43.032434	-86.204746	006022214										1312210125047	N100	COPPER COMPOUNDS	TRI	Pounds																		NA									N 																																																			NO	PMILLER@RAMI.COM			YES	 	
2012	NO	48390FNSHT4205M	QUEST SPECIALTY COATINGS LLC - WALLED LAKE	4205 MARTIN RD	WALLED LAKE	OAKLAND	MI	48390	YES	NO	NO	NO								325510						42.573536	-83.449611	848649976								QUEST SPECIALTY CHEMICALS INC	132338364	1312210308173	000108883	TOLUENE	TRI	Pounds																		NA									N 																																																			NO	JRCZARNIK@MATRIXSYSTEM.COM			NO	 	
2012	NO	49876CHMPNUSHIG	VERSO QUINNESEC LLC	US HWY 2	QUINNESEC	DICKINSON	MI	49876	YES	NO	NO	NO								322121	322110					45.795587	-87.958358	038771036								VERSO PAPER CORP	826480902	1312210681413	N420	LEAD COMPOUNDS	PBT	Pounds																		A	A03								N 	E4		A	A03								N 	E4		A	A05								N 	E4		W	H123	H082							N 	E5		A	A05								N 	E4		NO	JEFF.MAULE@VERSOPAPER.COM			YES	 	
2012	NO	48174WDBRD15573	WOODBRIDGE CORP	15573 OAKWOOD DR	ROMULUS	WAYNE	MI	48174	YES	NO	NO	NO								326150						42.18644	-83.39196	363548074								WOODBRIDGE HOLDINGS INC	161659883	1312210041214	000111422	DIETHANOLAMINE	TRI	Pounds																		NA									N 																																																			NO	DAVE_RALSTON@WOODBRIDGEGROUP.COM			NO	 	
2012	NO	49738GRGPCROUTE	GEORGIA-PACIFIC CHEMICALS LLC	4113 FOUR MILE RD	GRAYLING	CRAWFORD	MI	49738	YES	NO	NO	NO								325211	325199					44.598333	-84.691667									KOCH INDUSTRIES INC	006944334	1312210352112	000067561	METHANOL	TRI	Pounds																		A	H040								N 	E3																																																		NO	COLOCKWO@GAPAC.COM			NO	 	
2012	NO	49634PCKGN2245U	PACKAGING CORP OF AMERICA	2246 UDELL ST	FILER CITY	MANISTEE	MI	49634	YES	NO	NO	NO								322121						44.21336	-86.284609	060047151								PACKAGING CORP OF AMERICA		1312210553766	000071432	BENZENE	TRI	Pounds																		A	A07	H040							N 	E4		A	A05	A06	A03	H040					N 	E5		W	H123	H081	H123						N 	E5		S	H101								N 	E6														NO	SKALTUNAS@PACKAGINGCORP.COM			NO	 	
2012	NO	49022SNDVK2235D	SANDVIK MATERIALS TECHNOLOGY	2235 DEWEY AVE	BENTON HARBOR	BERRIEN	MI	49022	YES	NO	NO	NO								423510						42.073313	-86.397539	004123700								SANDVIK INC	041023700	1312210690323	007664417	AMMONIA	TRI	Pounds																		A	H040								N 	E1																																																		NO	JIM.RUSK@SANDVIK.COM			NO	 	
2012	NO	49345PRDCT9983S	CASCADE DIE CASTING / GREAT LAKES	9983 SPARTA AVE	SPARTA	KENT	MI	49345	YES	NO	NO	NO								331521						43.146068	-85.710179	147750707								CASCADE DIE CASTING GROUP INC	147750707	1312210338048	007440508	COPPER	TRI	Pounds																		NA									N 																																																			NO	PGREENE@CASCADE-CDC.COM			YES	 	
2012	NO	48174FNTXL89INK	FINTEX LLC	8900 INKSTER RD	ROMULUS	WAYNE	MI	48174	YES	NO	NO	NO								332813						42.2423	-83.3084	095711284										1312210567792	N090	CHROMIUM COMPOUNDS(EXCEPT CHROMITE ORE MINED IN THE TRANSVAAL REGION)	TRI	Pounds																		NA									N 																																																			NO				YES	 	
2012	NO	49345SPRTF252EG	FEDERAL-MOGUL POWERTRAIN SYSTEMS	200 S MAPLE	SPARTA	KENT	MI	49345	YES	NO	NO	NO								331511						43.155919	-85.703903	006407514								FEDERAL MOGUL CORP	088862933	1312210082970	007439965	MANGANESE	TRI	Pounds																		NA									N 																																																			NO				YES	 	
2012	NO	48150MCGNR38521	MCGEAN-ROHCO INC	38521 SCHOOLCRAFT AVE	LIVONIA	WAYNE	MI	48150	YES	NO	NO	NO								325998						42.381533	-83.422822	069820181								MCGEAN-ROHCO INC	071112593	1312210281844	N982	ZINC COMPOUNDS	TRI	Pounds																																																																														NO	TOM.EDMUNDS@MCGEAN.COM			YES	 	
2012	NO	48174RMLSR28000	MARATHON PETROLEUM CO - ROMULUS MI TERMINAL	28001 CITRON DR	ROMULUS	WAYNE	MI	48174	YES	NO	NO	NO								424710						42.245	-83.3126	057697591								MARATHON PETROLEUM CORP	968393996	1312210402424	000091203	NAPHTHALENE	TRI	Pounds																		NA									N 																																																			NO	WGMOORE@MARATHONPETROLEUM.COM			NO	 	
2012	NO	48184FRDMT37625	FORD MOTOR COMPANY-WAYNE ASSEMBLY	37625 MICHIGAN AVE	WAYNE	WAYNE	MI	48184	YES	NO	NO	NO								336111						42.277	-83.4077	005379706								FORD MOTOR CO	001344746	1312210292138	N450	MANGANESE COMPOUNDS	TRI	Pounds																		NA									N 																																																			NO	JNOWAK2@FORD.COM			YES	 	
2012	NO	4864WDWKKM27SUT	DOW KOKAM MI LLC	2700 S SAGINAW RD	MIDLAND	MIDLAND	MI	48640	YES	NO	NO	NO								335912						43.607553	-84.20775											1312210045098	000306832	2,2-DICHLORO-1,1,1-TRIFLUOROETHANE	TRI	Pounds																		NA									N 																																																			NO	TTHENKE@DOWKOKAM.COM			NO	 	
2012	NO	49460JHCMP17000	J H CAMPBELL GENERATING PLANT	17000 CROSWELL ST	WEST OLIVE	OTTAWA	MI	49460	YES	NO	NO	NO								221112						42.912078	-86.203574	041409954								CMS ENERGY	006959803	1312210449587	N090	CHROMIUM COMPOUNDS(EXCEPT CHROMITE ORE MINED IN THE TRANSVAAL REGION)	TRI	Pounds																		A	A05	A07							N 	E3																																																		NO	ROGER.MORGENSTERN@CMSENERGY.COM			YES	 	
2012	NO	49460JHCMP17000	J H CAMPBELL GENERATING PLANT	17000 CROSWELL ST	WEST OLIVE	OTTAWA	MI	49460	YES	NO	NO	NO								221112						42.912078	-86.203574	041409954								CMS ENERGY	006959803	1312210449676	007664393	HYDROGEN FLUORIDE	TRI	Pounds																		A	A05	A07							N 	E6																																																		NO	ROGER.MORGENSTERN@CMSENERGY.COM			NO	 	
2012	NO	49203RQPCR300SO	EATON AEROSPACE CORP	300 S E AVE	JACKSON	JACKSON	MI	49203	YES	NO	NO	NO								332912						42.247093	-84.392548	098680200								EATON CORP	004155818	1312210507152	007440020	NICKEL	TRI	Pounds																																																																														NO	RANDYLGAMBLE@EATON.COM			YES	 	
2012	NO	4950WGRSPR76BND	GR SPRING & STAMPING INC	706 BOND AVE NW	GRAND RAPIDS	KENT	MI	49503	YES	NO	NO	NO								336370						42.975236	-85.671412									HZ INDUSTRIES	006018311	1312210558577	007439965	MANGANESE	TRI	Pounds																		NA									N 																																																			NO	JENNIFERROBINSON@GRS-S.COM			YES	 	
2012	NO	49442GLLLY5142E	EAGLE ALLOY INC	5142 EVANSTON AVE	MUSKEGON	MUSKEGON	MI	49442	YES	NO	NO	NO								331513						43.2136	-86.1188	092945310										1312210806485	007440020	NICKEL	TRI	Pounds																		NA									N 																																																			NO	JWORKMAN@EAGLEALLOY.COM			YES	 	
2012	NO	49276GLBLT1144C	GREEN PLAINS RENEWABLE ENERGY INC	11440 CEMETERY RD	RIGA	LENAWEE	MI	49276	YES	NO	NO	NO								325193						41.8146	-83.8362									GREEN PLAINS RENEWABLE ENERGY INC	186380718	1312209919935	007664417	AMMONIA	TRI	Pounds																		A	H040								N 	E4		A	A03								N 	E5																																						NO	ERICA.MONTEFUSCO@GPREINC.COM			NO	 	
2012	NO	48111WYNDS49350	WAYNE DISPOSAL INC	49350 N I-94 SERVICE DR	BELLEVILLE	WAYNE	MI	48111	NO	YES	NO	NO								562211	562219	562998				42.21917	-83.522691	048090633	058972555	MID048090633		MI0056413				EQ HOLDING CO	022528553	1312210541696	000127184	TETRACHLOROETHYLENE	TRI	Pounds																		S	H111								N 	E4		A	A06	A07	A03						N 	E4																																						NO	BOB.DOYLE@EQONLINE.COM			NO	 	
2012	NO	48121RGSTL3001M	SEVERSTAL DEARBORN LLC	4001 MILLER RD	DEARBORN	WAYNE	MI	48120	YES	NO	NO	NO								331111	331221					42.301111	-83.1625	142299051								SEVERSTAL N.A. INC	645166489	1312210696961	N458	MERCURY COMPOUNDS	PBT	Pounds																		NA									N 																																																			NO	JIM.EARL@SEVERSTALNA.COM			YES	 	
2012	NO	48842PRKRH1355S	PARKER HANNIFIN CORP	1355 N CEDAR RD	MASON	INGHAM	MI	48854	YES	NO	NO	NO								332912						42.621389	-84.501111	004175550								PARKER HANNIFIN CORP	004175550	1312210096196	007439921	LEAD	TRI	Pounds																		NA									N 																																																			NO	TBRAMAN@PARKER.COM			YES	 	
2012	NO	48054DTRTD4901P	DTE ELECTRIC CO ST CLAIR POWER PLANT (PART)	4901 POINTE DR	EAST CHINA TOWNSHIP	ST CLAIR	MI	48054	NO	YES	NO	NO								221112						42.7748	-82.4945	021091061								DTE ENERGY CO	839329158	1312210333516	007664393	HYDROGEN FLUORIDE	TRI	Pounds																		A	H121	A07	A05						N 	E6																																																		NO	BERRISR@DTEENERGY.COM			NO	 	
2012	NO	48551GMCTRG3100	GM LLC POWERTRAIN FLINT ENGINE OPERATIONS	2100 BRISTOL RD	FLINT	GENESEE	MI	48552	NO	YES	NO	NO								336370						42.985622	-83.716612	070628511	005356662							GENERAL MOTORS LLC	831247536	1312210412058	000107211	ETHYLENE GLYCOL	TRI	Pounds																		NA									N 																																																			NO	KIMBERLY.CARPENTER@GM.COM			NO	 	
2012	NO	49423GRDSM636E4	SHERWIN-WILLIAMS CO	636 E 40TH ST	HOLLAND	ALLEGAN	MI	49423	YES	NO	NO	NO								325510						42.761389	-86.08	137403952								THE SHERWIN-WILLIAMS CO	004206397	1312210648592	000110543	N-HEXANE	TRI	Pounds																		NA									N 																																																			NO	RSTHOMAS@SHERWIN.COM			NO	 	
2012	NO	48036TWRTM44850	TOWER AUTOMOTIVE CLINTON	44850 GROESBECK HWY	CLINTON TOWNSHIP	MACOMB	MI	48036	YES	NO	NO	NO								336370						42.62805	-82.87611	928966266								TOWER INTERNATIONAL LLC		1312210002681	007439921	LEAD	TRI	Pounds																		NA									N 																																																			NO	KUPCAK.MATT@TOWERAUTOMOTIVE.COM			YES	 	
2012	NO	49829PPRPN2000P	ESCANABA GENERATING STATION	2000 POWER PLANT RD	ESCANABA	DELTA	MI	49829	YES	NO	NO	NO								221112						45.77219	-87.064949									CITY OF ESCANABA		1312210153375	N420	LEAD COMPOUNDS	PBT	Pounds																		NA									N 																																																			NO				YES	 	
2012	NO	49829MDPBLCOUNT	ESCANABA PAPER CO	7100 COUNTY RD 426	ESCANABA	DELTA	MI	49829	YES	NO	NO	NO								322121						45.804856	-87.094498	030179782								NEWPAGE CORP	197533446	1312210236675	N420	LEAD COMPOUNDS	PBT	Pounds																		NA									N 																																																			NO	JACKIE.PRIDE@NEWPAGECORP.COM			YES	 	
2012	NO	49221MCHGN1336E	DAIRY FARMERS OF AMERICA INC ADRIAN	1336 E MAUMEE ST	ADRIAN	LENAWEE	MI	49221	YES	NO	NO	NO								311514						41.8966	-84.016376	056687528								DAIRY FARMERS OF AMERICA INC	029855640	1312210227296	007697372	NITRIC ACID	TRI	Pounds																		W	H129	H121	H081	H121	H124	H123	H081	H121	N 	E3																																																		NO	JWELLIK@DFAMILK.COM			NO	 	
2012	NO	48430CNTRF14241	CONTOUR FABRICATORS INC	14241 FENTON RD	FENTON	GENESEE	MI	48430	YES	NO	NO	NO								339113						42.820556	-83.704444	072778095		MIR000048983		MIS210687				RAWCAR GROUP LLC	072778095	1312210546139	000108883	TOLUENE	TRI	Pounds																		NA									N 																																																			NO	PAUL.MARTEL@CONTOURFAB.COM			NO	 	
2012	NO	48667THDWCMICHI	THE DOW CHEMICAL CO	1790 BUILDING	MIDLAND	MIDLAND	MI	48667	YES	NO	NO	NO								325199	325211	325320				43.6003	-84.2234	877223370								THE DOW CHEMICAL CO	001381581	1312210575395	000094757	2,4-D	TRI	Pounds																		W	H123	H081	H121	H123	H077				N 	E4		L	H040	H077							N 	E1		S	H040	H077							N 	E1																										NO	MORLOCK@DOW.COM			NO	 	
2012	NO	48667THDWCMICHI	THE DOW CHEMICAL CO	1790 BUILDING	MIDLAND	MIDLAND	MI	48667	YES	NO	NO	NO								325199	325211	325320				43.6003	-84.2234	877223370								THE DOW CHEMICAL CO	001381581	1312210575674	000077736	DICYCLOPENTADIENE	TRI	Pounds																		S	H040	H077							N 	E1																																																		NO	MORLOCK@DOW.COM			NO	 	
2012	NO	48667THDWCMICHI	THE DOW CHEMICAL CO	1790 BUILDING	MIDLAND	MIDLAND	MI	48667	YES	NO	NO	NO								325199	325211	325320				43.6003	-84.2234	877223370								THE DOW CHEMICAL CO	001381581	1312210575864	007647010	HYDROCHLORIC ACID (1995 AND AFTER "ACID AEROSOLS" ONLY)	TRI	Pounds																		A	A03								N 	E4		A	A03								N 	E3		A	A03								N 	E5		A	H040	H077							N 	E3														NO	MORLOCK@DOW.COM			NO	 	
2012	NO	48667THDWCMICHI	THE DOW CHEMICAL CO	1790 BUILDING	MIDLAND	MIDLAND	MI	48667	YES	NO	NO	NO								325199	325211	325320				43.6003	-84.2234	877223370								THE DOW CHEMICAL CO	001381581	1312210576031	000091203	NAPHTHALENE	TRI	Pounds																		A	H040								N 	E3		W	H123	H081	H121	H123	H077				N 	E4		L	H040								N 	E3		L	H040	H077							N 	E1		S	H040	H077							N 	E1		NO	MORLOCK@DOW.COM			NO	 	
2012	NO	48192BSFCR1609B	BASF CORP	1609 BIDDLE AVE	WYANDOTTE	WAYNE	MI	481923729	YES	NO	NO	NO								325211						42.2183	-83.1459	064197742								BASF CORP	071014385	1312210594394	000095636	1,2,4-TRIMETHYLBENZENE	TRI	Pounds																																																																														NO				NO	 	
2012	NO	49456SPRMM18686	SUPREME MACHINED PRODUCTS	18686 172ND AVE	SPRING LAKE	OTTAWA	MI	49456	YES	NO	NO	NO								332721						43.105573	-86.208387	006022693										1312210817870	007439921	LEAD	TRI	Pounds																		S	H101								N 	E4		A	A06								N 	E5																																						NO	CBAILEY@SUPREME1.COM			YES	 	
2012	NO	49464BLMRF83009	HILLSHIRE BRANDS - ZEELAND	8300 96TH AVE	ZEELAND	OTTAWA	MI	49464	YES	NO	NO	NO								311612						42.918611	-86.028611	168838480								HILLSHIRE BRANDS CO	005213962	1312210059299	007697372	NITRIC ACID	TRI	Pounds																		W	H081	H101	H123	H129	H077	H121			N 	E1																																																		NO	ROSS.MYERS@HILLSHIREBRANDS.COM			NO	 	
2012	NO	48211SLCTY1923F	EQ DETROIT INC	1923 FREDERICK	DETROIT	WAYNE	MI	48211	YES	NO	NO	NO								562211	562998	562219				42.366697	-83.048061	035420772								EQ HOLDINGS CO	022528553	1312210564732	N020	ARSENIC COMPOUNDS	TRI	Pounds																		A	A06								N 	E2		S	H111								N 	E5		W	H071	H077	H082						N 	E4																										NO	SCOTT.MARIS@EQONLINE.COM			YES	 	
2012	NO	49858NRTHR7056T	NORTHERN COATINGS & CHEMICAL CO INC	705 6TH AVE	MENOMINEE	MENOMINEE	MI	498583162	YES	NO	NO	NO								325510						45.103972	-87.610813	065453169										1312210166789	N982	ZINC COMPOUNDS	TRI	Pounds																		NA									N 																																																			NO	MSHAFFER@NORTHERN-COATINGS.COM			YES	 	
2012	NO	48917PRNML5620M	LAND O'LAKES PURINA FEED LLC - LANSING	5620 MILLET HWY	LANSING	EATON	MI	48917	YES	NO	NO	NO								311119						42.663925	-84.661093	806578337								LAND O LAKES INC	006253835	1312210637563	N982	ZINC COMPOUNDS	TRI	Pounds																																																																														NO	RKLENTZ@LANDOLAKES.COM			YES	 	
2012	NO	49252SMPSN917AN	METALDYNE-LITCHFIELD OPERATIONS	917 ANDERSON RD	LITCHFIELD	HILLSDALE	MI	49252	YES	NO	NO	NO								336350						42.0319	-84.7576	045245149								METALDYNE POWERTRAIN COMPONENTS INC	119269827	1312210085078	007440020	NICKEL	TRI	Pounds																		NA									N 																																																			NO	LSCHNEIDER@METALDYNE.COM			YES	 	
2012	NO	49099WHTPG15781	WHITE PIGEON PAPER CO	15781 RIVER ST	WHITE PIGEON	ST JOSEPH	MI	49099	YES	NO	NO	NO								322130						41.7949	-85.6494	005214556								ARTISTIC CARTON CO	005214556	1312210185221	007439921	LEAD	TRI	Pounds																		W	H123								N 	E2																																																		NO	PSTOFER@WHITEPIGEONPAPER.COM			YES	 	
2012	NO	49093RMSTR816MA	ARMSTRONG INTERNATIONAL INC	816 MAPLE ST	THREE RIVERS	ST JOSEPH	MI	49093	YES	NO	NO	NO								332919						41.95496	-85.637436	005068028								ARMSTRONG GLOBAL HOLDING INC	005068028	1312210294334	007440020	NICKEL	TRI	Pounds																		NA									N 																																																			NO	GREG@ARMSTRONGINTERNATIONAL.COM			YES	 	
2012	NO	49221WCKRS3301S	WACKER CHEMICAL CORP	3301 SUTTON RD	ADRIAN	LENAWEE	MI	49221	YES	NO	NO	NO								325212						41.948	-83.9484	075400671								WACKER CHEMICAL CORP		1312210297103	007664417	AMMONIA	TRI	Pounds																		W	H040								N 	E5		A	A03								N 	E5																																						NO	BRYAN.ALEXANDER@WACKER.COM			NO	 	
2012	NO	49127SPRMC3389L	SUPREME CASTING INC	3389 LINCO RD	STEVENSVILLE	BERRIEN	MI	49127	YES	NO	NO	NO								331521						41.985556	-86.535	088740873								SUPREME CASTING INC	088740873	1312209939014	N100	COPPER COMPOUNDS	TRI	Pounds																		NA									N 																																																			NO	BOB@SUPREMECASTING.COM			YES	 	
2012	NO	48150STHWN118SE	SOUTHWIN - LIVONIA PLANT	11800 SEARS DR	LIVONIA	WAYNE	MI	48150	YES	NO	NO	NO								325998						42.37105	-83.34579	603552183								SOUTHWIN LTD	603552183	1312210070140	000067561	METHANOL	TRI	Pounds																		NA									N 																																																			NO	BDUBOSE@SOUTHWINLTD.COM			NO	 	
2012	NO	48911JTNG 5212A	SYMMETRY MEDICAL INC LANSING	5212 AURELIUS RD	LANSING	INGHAM	MI	48911	YES	NO	NO	NO								332112						42.681096	-84.523408	155271810								SYMMETRY MEDICAL INC	070987714	1312210424053	007697372	NITRIC ACID	TRI	Pounds																		W	H121								N 	E3		A	A03								N 	E5																																						NO	HEATHER.MONAGHAN@SYMMETRYMEDICAL.COM			NO	 	
2012	NO	49548PRMLT5252C	AGROPUR INC	5252 CLAY AVE	GRAND RAPIDS	KENT	MI	49548	YES	NO	NO	NO								311511						42.868959	-85.676901	030630507								AGROPUR INC		1312210783991	N511	NITRATE COMPOUNDS	TRI	Pounds																		NA									N 																																																			NO	KARAS@AGROPUR-US.COM			NO	 	
2012	NO	48026GDDNG17801	FAURECIA INTERIOR SYSTEMS - FRASER PLANT	17801 E 14 MILE RD	FRASER	MACOMB	MI	48026	YES	NO	NO	NO								336399						42.541702	-82.937698	602546777								FAURECIA	621228688	1312210528358	N120	DIISOCYANATES	TRI	Pounds																																																																														NO	BRADLEY.BURCZ@FAURECIA.COM			NO	 	
2012	NO	48809XTRDD302AS	MUELLER INDUSTRIES EXTRUDED METALS INC	302 ASHFIELD ST	BELDING	IONIA	MI	48809	YES	NO	NO	NO								331421						43.0997	-85.2231	121512013								MUELLER INDUSTRIES INC	632031748	1312210591398	N420	LEAD COMPOUNDS	PBT	Pounds																		W	H123	H101	H121						N 	E4																																																		NO	JDAVIDSON@MUELLERINDUSTRIES.COM			YES	 	
2012	NO	48906SHLND2011T	NEXEO SOLUTIONS LLC	2011 TURNER ST	LANSING	INGHAM	MI	48906	YES	NO	NO	NO								424690						42.756	-84.5519											1312210034625	000120821	1,2,4-TRICHLOROBENZENE	TRI	Pounds																		NA									N 																																																			NO	GARY_JACKSON@NEXEOSOLUTIONS.COM			NO	 	
2012	NO	48453DGPNC3260F	DGP INC	3260 FENNER ST	MARLETTE	SANILAC	MI	48453	YES	NO	NO	NO								326199						43.3228	-83.083											1312210254710	000100425	STYRENE	TRI	Pounds																		NA									N 																																																			NO	CCLARK@DGPINC.NET			NO	 	
2012	NO	48849SBWDB7795S	CARBON GREEN BIOENERGY	7795 SADDLEBAG LAKE RD	LAKE ODESSA	BARRY	MI	48849	YES	NO	NO	NO								325193						42.765834	-85.078	828745062										1312210024648	000075070	ACETALDEHYDE	TRI	Pounds																		NA									N 																																																			NO	BBOSCH@CGBIOENERGY.COM			NO	 	
2012	NO	49508VLLYC3353E	VALLEY CITY PLATING	3353 EASTERN AVE SE	GRAND RAPIDS	KENT	MI	495082404	YES	NO	NO	NO								332813						42.9051	-85.6477	006023378										1312210560898	N420	LEAD COMPOUNDS	PBT	Pounds																		S	H101								N 	E6		W	H071	H077	H123						N 	E6																																						NO	DAVEPELL@BRASSPLATER.COM			YES	 	
2012	NO	49221RVNMS915TA	ERVIN INDUSTRIES INC	915 TABOR ST	ADRIAN	LENAWEE	MI	49221	YES	NO	NO	NO								327910						41.8852	-84.0262	005043708								ERVIN INDUSTRIES INC	005337738	1312210664090	007439965	MANGANESE	TRI	Pounds																		NA									N 																																																			NO	JLEMON@ERVININDUSTRIES.COM			YES	 	
2012	NO	49045SPCLL88448	SPECIAL-LITE INC	860 S WILLIAMS ST	DECATUR	VAN BUREN	MI	49045	YES	NO	NO	NO								332321						42.094639	-85.971653	054647961										1312210451555	N120	DIISOCYANATES	TRI	Pounds																		NA									N 																																																			NO	STACEY_HOLLENBECK@SPECIAL-LITE.COM			NO	 	
2012	NO	49651LKCTY415NW	LC MANUFACTURING LLC	4150 N WOLCOTT RD	LAKE CITY	MISSAUKEE	MI	49651	YES	NO	NO	NO								332111						44.398333	-85.209722									M&B MFG LLC		1312209905619	007439965	MANGANESE	TRI	Pounds																		NA									N 																																																			NO	SSTEPHENS@LCFORGE.COM			YES	 	
2012	NO	48220MCDRM1221F	MACDERMID INC	1221 FARROW AVE	FERNDALE	OAKLAND	MI	48220	YES	NO	NO	NO								325998						42.456667	-83.118889	001164599								MACDERMID INC		1312210180927	007664417	AMMONIA	TRI	Pounds																		W	H077	H123	H101	H121	H071				N 	E5		A	A03	A07							N 	E4																																						NO	KBUDZIAK@MACDERMID.COM			NO	 	
2012	NO	49508LCKSN4260A	LACKS TRIM SYSTEMS - AIRLANE	4260 AIRLANE SE	KENTWOOD	KENT	MI	49512	YES	NO	NO	NO								332813	326199	336399				42.885575	-85.574189	118712306								LACKS ENTERPRISES INC	616811659	1312210265120	007697372	NITRIC ACID	TRI	Pounds																		A	A03								N 	E5		W	H129	H121	H071						N 	E1																																						NO	S.RADAKOVITZ@LACKSENTERPRISES.COM			NO	 	
2012	NO	48170CYGNT45889	CYGNET AUTOMATED CLEANING LLC	45889 MAST ST	PLYMOUTH	WAYNE	MI	48170	YES	NO	NO	NO								325510						42.3883	-83.4933	382929136								CYGNET AUTOMATED CLEANING LLC	382929136	1312210286833	000108883	TOLUENE	TRI	Pounds																		NA									N 																																																			NO	GEORGE@IBCRESOURCE.COM			NO	 	
2012	NO	48917LNSNG3725S	LANSING BOARD OF WATER & LIGHT -ERICKSON	3725 S CANAL RD	LANSING	INGHAM	MI	48917	YES	NO	NO	NO								221112						42.692364	-84.657362									LANSING BOARD OF WATER & LIGHT	809992055	1312210340954	N040	BARIUM COMPOUNDS	TRI	Pounds																		NA									N 																																																			NO	SXS@LBWL.COM			YES	 	
2012	NO	48217MRTHN1300S	MARATHON PETROLEUM CO LP - MICHIGAN REFINING DIV	1300 S FORT ST HES DEPT	DETROIT	WAYNE	MI	48217	YES	NO	NO	NO								324110						42.282182	-83.158756	962993101								MARATHON PETROLEUM CORP	968393996	1312210565533	N420	LEAD COMPOUNDS	PBT	Pounds																		W	H124	H129	H123						N 	E6		A	A01								N 	E6																																						NO	CTRUTUES@MARATHONPETROLEUM.COM			YES	 	
2012	NO	48054DTRTD4505K	DTE ELECTRIC CO - BELLE RIVER POWER PLANT (PART)	4505 KING RD	CHINA TOWNSHIP	ST CLAIR	MI	48054	NO	YES	NO	NO								221112						42.777428	-82.512405	197254725								DTE ENERGY CO		1312210333124	N150	DIOXIN AND DIOXIN-LIKE COMPOUNDS	DIOXIN	Grams																		NA									N 																																																			NO	BERRISR@DTEENERGY.COM			NO	 	
2012	NO	48768GRDVS700EH	METAVATION LLC	700 E HURON AVE	VASSAR	TUSCOLA	MI	48768	YES	NO	NO	NO								331511						43.3664	-83.571	608460820								REVSTONE INDUSTRIES LLC	787032916	1312210655066	007440508	COPPER	TRI	Pounds																		NA									N 																																																			NO	PBUJALSKI@REVSTONE.COM			YES	 	
2012	NO	48204PRKCH8074M	PARK METALLURGICAL CORP	8074 MILITARY AVE	DETROIT	WAYNE	MI	48204	YES	NO	NO	NO								325998						42.352648	-83.133771	001113463								HEATBATH CORP	001113463	1312210042432	007440508	COPPER	TRI	Pounds																																																																														NO				YES	 	
2012	NO	48218DTRTD1BELA	DTE ELECTRIC COMPANY- RIVER ROUGE POWER PLANT	1 BELANGER PARK DR	RIVER ROUGE	WAYNE	MI	48218	YES	NO	NO	NO								221112						42.2727	-83.1124	783638471								DTE ENERGY CO	839329158	1312210333567	N590	POLYCYCLIC AROMATIC COMPOUNDS	PBT	Pounds																		A	H121	A07	A05						N 	E6																																																		NO	BERRISR@DTEENERGY.COM			NO	 	
2012	NO	49120MRTHN2216S	MARATHON PETROLEUM CO - NILES MI TERMINAL	2216 S THIRD ST	NILES	BERRIEN	MI	491204010	YES	NO	NO	NO								424710						41.7889	-86.255	039348313								MARATHON PETROLEUM CORP	968393996	1312210399743	000110543	N-HEXANE	TRI	Pounds																		NA									N 																																																			NO	WGMOORE@MARATHONPETROLEUM.COM			NO	 	
2012	NO	48220GGPRD625WA	GAGE PRODUCTS CO	625 WANDA AVE	FERNDALE	OAKLAND	MI	48220	YES	NO	NO	NO								325510						42.451389	-83.114722	005355086		MID005338801								1312210685879	000091203	NAPHTHALENE	TRI	Pounds																		A	A02								N 	E4																																																		NO	JMILESKIY@GAGEPRODUCTS.COM			NO	 	
2012	NO	48393TMSPH30760	ATMOSPHERE HEAT TREATING	30760 CENTURY DR	WIXOM	OAKLAND	MI	48393	YES	NO	NO	NO								332811						42.5183	-83.5481	013317545								ATMOSPHERE HEAT TREATING		1312210040248	007632000	SODIUM NITRITE	TRI	Pounds																		NA									N 																																																			NO	SKIPJAMES@ATMOSPHEREHEATTREAT.COM			YES	 	
2012	NO	4866WSTYRN164BU	STYRON LLC - MI OPERATIONS	1604 BUILDING	MIDLAND	MIDLAND	MI	48667	YES	NO	NO	NO								325211						43.617297	-84.200045	833167310								STYRON LLC	833167310	1312210147563	000079061	ACRYLAMIDE	TRI	Pounds																		NA									N 																																																			NO	JNSCOTT@STYRON.COM			NO	 	
2012	NO	49091GRMMN1801S	MORGAN OLSON LLC	1801 S NOTTAWA RD	STURGIS	ST JOSEPH	MI	49091	YES	NO	NO	NO								336211						41.782546	-85.418619	135772668								JB POINDEXTER & CO INC	154280655	1312209929165	000071363	N-BUTYL ALCOHOL	TRI	Pounds																		NA									N 																																																			NO	STEVE.HART@MORGANOLSON.COM			NO	 	
2012	NO	48183DTRTD4695W	DTE ELECTRIC CO - TRENTON CHANNEL POWER PLANT	4695 W JEFFERSON AVE	TRENTON	WAYNE	MI	48183	YES	NO	NO	NO								221112						42.1237	-83.1812	120464540								DTE ENERGY CO	839329158	1312210333136	N458	MERCURY COMPOUNDS	PBT	Pounds																		A	A07	A05	H121						N 	E6		W	H123								N 	E2																																						NO	BERRISR@DTEENERGY.COM			YES	 	
2012	NO	48183DTRTD4695W	DTE ELECTRIC CO - TRENTON CHANNEL POWER PLANT	4695 W JEFFERSON AVE	TRENTON	WAYNE	MI	48183	YES	NO	NO	NO								221112						42.1237	-83.1812	120464540								DTE ENERGY CO	839329158	1312210333252	N770	VANADIUM COMPOUNDS	TRI	Pounds																		A	A07	A05	H121						N 	E3		W	H123								N 	E3																																						NO	BERRISR@DTEENERGY.COM			YES	 	
2012	NO	49445NRMCH1740W	BAYER CROPSCIENCE	1740 WHITEHALL RD	MUSKEGON	MUSKEGON	MI	49445	YES	NO	NO	NO								325320						43.285278	-86.261111	001350263								BAYER GROUP		1312210527750	000071363	N-BUTYL ALCOHOL	TRI	Pounds																		NA									N 																																																			NO	HAROLD.LOFTON@BAYER.COM			NO	 	
2012	NO	48212DLTRS17350	ALPHA RESINS INC	17350 RYAN RD	DETROIT	WAYNE	MI	48212	YES	NO	NO	NO								325211						42.421037	-83.062423									FAIRMOUNT MINERALS LTD	016909793	1312210661625	000091203	NAPHTHALENE	TRI	Pounds																		NA									N 																																																			NO	KNELSON@ALPHARESINS.COM			NO	 	
2012	NO	48422MCHGN159SO	MICHIGAN SUGAR CO - CROSW ELL FACTORY	159 S HOWARD	CROSWELL	SANILAC	MI	48422	YES	NO	NO	NO								311313						43.2668	-82.6154	103202128								MICHIGAN SUGAR CO		1312210060683	N420	LEAD COMPOUNDS	PBT	Pounds																		NA									N 																																																			NO	STEVEN.SMOCK@MICHIGANSUGAR.COM			YES	 	
2012	NO	48605SGNWG1629N	SAGINAW METAL CASTING OPERATIONS	1629 N WASHINGTON ST	SAGINAW	SAGINAW	MI	48601	YES	NO	NO	NO								331524						43.458488	-83.911394	015822497								GENERAL MOTORS LLC	831247536	1312210094429	007440020	NICKEL	TRI	Pounds																		NA									N 																																																			NO	SHARON.BASEL@GM.COM			YES	 	
2012	NO	48843DMNDC604SM	DIAMOND CHROME PLATING INC	604 S MICHIGAN AVE	HOWELL	LIVINGSTON	MI	48843	YES	NO	NO	NO								332813						42.602857	-83.932609	072128234								SUPERIOR INDUSTRIES INTERNATIONAL INC	005344913	1312210587388	N090	CHROMIUM COMPOUNDS(EXCEPT CHROMITE ORE MINED IN THE TRANSVAAL REGION)	TRI	Pounds																		W	H071	H075	H073	H121	H123	H101	H103		N 	E3																																																		NO	SALES@DIAMONDCHROMEPLATING.COM			YES	 	
2012	NO	49036CLMXS460JA	H C STARCK INC	460 JAY ST	COLDWATER	BRANCH	MI	49036	YES	NO	NO	NO								332117						41.9353	-85.0074	060091995										1312210165926	007440484	COBALT	TRI	Pounds																																																																														NO	LARRY.DAMRAU@HCSTARCK.COM			YES	 	
2012	NO	48217MRTHN1300S	MARATHON PETROLEUM CO LP - MICHIGAN REFINING DIV	1300 S FORT ST HES DEPT	DETROIT	WAYNE	MI	48217	YES	NO	NO	NO								324110						42.282182	-83.158756	962993101								MARATHON PETROLEUM CORP	968393996	1312210565457	000111422	DIETHANOLAMINE	TRI	Pounds																		W	H124	H129	H123						N 	E6																																																		NO	CTRUTUES@MARATHONPETROLEUM.COM			NO	 	
2012	NO	48217MRTHN1300S	MARATHON PETROLEUM CO LP - MICHIGAN REFINING DIV	1300 S FORT ST HES DEPT	DETROIT	WAYNE	MI	48217	YES	NO	NO	NO								324110						42.282182	-83.158756	962993101								MARATHON PETROLEUM CORP	968393996	1312210565596	000110543	N-HEXANE	TRI	Pounds																		W	H124	H129	H123						N 	E4		A	A07								N 	E3		A	A01								N 	E3																										NO	CTRUTUES@MARATHONPETROLEUM.COM			NO	 	
2012	NO	48054DTRTD4505K	DTE ELECTRIC CO - BELLE RIVER POWER PLANT (PART)	4505 KING RD	CHINA TOWNSHIP	ST CLAIR	MI	48054	NO	YES	NO	NO								221112						42.777428	-82.512405	197254725								DTE ENERGY CO		1312210332995	N020	ARSENIC COMPOUNDS	TRI	Pounds																		A	H121	A07	A05						N 	E3		W	H077	H123							N 	E3																																						NO	BERRISR@DTEENERGY.COM			YES	 	
2012	NO	48030KCJNS321WT	K C JONES PLATING CO	321 W TEN MILE RD	HAZEL PARK	OAKLAND	MI	48030	YES	NO	NO	NO								332813						42.475834	-83.106392	005511852										1312210667667	N106	CYANIDE COMPOUNDS	TRI	Pounds																		W	H071	H121	H073	H123	H101				N 	E4																																																		NO	BRIAN.HARRICK@KCJPLATING.COM			NO	 	
2012	NO	48030KCJNS321WT	K C JONES PLATING CO	321 W TEN MILE RD	HAZEL PARK	OAKLAND	MI	48030	YES	NO	NO	NO								332813						42.475834	-83.106392	005511852										1312210667679	N495	NICKEL COMPOUNDS	TRI	Pounds																		W	H071	H121	H073	H123	H101				N 	E5																																																		NO	BRIAN.HARRICK@KCJPLATING.COM			YES	 	
2012	NO	49518CNTRY2555B	COUNTRY FRESH LLC	2555 BUCHANAN AVE SW	GRAND RAPIDS	KENT	MI	49548	YES	NO	NO	NO								311511						42.917778	-85.6725	005869078								DEAN FOODS CO		1312210046165	007697372	NITRIC ACID	TRI	Pounds																		W	H121								N 	E5																																																		NO	DAVE_VANORDER@DEANFOODS.COM			NO	 	
2012	NO	48214MCKVN11570	MACK AVENUE ENGINE PLANT COMPLEX	11570 WARREN RD E	DETROIT	WAYNE	MI	48214	YES	NO	NO	NO								336312						42.383333	-82.975	005357959								CHRYSLER GROUP LLC	830966904	1312210354128	007440473	CHROMIUM	TRI	Pounds																		L	H129								N 	E5		W	H129	H123	H129						N 	E4																																						NO				YES	 	
2012	NO	49036MCRCY267NO	ALERIS RECYCLING INC	267 N FILLMORE RD	COLDWATER	BRANCH	MI	49036	YES	NO	NO	NO								331314						41.923	-85.035	963903278								ALERIS RECYCLING INC.	057896847	1312210417147	N420	LEAD COMPOUNDS	PBT	Pounds																		A	A06								N 	E4																																																		NO	JAMES.HOUSE@ALERIS.COM			YES	 	
2012	NO	49507PLYMR1415S	ARKEMA INC	1415 STEELE AVE SW	GRAND RAPIDS	KENT	MI	49507	YES	NO	NO	NO								325211						42.9378	-85.6761	002290773								ARKEMA INC.	002290773	1312210696086	000095636	1,2,4-TRIMETHYLBENZENE	TRI	Pounds																		A	H040								N 	E4																																																		NO	JEFF.MILLS@ARKEMA.COM			NO	 	
2012	NO	48055GNRLM4555G	GM ORION ASSEMBLY CENTER	4555 GIDDINGS RD	LAKE ORION	OAKLAND	MI	48359	YES	NO	NO	NO								336111						42.7158	-83.2607	007992886								GENERAL MOTORS LLC	831247536	1312210504546	N230	CERTAIN GLYCOL ETHERS	TRI	Pounds																		A	A07	H040							N 	E4		W	H124	H077	H123	H101					N 	E1																																						NO	SHARON.BASEL@GM.COM			NO	 	
2012	NO	49269MCHGN2400N	MICHIGAN AUTOMOTIVE COMPRESSOR  INC	2400 N DEARING RD	PARMA	JACKSON	MI	49269	YES	NO	NO	NO								336391						42.266599	-84.545102	606360444								TOYOTA INDUSTRIES N.A. & DENSO LTD		1312210224135	N982	ZINC COMPOUNDS	TRI	Pounds																		W	H124	H077	H101	H121	H123	H129			N 	E4		A	A07								N 	E4																																						NO	MCCULLAD@MICHAUTO.COM			YES	 	
2012	NO	48205NDSTR11900	3M CO - DETROIT	11900 E 8 MILE RD	DETROIT	WAYNE	MI	48205	YES	NO	NO	NO								327910						42.4478	-83.0029	055693618								3M CO	006173082	1312210374512	000095636	1,2,4-TRIMETHYLBENZENE	TRI	Pounds																		A	H040								N 	E4																																																		NO	EPCRA@MMM.COM			NO	 	
2012	NO	48768SPRRM763SA	SUPERIOR MATERIALS PLANT 22	7603 SAGINAW	VASSAR	TUSCOLA	MI	48768	YES	NO	NO	NO								327320						43.379547	-83.608574									SUPERIOR MATERIALS		1312210121190	000095636	1,2,4-TRIMETHYLBENZENE	TRI	Pounds																																																																														NO	MJWOLOSZYK@SUPERIORMATERIALS.NET			NO	 	
2012	NO	48458FLNTMG6065	MARATHON PETROLEUM CO - FLINT MI TERMINAL	G-6065 N DORT HWY	MOUNT MORRIS	GENESEE	MI	48458	YES	NO	NO	NO								424710						43.091667	-83.675	124826517								MARATHON PETROLEUM CORP	968393996	1312210400673	000191242	BENZO(G,H,I)PERYLENE	PBT	Pounds																		NA									N 																																																			NO	WGMOORE@MARATHONPETROLEUM.COM			NO	 	
2012	NO	4942WMRCNT3565H	AMERICAN AUTOCOAT INC	3565 HIGHLAND DR	HUDSONVILLE	OTTAWA	MI	49426	YES	NO	NO	NO								336399						42.8561	-85.8691											1312210417604	000071363	N-BUTYL ALCOHOL	TRI	Pounds																		A	H040								N 	E4																																																		NO	PFRISBIE@AMERICANAUTOCOAT.COM			NO	 	
2012	NO	49003MRCNC2715M	CYTEC INDUSTRIES INC	2715 MILLER RD	KALAMAZOO	KALAMAZOO	MI	490014176	YES	NO	NO	NO								325211						42.267517	-85.546532	001173467								CYTEC INDUSTRIES INC	809749948	1312210313476	N511	NITRATE COMPOUNDS	TRI	Pounds																		NA									N 																																																			NO	ALBERT.DUMOIS@CYTEC.COM			NO	 	
2012	NO	48111WYNDS49350	WAYNE DISPOSAL INC	49350 N I-94 SERVICE DR	BELLEVILLE	WAYNE	MI	48111	NO	YES	NO	NO								562211	562219	562998				42.21917	-83.522691	048090633	058972555	MID048090633		MI0056413				EQ HOLDING CO	022528553	1312210541470	N040	BARIUM COMPOUNDS	TRI	Pounds																		S	H111								N 	E4		A	A06	A07	A03						N 	E4																																						NO	BOB.DOYLE@EQONLINE.COM			YES	 	
2012	NO	48054DTRTD4901P	DTE ELECTRIC CO ST CLAIR POWER PLANT (PART)	4901 POINTE DR	EAST CHINA TOWNSHIP	ST CLAIR	MI	48054	NO	YES	NO	NO								221112						42.7748	-82.4945	021091061								DTE ENERGY CO	839329158	1312210333682	007664939	SULFURIC ACID (1994 AND AFTER "ACID AEROSOLS" ONLY)	TRI	Pounds																		A	H121	A07	A05						N 	E5																																																		NO	BERRISR@DTEENERGY.COM			NO	 	
2012	NO	4920WCHMTL11TEC	CHEMETALL US INC	1100 TECHNOLOGY DR	JACKSON	JACKSON	MI	49201	YES	NO	NO	NO								325611								055613120										1312210716559	007632000	SODIUM NITRITE	TRI	Pounds																		NA									N 																																																			NO	JESSY.CONARD@CHEMETALL.COM			YES	 	
2012	NO	49221HYDRT1400E	BIOLAB INC	1400 E MICHIGAN ST	ADRIAN	LENAWEE	MI	49221	YES	NO	NO	NO								325199						41.893611	-84.0175	178306551								CHEMTURA CORP	088400325	1312210337729	007664417	AMMONIA	TRI	Pounds																		A	A03								N 	E3		A	A03								N 	E4																																						NO	JOHN.POELSTRA@CHEMTURA.COM			NO	 	
2012	NO	48846MRCNB14NOR	VENTRA IONIA MAIN LLC	14 N BEARDSLEY RD	IONIA	IONIA	MI	48846	YES	NO	NO	NO								336399						42.985496	-85.030167	831144196								VENTRA GREENWICH HOLDINGS CORP		1312210520944	N090	CHROMIUM COMPOUNDS(EXCEPT CHROMITE ORE MINED IN THE TRANSVAAL REGION)	TRI	Pounds																		W	H077	H121	H071	H129	H122	H123	H101		N 	E2																																																		NO	NDAVIS@VENTRA.US			YES	 	
2012	NO	48551GMCTRG3100	GM LLC POWERTRAIN FLINT ENGINE OPERATIONS	2100 BRISTOL RD	FLINT	GENESEE	MI	48552	NO	YES	NO	NO								336112						42.985622	-83.716612	070628511	005356662							GENERAL MOTORS LLC	831247536	1312210418152	000071432	BENZENE	TRI	Pounds																		NA									N 																																																			NO	KIMBERLY.CARPENTER@GM.COM			NO	 	
2012	NO	49601CMCST23010	CADILLAC CASTING INC	1500 FOURTH AVE	CADILLAC	WEXFORD	MI	49601	YES	NO	NO	NO								331511						44.261866	-85.412914	617796029										1312210807487	007440666	ZINC (FUME OR DUST)	TRI	Pounds																		NA									N 																																																			NO				YES	 	
2012	NO	48034NTDPN24671	UNITED PAINT & CHEMICAL	24671 TELEGRAPH RD	SOUTHFIELD	OAKLAND	MI	48034	YES	NO	NO	NO								325510						42.4697	-83.2808	005323910										1312210479630	000872504	N-METHYL-2-PYRROLIDONE	TRI	Pounds																		NA									N 																																																			NO	GPICEU@POLYGCM.COM			NO	 	
2012	NO	49036LCHML368WG	ALERIS SPECIFICATION ALLOYS INC	368 W GARFIELD AVE	COLDWATER	BRANCH	MI	49036	YES	NO	NO	NO								331314						41.923	-85.035	963915959								ALERIS SPECIFICATION ALLOYS INC.	963598144	1312210417426	007782505	CHLORINE	TRI	Pounds																		A	A06								N 	E4																																																		NO	JAMES.HOUSE@ALERIS.COM			NO	 	
2012	NO	48077STRLN35777	DAIMLERCHRYSLER CORP STERLING STAMPING PLANT (PART)	35777 VAN DYKE	STERLING HEIGHTS	MACOMB	MI	48312	NO	YES	NO	NO								336370						42.556157	-83.033974	072782683								CHRYSLER GROUP LLC	001344928	1312210666525	007632000	SODIUM NITRITE	TRI	Pounds																		NA									N 																																																			NO				YES	 	
2012	NO	48686DWCRN3901S	DOW CORNING CORP MIDLAND PLANT	3901 S SAGINAW RD MAIL # 065	MIDLAND	MIDLAND	MI	486860995	YES	NO	NO	NO								325998						43.58891	-84.20784	005353487								DOW CORNING CORP	005353487	1312210665143	000563473	3-CHLORO-2-METHYL-1-PROPENE	TRI	Pounds																		A	A07								N 	E4																																																		NO	JEFFERY.LYNCH@DOWCORNING.COM			NO	 	
2012	NO	48686DWCRN3901S	DOW CORNING CORP MIDLAND PLANT	3901 S SAGINAW RD MAIL # 065	MIDLAND	MIDLAND	MI	486860995	YES	NO	NO	NO								325998						43.58891	-84.20784	005353487								DOW CORNING CORP	005353487	1312210665244	000110827	CYCLOHEXANE	TRI	Pounds																		A	A07								N 	E3																																																		NO	JEFFERY.LYNCH@DOWCORNING.COM			NO	 	
2012	NO	48229GRTLKNO1QU	US STEEL CORP GREAT LAKES WORKS	1 QUALITY DR	ECORSE	WAYNE	MI	48229	YES	NO	NO	NO								331111						42.281735	-83.110231	004320479								US STEEL CORP	029990699	1312210572208	008001589	CREOSOTE	TRI	Pounds																		NA									N 																																																			NO				NO	 	
2012	NO	48078CRTSC6645S	CURTIS METAL FINISHING CO	6645 SIMS DR	STERLING HEIGHTS	MACOMB	MI	483133726	YES	NO	NO	NO								332812						42.5883	-83.0424	091611897								COMMERCIAL STEEL TREATING CORP	005319405	1312210716698	N511	NITRATE COMPOUNDS	TRI	Pounds																		NA									N 																																																			NO	NORBERT.JAEGER@CURTISMETAL.COM			NO	 	
2012	NO	49657HYDRL411GE	HYDROLAKE INC	6151 W GERWOUDE DR	MC BAIN	MISSAUKEE	MI	49657	YES	NO	NO	NO								321114						44.1939	-85.212542	781246657										1312210004469	007440508	COPPER	TRI	Pounds																																																																														NO	TONY_FURLICH@U-S-S-CO.COM			YES	 	
2012	NO	49423TRNSM300EA	TRANS-MATIC MANUFACTURING CO INC	300 E 48TH ST	HOLLAND	ALLEGAN	MI	49423	YES	NO	NO	NO								332116						42.754643	-86.094324	044558328								TRANS-MATIC MANUFACTURING CO		1312210047383	007440020	NICKEL	TRI	Pounds																		A	A06								N 	E5																																																		NO	JHARTINGS@TRANSMATIC.COM			YES	 	
2012	NO	49441NNFRR1146N	NON-FERROUS CAST ALLOYS INC	1146 N GATEWAY BLVD	MUSKEGON	MUSKEGON	MI	49441	YES	NO	NO	NO								331524						43.144753	-86.216413	062236658										1312210331942	007439921	LEAD	TRI	Pounds																		NA									N 																																																			NO	DALE@NFCA.COM			YES	 	
2012	NO	48215CHRYL2101C	CHRYSLER JEFFERSON NORTH ASSEMBLY PLANT	2101 CONNOR AVE	DETROIT	WAYNE	MI	48215	YES	NO	NO	NO								336111						42.3747	-82.969	121848105								CHRYSLER GROUP LLC	830966904	1312210467003	007632000	SODIUM NITRITE	TRI	Pounds																		W	H129	H077	H123	H129	H121				N 	E1		W	H121								N 	E1																																						NO				YES	 	
2012	NO	49015TCHNC195BR	MUSASHI AUTO PARTS-MI INC	195 BRYDGES DR	BATTLE CREEK	CALHOUN	MI	49037	YES	NO	NO	NO								336350						42.34328	-85.277977											1312210605818	007440473	CHROMIUM	TRI	Pounds																		NA									N 																																																			NO				YES	 	
2012	NO	48091WRRNS22800	WARREN STAMPING PLANT	22800 MOUND RD	WARREN	MACOMB	MI	48091	NO	YES	NO	NO								336370						42.4611	-83.0436	005357900								CHRYSLER GROUP LLC	001344928	1312210334571	N230	CERTAIN GLYCOL ETHERS	TRI	Pounds																		NA									N 																																																			NO				NO	 	
2012	NO	49868LSNPC461MI	LOUISIANA-PACIFIC CORP NEWBERRY SIDING	461 MILLER RD 7299 N C.R. 403	NEWBERRY	LUCE	MI	49868	YES	NO	NO	NO								321219						46.335124	-85.494452	181200528								LOUISIANA PACIFIC CORP	061500534	1312210507265	000050000	FORMALDEHYDE	TRI	Pounds																		A	H040								N 	E5																																																		NO	KURT.CHAMBERLAIN@LPCORP.COM			NO	 	
2012	NO	48838KNTFN1413C	KENT FOUNDRY	1413 CALLAGHAN ST	GREENVILLE	MONTCALM	MI	48838	YES	NO	NO	NO								331511						43.1863	-85.2286	006022834										1312209996800	007439965	MANGANESE	TRI	Pounds																		NA									N 																																																			NO	SZINY@KENTFOUNDRY.COM			YES	 	
2012	NO	48906SHLND2011T	NEXEO SOLUTIONS LLC	2011 TURNER ST	LANSING	INGHAM	MI	48906	YES	NO	NO	NO								424690						42.756	-84.5519											1312210034664	000117817	DI(2-ETHYLHEXYL) PHTHALATE	TRI	Pounds																																																																														NO	GARY_JACKSON@NEXEOSOLUTIONS.COM			NO	 	
2012	NO	48060SPRRM13NRA	SUPERIOR MATERIALS PLANT 25	1300 N RANGE RD	PORT HURON	ST CLAIR	MI	48060	YES	NO	NO	NO								327320						42.94514	-82.50165									SUPERIOR MATERIALS		1312210121315	000098828	CUMENE	TRI	Pounds																																																																														NO	MJWOLOSZYK@SUPERIORMATERIALS.NET			NO	 	
2012	NO	48065RMRMN74000	ROMEO RIM INC - PLANTS 1 & 2	74000 VAN DYKE AVE	ROMEO	MACOMB	MI	48065	YES	NO	NO	NO								326199						42.839561	-83.018509	061750220								R MARK HAMLIN JR TRUST		1312210454551	000107211	ETHYLENE GLYCOL	TRI	Pounds																		NA									N 																																																			NO				NO	 	
2012	NO	48183CHRYS2000V	CHRYSLER TRENTON ENGINE PLANT	2000 VAN HORN	TRENTON	WAYNE	MI	48183	YES	NO	NO	NO								336312						42.1301	-83.1923	005358064								CHRYSLER GROUP LLC	830966904	1312210689269	007439921	LEAD	TRI	Pounds																		W	H124	H121	H123	H124	H081	H129			N 	E4																																																		NO				YES	 	
2012	NO	48183CHRYS2000V	CHRYSLER TRENTON ENGINE PLANT	2000 VAN HORN	TRENTON	WAYNE	MI	48183	YES	NO	NO	NO								336312						42.1301	-83.1923	005358064								CHRYSLER GROUP LLC	830966904	1312210689271	007440020	NICKEL	TRI	Pounds																		W	H124	H121	H123	H124	H081	H129			N 	E5																																																		NO				YES	 	
2012	NO	48174CHMCN13395	UNIVAR USA INC ROMULUS BRANCH	13395 HURON RIVER DR	ROMULUS	WAYNE	MI	481740906	YES	NO	NO	NO								424690						42.206574	-83.403378									UNIVAR USA INC	102971785	1312210324897	000110543	N-HEXANE	TRI	Pounds																		NA									N 																																																			NO	TIEN.PHAM@UNIVARUSA.COM			NO	 	
2012	NO	48043DPNTM400GR	AXALTA COATING SYSTEMS LLC - MOUNT CLEMENS PLANT	400 GROESBECK HWY	MOUNT CLEMENS	MACOMB	MI	48043	YES	NO	NO	NO								325510	325211					42.613141	-82.889814	606875391								AXALTA COATING SYSTEMS LLC	078611267	1312210641864	000584849	TOLUENE-2,4-DIISOCYANATE	TRI	Pounds																		NA									N 																																																			NO	JOSEPH.F.CAMPBELL@USA.DUPONT.COM			NO	 	
2012	NO	49508LCKSN4260A	LACKS TRIM SYSTEMS - AIRLANE	4260 AIRLANE SE	KENTWOOD	KENT	MI	49512	YES	NO	NO	NO								332813	326199	336399				42.885575	-85.574189	118712306								LACKS ENTERPRISES INC	616811659	1312210264990	N100	COPPER COMPOUNDS	TRI	Pounds																		W	H129	H121	H071						N 	E5		A	A03								N 	E5																																						NO	S.RADAKOVITZ@LACKSENTERPRISES.COM			YES	 	
2012	NO	49508LCKSN4260A	LACKS TRIM SYSTEMS - AIRLANE	4260 AIRLANE SE	KENTWOOD	KENT	MI	49512	YES	NO	NO	NO								332813	326199	336399				42.885575	-85.574189	118712306								LACKS ENTERPRISES INC	616811659	1312210265017	000050000	FORMALDEHYDE	TRI	Pounds																		A	A03								N 	E5		W	H129	H121	H071						N 	E6																																						NO	S.RADAKOVITZ@LACKSENTERPRISES.COM			NO	 	
2012	NO	48217MRTHN1300S	MARATHON PETROLEUM CO LP - MICHIGAN REFINING DIV	1300 S FORT ST HES DEPT	DETROIT	WAYNE	MI	48217	YES	NO	NO	NO								324110						42.282182	-83.158756	962993101								MARATHON PETROLEUM CORP	968393996	1312210565634	000127184	TETRACHLOROETHYLENE	TRI	Pounds																		A	A01								N 	E2																																																		NO	CTRUTUES@MARATHONPETROLEUM.COM			NO	 	
2012	NO	48827XSNNR1611H	AXSON TECHNOLOGIES US INC	1611 HULTS DR	EATON RAPIDS	EATON	MI	48827	YES	NO	NO	NO								325520						42.49282	-84.65169	965507064										1312210115782	N120	DIISOCYANATES	TRI	Pounds																																																																														NO	KBOSTWICK@AXSONTECH.US			NO	 	
2012	NO	48054DTRTD4505K	DTE ELECTRIC CO - BELLE RIVER POWER PLANT (PART)	4505 KING RD	CHINA TOWNSHIP	ST CLAIR	MI	48054	NO	YES	NO	NO								221112						42.777428	-82.512405	197254725								DTE ENERGY CO		1312210333199	N420	LEAD COMPOUNDS	PBT	Pounds																		A	H121	A07	A05						N 	E3		W	H077	H123							N 	E3																																						NO	BERRISR@DTEENERGY.COM			YES	 	
2012	NO	48030KCJNS321WT	K C JONES PLATING CO	321 W TEN MILE RD	HAZEL PARK	OAKLAND	MI	48030	YES	NO	NO	NO								332813						42.475834	-83.106392	005511852										1312210667655	N100	COPPER COMPOUNDS	TRI	Pounds																		W	H071	H121	H073	H123	H101				N 	E4																																																		NO	BRIAN.HARRICK@KCJPLATING.COM			YES	 	
2012	NO	48183MRTHN24400	MARATHON PIPE LINE LLC  WOODHAVEN TERMINAL	24400 ALLEN RD	WOODHAVEN	WAYNE	MI	48183	YES	NO	NO	NO								424710						42.130801	-83.228161	007902836								MARATHON PETROLEUM CORP	968393996	1312210714895	N590	POLYCYCLIC AROMATIC COMPOUNDS	PBT	Pounds																		A	A01								N 	E5																																																		NO	RWPRICE@MARATHONPETROLEUM.COM			NO	 	
2012	NO	49068WLKRM904IN	TENNECO	904 INDUSTRIAL RD	MARSHALL	CALHOUN	MI	49068	YES	NO	NO	NO								336399						42.266717	-84.97318	106754013								TENNECO INC	003118668	1312210578338	007440020	NICKEL	TRI	Pounds																		NA									N 																																																			NO	BGAMBLE2@TENNECO.COM			YES	 	
2012	NO	48192CDNPL3715E	CADON PLATING CO	3715 11TH ST	WYANDOTTE	WAYNE	MI	48192	YES	NO	NO	NO								332812	332813					42.195021	-83.165319	005339460										1312210792711	N230	CERTAIN GLYCOL ETHERS	TRI	Pounds																		A	A07								N 	E5																																																		NO	BRAGER@CADONPLATING.COM			NO	 	
2012	NO	49036SMCLD180AS	ASAMA COLDWATER MANUFACTURING	180 ASAMA PKWY	COLDWATER	BRANCH	MI	49036	YES	NO	NO	NO								331511						41.95158	-84.977226									ASAHI KASEI		1312210283988	007440508	COPPER	TRI	Pounds																		A	A06								N 	E4																																																		NO	MARK_CONTI@ASAMACM.COM			YES	 	
2012	NO	48055GNRLM4555G	GM ORION ASSEMBLY CENTER	4555 GIDDINGS RD	LAKE ORION	OAKLAND	MI	48359	YES	NO	NO	NO								336111						42.7158	-83.2607	007992886								GENERAL MOTORS LLC	831247536	1312210504534	000071432	BENZENE	TRI	Pounds																		A	A07	H040							N 	E5																																																		NO	SHARON.BASEL@GM.COM			NO	 	
2012	NO	48220GGPRD625WA	GAGE PRODUCTS CO	625 WANDA AVE	FERNDALE	OAKLAND	MI	48220	YES	NO	NO	NO								325510						42.451389	-83.114722	005355086		MID005338801								1312210685828	000067561	METHANOL	TRI	Pounds																		A	A02								N 	E4																																																		NO	JMILESKIY@GAGEPRODUCTS.COM			NO	 	
2012	NO	48912BLDRS1384L	BUILDERS READY MIX PLANT 14	1384 LAKE LANSING RD	LANSING	INGHAM	MI	48912	YES	NO	NO	NO								327320						42.759167	-84.532222											1312210114296	000095636	1,2,4-TRIMETHYLBENZENE	TRI	Pounds																																																																														NO	MJWOLOSZYK@SUPERIORMATERIALS.NET			NO	 	
2012	NO	48183DTRTD4695W	DTE ELECTRIC CO - TRENTON CHANNEL POWER PLANT	4695 W JEFFERSON AVE	TRENTON	WAYNE	MI	48183	YES	NO	NO	NO								221112						42.1237	-83.1812	120464540								DTE ENERGY CO	839329158	1312210333050	007664393	HYDROGEN FLUORIDE	TRI	Pounds																		A	A07	A05	H121						N 	E6																																																		NO	BERRISR@DTEENERGY.COM			NO	 	
2012	NO	48077STRLN38111	CHRYSLER STERLING HEIGHTS ASSEMBLY PLANT	38111 VAN DYKE	STERLING HEIGHTS	MACOMB	MI	48312	YES	NO	NO	NO								336111						42.57361	-83.02969	108426180								CHRYSLER GROUP LLC	830966904	1312210367532	000071432	BENZENE	TRI	Pounds																		NA									N 																																																			NO				NO	 	
2012	NO	48506MDSTT624KE	MID STATE PLATING CO	602 KELSO ST	FLINT	GENESEE	MI	48506	YES	NO	NO	NO								332813						43.020555	-83.65203	041812538										1312210355855	007697372	NITRIC ACID	TRI	Pounds																		W	H077								N 	E1																																																		NO	DAVE@MIDSTATEPLATING.COM			NO	 	
2012	NO	49431GRTLK800NW	GREAT LAKES CASTINGS LLC	800 N WASHINGTON AVE	LUDINGTON	MASON	MI	494312724	YES	NO	NO	NO								331511						43.964986	-86.439498	006016935								REPUBLIC FINANCIAL CORP	055610216	1312210584886	N450	MANGANESE COMPOUNDS	TRI	Pounds																		W	H077	H101	H111	H121	H123				N 	E6		A	A03								N 	E6																																						NO	RKILLIPS@GREATLAKESCASTINGS.COM			YES	 	
2012	NO	48079KZSLT916SO	CARGILL SALT SAINT CLAIR	916 S RIVERSIDE AVE	SAINT CLAIR	ST CLAIR	MI	48079	YES	NO	NO	NO								311942						42.8184	-82.4858	006249189								CARGILL INC	006249189	1312210084392	007647010	HYDROCHLORIC ACID (1995 AND AFTER "ACID AEROSOLS" ONLY)	TRI	Pounds																		NA									N 																																																			NO	KEITH_KLUG@CARGILL.COM			NO	 	
2012	NO	48921GMCGL920TO	GMVM-LANSING GRAND RIVER ASSEMBLY	920 TOWNSEND ST MAIL CODE: 489-066-600	LANSING	INGHAM	MI	48933	YES	NO	NO	NO								336111						42.724042	-84.555676	125356613								GENERAL MOTORS LLC	831247536	1312210549578	000095636	1,2,4-TRIMETHYLBENZENE	TRI	Pounds																		W	H129	H121	H077	H123	H101				N 	E1		A	A07								N 	E4																																						NO	SHARON.BASEL@GM.COM			NO	 	
2012	NO	48921GMCGL920TO	GMVM-LANSING GRAND RIVER ASSEMBLY	920 TOWNSEND ST MAIL CODE: 489-066-600	LANSING	INGHAM	MI	48933	YES	NO	NO	NO								336111						42.724042	-84.555676	125356613								GENERAL MOTORS LLC	831247536	1312210549679	007632000	SODIUM NITRITE	TRI	Pounds																		W	H129	H121	H077	H123	H101				N 	E1																																																		NO	SHARON.BASEL@GM.COM			YES	 	
2012	NO	48228PPRTL9100F	HOUGHTON INTERNATIONAL INC	9100 FREELAND AVE	DETROIT	WAYNE	MI	48228	YES	NO	NO	NO								324191						42.363648	-83.183537	003264405								HOUGHTON INTERNATIONAL INC	002261535	1312210663338	007632000	SODIUM NITRITE	TRI	Pounds																		W	H124	H121	H077	H101					N 	E6																																																		NO	DON.TESIN@HOUGHTONINTL.COM			YES	 	
2012	NO	49855PRSQS2701L	PRESQUE ISLE POWER PLANT	2701 LAKESHORE BLVD	MARQUETTE	MARQUETTE	MI	49855	YES	NO	NO	NO								221112						46.58136	-87.39518	007947385								WISCONSIN ENERGY CORP	157305780	1312210133726	007647010	HYDROCHLORIC ACID (1995 AND AFTER "ACID AEROSOLS" ONLY)	TRI	Pounds																		A	A05	A07							N 	E5																																																		NO	DONNA.DANIHEL@WE-ENERGIES.COM			NO	 	
2012	NO	49855PRSQS2701L	PRESQUE ISLE POWER PLANT	2701 LAKESHORE BLVD	MARQUETTE	MARQUETTE	MI	49855	YES	NO	NO	NO								221112						46.58136	-87.39518	007947385								WISCONSIN ENERGY CORP	157305780	1312210133740	N420	LEAD COMPOUNDS	PBT	Pounds																		W	H123								N 	E4		A	A05	A07							N 	E3																																						NO	DONNA.DANIHEL@WE-ENERGIES.COM			YES	 	
2012	NO	48217DWCLV13800	EDW C LEVY CO - PLANT 6	13800 MELLON	DETROIT	WAYNE	MI	48217	YES	NO	NO	NO								327992						42.2925	-83.1627									EDW C LEVY CO	005354816	1312210598443	N420	LEAD COMPOUNDS	PBT	Pounds																		NA									N 																																																			NO	TGREEN@EDWCLEVY.NET			YES	 	
2012	NO	48732DKRNJNWEAD	DE KARN JC WEADOCK GENERATING PLANT	N WEADOCK HWY	ESSEXVILLE	BAY	MI	48732	YES	NO	NO	NO								221112						43.64403	-83.840328	149954919								CMS ENERGY	006959803	1312210506364	N100	COPPER COMPOUNDS	TRI	Pounds																		A	A05	A07							N 	E3																																																		NO	MARY.KULIS@CMSENERGY.COM			YES	 	
2012	NO	49444WBBCH2708J	WEBB CHEMICAL SERVICE CORP	2708 JARMAN	MUSKEGON HEIGHTS	MUSKEGON	MI	49444	YES	NO	NO	NO								424690						43.202338	-86.231066	006410740										1312210144883	000107211	ETHYLENE GLYCOL	TRI	Pounds																		W	H121								N 	E6																																																		NO	TFINKLER@WEBBCHEMICAL.COM			NO	 	
2012	NO	48706BYCTY1806M	MARATHON PETROLEUM CO - BAY CITY MI TERMINAL	1806 MARQUETTE ST	BAY CITY	BAY	MI	48706	YES	NO	NO	NO								424710						43.6169	-83.8658	020658741								MARATHON PETROLEUM CORP	968393996	1312210278127	N590	POLYCYCLIC AROMATIC COMPOUNDS	PBT	Pounds																		A	A01								N 	E3																																																		NO	WGMOORE@MARATHONPETROLEUM.COM			NO	 	
2012	NO	49801THNLSONENE	NELSON PAINT CO OF MICHIGAN	ONE NELSON DR	KINGSFORD	DICKINSON	MI	49802	YES	NO	NO	NO								325510						45.805687	-88.067454	006134431										1312210071193	000067561	METHANOL	TRI	Pounds																		NA									N 																																																			NO	FRIEDENSTABJ@NELSONPAINT.COM			NO	 	
2012	NO	4950WPRDGN5CTTA	PRIDGEON & CLAY INC	50 COTTAGE GROVE ST SW	GRAND RAPIDS	KENT	MI	49507	YES	NO	NO	NO								336370						42.93543	-85.66863	006012330								PRIDGEON & CLAY INC.	006012330	1312210422578	007632000	SODIUM NITRITE	TRI	Pounds																		NA									N 																																																			NO	JLAHUIS@PRIDGEONANDCLAY.COM			YES	 	
2012	NO	48667THDWCMICHI	THE DOW CHEMICAL CO	1790 BUILDING	MIDLAND	MIDLAND	MI	48667	YES	NO	NO	NO								325199	325211	325320				43.6003	-84.2234	877223370								THE DOW CHEMICAL CO	001381581	1312210575407	001928434	2,4-D 2-ETHYLHEXYL ESTER	TRI	Pounds																		L	H040	H077							N 	E1		S	H040	H077							N 	E1																																						NO	MORLOCK@DOW.COM			NO	 	
2012	NO	48316FRCTM6226M	SHELBY FOAM SYSTEM	6200 26 MILE RD	SHELBY TOWNSHIP	MACOMB	MI	48316	YES	NO	NO	NO								326150						42.713	-83.0522									INTIER AUTOMOTIVE OF AMERICA HOLDINGS INC.		1312210549782	N120	DIISOCYANATES	TRI	Pounds																		NA									N 																																																			NO				NO	 	
2012	NO	49001THPJH7171P	PHARMACIA & UPJOHN CO LLC A SUBSIDIARY OF PFIZER INC	7171 PORTAGE RD	KALAMAZOO	KALAMAZOO	MI	49001	YES	NO	NO	NO								325412						42.213044	-85.556083	007702681								PFIZER INC	001326495	1312210674634	000064186	FORMIC ACID	TRI	Pounds																		W	H121	H123							N 	E1		W	H123								N 	E6		A	A07	A03							N 	E4																										NO	CHRISTOPHER.LODER@PFIZER.COM			NO	 	
2012	NO	49464BLMRF83009	HILLSHIRE BRANDS - ZEELAND	8300 96TH AVE	ZEELAND	OTTAWA	MI	49464	YES	NO	NO	NO								311612						42.918611	-86.028611	168838480								HILLSHIRE BRANDS CO	005213962	1312210059085	N511	NITRATE COMPOUNDS	TRI	Pounds																		W	H081	H101	H123	H129	H077	H121			N 	E5																																																		NO	ROSS.MYERS@HILLSHIREBRANDS.COM			NO	 	
2012	NO	48077STRLN35777	DAIMLERCHRYSLER CORP STERLING STAMPING PLANT (PART)	35777 VAN DYKE	STERLING HEIGHTS	MACOMB	MI	48312	NO	YES	NO	NO								336370						42.556157	-83.033974	072782683								CHRYSLER GROUP LLC	001344928	1312210666549	001330207	XYLENE (MIXED ISOMERS)	TRI	Pounds																		NA									N 																																																			NO				NO	 	
2012	NO	48332CCNTR23435	ACE CONTROLS INC	23435 INDUSTRIAL PARK DR	FARMINGTON HILLS	OAKLAND	MI	48335	YES	NO	NO	NO								333995						42.46256	-83.41934	006405419								KAYDON CORP	101633782	1312210587782	007439921	LEAD	TRI	Pounds																		NA									N 																																																			NO	VPULTORAK@ACECONTROLS.COM			YES	 	
2012	NO	48686DWCRN3901S	DOW CORNING CORP MIDLAND PLANT	3901 S SAGINAW RD MAIL # 065	MIDLAND	MIDLAND	MI	486860995	YES	NO	NO	NO								325998						43.58891	-84.20784	005353487								DOW CORNING CORP	005353487	1312210665321	000110543	N-HEXANE	TRI	Pounds																		A	A07								N 	E3																																																		NO	JEFFERY.LYNCH@DOWCORNING.COM			NO	 	
2012	NO	48211RCLLY1891T	ARCO ALLOYS CORP	1891 TROMBLY	DETROIT	WAYNE	MI	48211	YES	NO	NO	NO								331492						42.374238	-83.053722	005378930										1312210187504	007440508	COPPER	TRI	Pounds																																																																														NO	DARONOW@ARCOALLOYS.COM			YES	 	
2012	NO	49858LJNSC12003	LE JONES CO LLC	1200 34TH ST	MENOMINEE	MENOMINEE	MI	49858	YES	NO	NO	NO								331528	332721					45.12962	-87.618626	006134183								L.E. JONES INTERNATIONAL CO LLC		1312210256335	007440020	NICKEL	TRI	Pounds																		NA									N 																																																			NO	PMELLING@LEJONES.COM			YES	 	
2012	NO	49441CWCCS2672H	CWC TEXTRON	1085 W SHERMAN BLVD	MUSKEGON	MUSKEGON	MI	494413588	YES	NO	NO	NO								331511						43.2029	-86.263038	006030357		MID006030357		MIG250337				TEXTRON INC	001339879	1312210695298	007440020	NICKEL	TRI	Pounds																		NA									N 																																																			NO	BOB.MEACHAM@KAUTEX.TEXTRON.COM			YES	 	
2012	NO	49221GNRLM1450E	INTEVA PRODUCTS - ADRIAN OPERATIONS	1450 E BEECHER ST	ADRIAN	LENAWEE	MI	49221	YES	NO	NO	NO								336360						41.8895	-84.0142	084571256								THE RENCO GROUP INC	000173278	1312210616405	000108883	TOLUENE	TRI	Pounds																		S	H129								N 	E4																																																		NO	KWELCH@INTEVAPRODUCTS.COM			NO	 	
2012	NO	49707BTBPR416FO	DECORATIVE PANELS INTERNATIONAL	416 FORD AVE	ALPENA	ALPENA	MI	49707	YES	NO	NO	NO								321219						45.064036	-83.424389	148288868								AMERICAN STANDARD BRANDS	809119709	1312210678468	000050000	FORMALDEHYDE	TRI	Pounds																		A	H081	H040	A03						N 	E5																																																		NO				NO	 	
2012	NO	48174CHMCN13395	UNIVAR USA INC ROMULUS BRANCH	13395 HURON RIVER DR	ROMULUS	WAYNE	MI	481740906	YES	NO	NO	NO								424690						42.206574	-83.403378									UNIVAR USA INC	102971785	1312210324962	000091203	NAPHTHALENE	TRI	Pounds																		NA									N 																																																			NO	TIEN.PHAM@UNIVARUSA.COM			NO	 	
2012	NO	49512DSLTC43004	ROBERT BOSCH FUEL SYSTEMS LLC	4700 BROADMOOR ST SE	KENTWOOD	KENT	MI	49512	YES	NO	NO	NO								336399						42.883617	-85.560279	194894572								ROBERT BOSCH N.A.	037041076	1312210717563	007440473	CHROMIUM	TRI	Pounds																		NA									N 																																																			NO	BECKY.MACDONALD@US.BOSCH.COM			YES	 	
2012	NO	49252MCHGN720HE	MICHIGAN SOUTH CENTRAL POWER AGENCY	720 HERRING RD	LITCHFIELD	HILLSDALE	MI	49252	YES	NO	NO	NO								221112						42.0318	-84.755	094798121										1312210687428	007439976	MERCURY	PBT	Pounds																		NA									N 																																																			NO	BURKM@MSCPA.NET			YES	 	
2012	NO	49508LCTRC379FO	ELECTRO CHEMICAL FINISHING CO	379 44TH ST SW	WYOMING	KENT	MI	49548	YES	NO	NO	NO								332813						42.884423	-85.674707	085889459								ELECTRO CHEMICAL FINISHING CO		1312210819710	N420	LEAD COMPOUNDS	PBT	Pounds																		W	H071	H077	H121	H101	H122				N 	E5																																																		NO	SHULST@ECFINC.COM			YES	 	
2012	NO	4810WSPRRM91SWA	SUPERIOR MATERIALS 38	901 S WAGNER RD	ANN ARBOR	WASHTENAW	MI	48103	YES	NO	NO	NO								327320						42.273248	-83.798198									SUPERIOR MATERIALS		1312210215733	N511	NITRATE COMPOUNDS	TRI	Pounds																																																																														NO	MJWOLOSZYK@SUPERIORMATERIALS.NET			NO	 	
2012	NO	48341KZCTN2527B	AKZONOBEL COATINGS INC	120 FRANKLIN RD	PONTIAC	OAKLAND	MI	48341	YES	NO	NO	NO								325510						42.6263	-83.2891	119274454								AKZO NOBEL NV	021973748	1312210657223	001330207	XYLENE (MIXED ISOMERS)	TRI	Pounds																		NA									N 																																																			NO	PETER.ONYSKIW@AKZONOBEL.COM			NO	 	
2012	NO	48838FDRLM510EG	FEDERAL-MOGUL POWERTRAIN	510 E GROVE ST	GREENVILLE	MONTCALM	MI	48838	YES	NO	NO	NO								336312						43.180789	-85.24554	175796464								FEDERAL MOGUL CORP	006557045	1312210808097	007440508	COPPER	TRI	Pounds																		W	H077	H129	H123	H121	H129	H101			N 	E3																																																		NO	SHANDA.JENNINGS@FEDERALMOGUL.COM			YES	 	
2012	NO	48184FRDMT38303	FORD MOTOR CO MICHIGAN ASSEMBLY PLANT	38303 MICHIGAN AVE	WAYNE	WAYNE	MI	48184	YES	NO	NO	NO								336112						42.26666	-83.4	120551403								FORD MOTOR CO	001344746	1312210292254	000107211	ETHYLENE GLYCOL	TRI	Pounds																		W	H123	H077	H124	H121	H101				N 	E6																																																		NO	JNOWAK2@FORD.COM			NO	 	
2012	NO	48055GNRLM4555G	GM ORION ASSEMBLY CENTER	4555 GIDDINGS RD	LAKE ORION	OAKLAND	MI	48359	YES	NO	NO	NO								336111						42.7158	-83.2607	007992886								GENERAL MOTORS LLC	831247536	1312210504647	000071363	N-BUTYL ALCOHOL	TRI	Pounds																		A	A07	H040							N 	E4																																																		NO	SHARON.BASEL@GM.COM			NO	 	
2012	NO	48342FRBRN15SIL	FREIBORNE INDUSTRIES INC	15 W SILVERDOME INDUSTRIAL PARK	PONTIAC	OAKLAND	MI	48342	YES	NO	NO	NO								325510	325611					42.641667	-83.258889	020839767										1312210579936	N982	ZINC COMPOUNDS	TRI	Pounds																																																																														NO	INFO@FREIBORNE.COM			YES	 	
2012	NO	48184MRCNJ34136	AMERICAN JETWAY CORP	34136 MYRTLE	WAYNE	WAYNE	MI	48184	YES	NO	NO	NO								325998						42.279167	-83.375073	049266521										1312210638351	000100414	ETHYLBENZENE	TRI	Pounds																		NA									N 																																																			NO	GJONES@AMERICANJETWAY.COM			NO	 	
2012	NO	48184MRCNJ34136	AMERICAN JETWAY CORP	34136 MYRTLE	WAYNE	WAYNE	MI	48184	YES	NO	NO	NO								325998						42.279167	-83.375073	049266521										1312210638490	001330207	XYLENE (MIXED ISOMERS)	TRI	Pounds																		NA									N 																																																			NO	GJONES@AMERICANJETWAY.COM			NO	 	
2012	NO	48817MCGNN1021N	MACHINE TOOL & GEAR INC	1021 N SHIAWASSEE	CORUNNA	SHIAWASSEE	MI	48817	YES	NO	NO	NO								336350						42.994195	-84.119968	933479446		MID058825258						NEWCOR	835536699	1312210830434	007440020	NICKEL	TRI	Pounds																		NA									N 																																																			NO	DOCHODNICKY@NEWCOR.COM			YES	 	
2012	NO	48120DBLGL3000M	DOUBLE EAGLE STEEL COATING CO	3000 MILLER RD	DEARBORN	WAYNE	MI	48120	YES	NO	NO	NO								332812						42.308891	-83.156689	131430183								DOUBLE EAGLE STEEL COATING CO	131430183	1312210239962	007440666	ZINC (FUME OR DUST)	TRI	Pounds																		NA									N 																																																			NO	HOWARD@DESCC.COM			YES	 	
2012	NO	49707LFRGCFORDA	LAFARGE MIDWEST INC	1435 FORD AVE	ALPENA	ALPENA	MI	49707	YES	NO	NO	NO								327310						45.072443	-83.404362	555427079								LAFARGE N.A. INC	050622018	1312210461404	N450	MANGANESE COMPOUNDS	TRI	Pounds																		A	A06								N 	E3																																																		NO	GIL.PETERSON@LAFARGE-NA.COM			YES	 	
