TRIFID	DOCUMENT CONTROL NUMBER	CAS NUMBER	CHEMICAL NAME	CLASSIFICATION	UNIT OF MEASURE	DIOXIN DISTRIBUTION 1	DIOXIN DISTRIBUTION 2	DIOXIN DISTRIBUTION 3	DIOXIN DISTRIBUTION 4	DIOXIN DISTRIBUTION 5	DIOXIN DISTRIBUTION 6	DIOXIN DISTRIBUTION 7	DIOXIN DISTRIBUTION 8	DIOXIN DISTRIBUTION 9	DIOXIN DISTRIBUTION 10	DIOXIN DISTRIBUTION 11	DIOXIN DISTRIBUTION 12	DIOXIN DISTRIBUTION 13	DIOXIN DISTRIBUTION 14	DIOXIN DISTRIBUTION 15	DIOXIN DISTRIBUTION 16	DIOXIN DISTRIBUTION 17	REPORTING YEAR	TRADE SECRET INDICATOR	FACILITY NAME	FACILITY STREET	FACILITY CITY	FACILITY COUNTY	FACILITY STATE	FACILITY ZIP CODE	ENTIRE FACILITY IND	PARTIAL FACILITY IND	FEDERAL FACILITY IND	GOCO FACILITY IND	PRIMARY SIC CODE	SIC CODE 2	SIC CODE 3	SIC CODE 4	SIC CODE 5	SIC CODE 6	NAICS ORIGIN	PRIMARY NAICS CODE	NAICS CODE 2	NAICS CODE 3	NAICS CODE 4	NAICS CODE 5	NAICS CODE 6	LATITUDE	LONGITUDE	DB NR A	DB NR B	RCRA NR A	RCRA NR B	NPDES NR A	NPDES NR B	UIC NR A	UIC NR B	PARENT COMPANY NAME	PARENT COMPANY DB NR	TOTAL POTW TRANSFERS	BASIS OF ESTIMATE FOR POTWS	POTW A - NAME	POTW A - ADDRESS	POTW A - CITY	POTW A - STATE	POTW A - COUNTY	POTW A - ZIP	POTW B - NAME	POTW B - ADDRESS	POTW B - CITY	POTW B - STATE	POTW B - COUNTY	POTW B - ZIP	ASSIGNED FED. FACILITY FLAG	PUBLIC CONTACT EMAIL	REVISION CODE 1	REVISION CODE 2	METAL INDICATOR	20-NOV-13	
4817WTLSTB1311E	1312210235812	007439965	MANGANESE	TRI	Pounds																		2012	NO	ATLAS TUBE- PLYMOUTH PLANT	13101 ECKLES RD	PLYMOUTH	WAYNE	MI	48170	YES	NO	NO	NO								331210	332312					42.37988	-83.43116									JMC STEEL GROUP		0		NA												NO	KIMBERLY.HAWKINS@JMCSTEEL.COM			YES	 	
48150MCGNR38521	1312210281667	N090	CHROMIUM COMPOUNDS(EXCEPT CHROMITE ORE MINED IN THE TRANSVAAL REGION)	TRI	Pounds																		2012	NO	MCGEAN-ROHCO INC	38521 SCHOOLCRAFT AVE	LIVONIA	WAYNE	MI	48150	YES	NO	NO	NO								325998						42.381533	-83.422822	069820181								MCGEAN-ROHCO INC	071112593	31	M1	DETROIT WWTP-CHLORINATION/DECHLORINATION FACILITY	9300 WEST JEFFERSON AVENUE	DETROIT	MI	WAYNE	482092676							NO	TOM.EDMUNDS@MCGEAN.COM			YES	 	
48150MCGNR38521	1312210281782	N511	NITRATE COMPOUNDS	TRI	Pounds																		2012	NO	MCGEAN-ROHCO INC	38521 SCHOOLCRAFT AVE	LIVONIA	WAYNE	MI	48150	YES	NO	NO	NO								325998						42.381533	-83.422822	069820181								MCGEAN-ROHCO INC	071112593	3500	E2	DETROIT WWTP-CHLORINATION/DECHLORINATION FACILITY	9300 WEST JEFFERSON AVENUE	DETROIT	MI	WAYNE	482092676							NO	TOM.EDMUNDS@MCGEAN.COM			NO	 	
48184FRDMT38303	1312210292165	007440508	COPPER	TRI	Pounds																		2012	NO	FORD MOTOR CO MICHIGAN ASSEMBLY PLANT	38303 MICHIGAN AVE	WAYNE	WAYNE	MI	48184	YES	NO	NO	NO								336112						42.26666	-83.4	120551403								FORD MOTOR CO	001344746	0		NA												NO	JNOWAK2@FORD.COM			YES	 	
48066HFLYM15500	1312210373116	007440473	CHROMIUM	TRI	Pounds																		2012	NO	GLOBAL ROLLFORMING SYSTEMS	15500 12 MILE RD	ROSEVILLE	MACOMB	MI	48066	YES	NO	NO	NO								336399						42.508737	-82.964896	789000473								GLOBAL AUTOMOTIVE SYSTEMS	614897440	0		NA												NO	KEVIN.MEGER@GLOBALAUTOSYS.COM			YES	 	
4866WSTYRN164BU	1312210147599	000141322	BUTYL ACRYLATE	TRI	Pounds																		2012	NO	STYRON LLC - MI OPERATIONS	1604 BUILDING	MIDLAND	MIDLAND	MI	48667	YES	NO	NO	NO								325211						43.617297	-84.200045	833167310								STYRON LLC	833167310	0		NA												NO	JNSCOTT@STYRON.COM			NO	 	
48077STRLN38111	1312210367557	N120	DIISOCYANATES	TRI	Pounds																		2012	NO	CHRYSLER STERLING HEIGHTS ASSEMBLY PLANT	38111 VAN DYKE	STERLING HEIGHTS	MACOMB	MI	48312	YES	NO	NO	NO								336111						42.57361	-83.02969	108426180								CHRYSLER GROUP LLC	830966904	0		NA												NO				NO	 	
48139PRGRS10850	1312210851515	007440473	CHROMIUM	TRI	Pounds																		2012	NO	PROGRESSIVE METAL FORMING INC	10850 HALL RD	HAMBURG	LIVINGSTON	MI	48139	YES	NO	NO	NO								332116						42.44694	-83.79416	005498423										0		NA												NO	THERESA@PMFDRAW.COM			YES	 	
4950WGRSPR76BND	1312210558538	007440508	COPPER	TRI	Pounds																		2012	NO	GR SPRING & STAMPING INC	706 BOND AVE NW	GRAND RAPIDS	KENT	MI	49503	YES	NO	NO	NO								336370						42.975236	-85.671412									HZ INDUSTRIES	006018311	0		NA												NO	JENNIFERROBINSON@GRS-S.COM			YES	 	
48218SCKBT14ZUG	1312210774598	000074851	ETHYLENE	TRI	Pounds																		2012	NO	EES COKE BATTERY LLC	1400 ZUG ISLAND	RIVER ROUGE	WAYNE	MI	48218	YES	NO	NO	NO								324199						42.29	-83.11	876235490								DTE ENERGY CO	839329158	0		NA												NO				NO	 	
48458FLNTMG6065	1312210400848	000110543	N-HEXANE	TRI	Pounds																		2012	NO	MARATHON PETROLEUM CO - FLINT MI TERMINAL	G-6065 N DORT HWY	MOUNT MORRIS	GENESEE	MI	48458	YES	NO	NO	NO								424710						43.091667	-83.675	124826517								MARATHON PETROLEUM CORP	968393996	0		NA												NO	WGMOORE@MARATHONPETROLEUM.COM			NO	 	
49090WYCKF1421K	1312210182705	000108883	TOLUENE	TRI	Pounds																		2012	NO	ALBEMARLE INC	1421 KALAMAZOO ST	SOUTH HAVEN	VAN BUREN	MI	49090	YES	NO	NO	NO								325411						42.383333	-86.273333	825080096								ALBEMARLE CORP		0	M2	SOUTH HAVEN WWTP	620 WELLS STREET	SOUTH HAVEN	MI	VAN BUREN	49090							NO	DRU.MANUEL@ALBEMARLE.COM			NO	 	
48111WYNDS49350	1312210541431	000120127	ANTHRACENE	TRI	Pounds																		2012	NO	WAYNE DISPOSAL INC	49350 N I-94 SERVICE DR	BELLEVILLE	WAYNE	MI	48111	NO	YES	NO	NO								562211	562219	562998				42.21917	-83.522691	048090633	058972555	MID048090633		MI0056413				EQ HOLDING CO	022528553	0		NA												NO	BOB.DOYLE@EQONLINE.COM			NO	 	
48111WYNDS49350	1312210541621	N495	NICKEL COMPOUNDS	TRI	Pounds																		2012	NO	WAYNE DISPOSAL INC	49350 N I-94 SERVICE DR	BELLEVILLE	WAYNE	MI	48111	NO	YES	NO	NO								562211	562219	562998				42.21917	-83.522691	048090633	058972555	MID048090633		MI0056413				EQ HOLDING CO	022528553	0		NA												NO	BOB.DOYLE@EQONLINE.COM			YES	 	
48111WYNDS49350	1312210541660	001336363	POLYCHLORINATED BIPHENYLS	PBT	Pounds																		2012	NO	WAYNE DISPOSAL INC	49350 N I-94 SERVICE DR	BELLEVILLE	WAYNE	MI	48111	NO	YES	NO	NO								562211	562219	562998				42.21917	-83.522691	048090633	058972555	MID048090633		MI0056413				EQ HOLDING CO	022528553	0		NA												NO	BOB.DOYLE@EQONLINE.COM			NO	 	
49442BXTRH1953S	1312210371605	000110543	N-HEXANE	TRI	Pounds																		2012	NO	HONEYWELL BURDICK & JACKSON	1953 S HARVEY ST	MUSKEGON	MUSKEGON	MI	494426184	YES	NO	NO	NO								325199						43.216605	-86.206452	879085116								HONEYWELL INTERNATIONAL INC	139691877	0		NA												NO	DOUG.DIESELBERG@HONEYWELL.COM			NO	 	
49512TMMFG3559K	1312210708374	007439921	LEAD	TRI	Pounds																		2012	NO	COMPASS AUTOMOTIVE GROUP	3559 KRAFT AVE SE	GRAND RAPIDS	KENT	MI	49512	YES	NO	NO	NO								331521						42.8992	-85.528899											0		NA												NO	RECKHEART@C-T-C.COM			YES	 	
48170TWRTM43955	1312210604563	007439965	MANGANESE	TRI	Pounds																		2012	NO	TOWER AUTOMOTIVE PLYMOUTH	43955 PLYMOUTH OAKS BLVD	PLYMOUTH	WAYNE	MI	48170	YES	NO	NO	NO								336111						42.38222	-83.47333	805609224								TOWER INTERNATIONAL LLC		0		NA												NO	MOONEY.MARK@TOWERINTERNATIONAL.COM			YES	 	
4839WDPTPL354BE	1312210173884	N495	NICKEL COMPOUNDS	TRI	Pounds																		2012	NO	ADEPT PLASTIC FINISHING PLANT #4	30540 BECK RD	WIXOM	OAKLAND	MI	48393	YES	NO	NO	NO								332813						42.5185	-83.5161	829881387								ADEPT PLASTIC FINISHING INC	121524318	7.03	M2	WIXOM SEWAGE DISPOSAL PLANT	2055 CHARMS ROAD	WIXOM	MI	OAKLAND	483931127							NO	CGIBSON@ADEPTFINISH.COM			YES	 	
4839WDPTPL354BE	1312210173910	007697372	NITRIC ACID	TRI	Pounds																		2012	NO	ADEPT PLASTIC FINISHING PLANT #4	30540 BECK RD	WIXOM	OAKLAND	MI	48393	YES	NO	NO	NO								332813						42.5185	-83.5161	829881387								ADEPT PLASTIC FINISHING INC	121524318	0	O 	WIXOM SEWAGE DISPOSAL PLANT	2055 CHARMS ROAD	WIXOM	MI	OAKLAND	483931127							NO	CGIBSON@ADEPTFINISH.COM			NO	 	
49829MDPBLCOUNT	1312210236547	007664417	AMMONIA	TRI	Pounds																		2012	NO	ESCANABA PAPER CO	7100 COUNTY RD 426	ESCANABA	DELTA	MI	49829	YES	NO	NO	NO								322121						45.804856	-87.094498	030179782								NEWPAGE CORP	197533446	0		NA												NO	JACKIE.PRIDE@NEWPAGECORP.COM			NO	 	
48192BSFCR1609B	1312210594521	000078922	SEC-BUTYL ALCOHOL	TRI	Pounds																		2012	NO	BASF CORP	1609 BIDDLE AVE	WYANDOTTE	WAYNE	MI	481923729	YES	NO	NO	NO								325211						42.2183	-83.1459	064197742								BASF CORP	071014385	0		NA												NO				NO	 	
48111WYNDS49350	1312210338911	001330207	XYLENE (MIXED ISOMERS)	TRI	Pounds																		2012	NO	WAYNE DISPOSAL INC	49350 N I-94 SERVICE DR	BELLEVILLE	WAYNE	MI	48111	NO	YES	NO	NO								562212						42.21917	-83.522691	048090633	058972555	MID048090633		MI0056413				EQ HOLDING CO	022528553	5	C 	SOUTH HURON VALLEY WWT	34001 WEST JEFFERSON	ROCKWOOD	MI	WAYNE	48173							NO	BOB.DOYLE@EQONLINE.COM			NO	 	
48192SHSTV18655	1312210370452	000075092	DICHLOROMETHANE	TRI	Pounds																		2012	NO	ASH STEVENS INC	18655 KRAUSE ST	RIVERVIEW	WAYNE	MI	48193	YES	NO	NO	NO								325412						42.172958	-83.174292	048265333										0		NA												NO	SMUNK@ASHSTEVENS.COM			NO	 	
49001THPJH7171P	1312210674558	007782505	CHLORINE	TRI	Pounds																		2012	NO	PHARMACIA & UPJOHN CO LLC A SUBSIDIARY OF PFIZER INC	7171 PORTAGE RD	KALAMAZOO	KALAMAZOO	MI	49001	YES	NO	NO	NO								325412						42.213044	-85.556083	007702681								PFIZER INC	001326495	2400	O 	KALAMAZOO WATER RECLAMATION PLANT	1415 N. HARRISON	KALAMAZOO	MI	KALAMAZOO	490072565							NO	CHRISTOPHER.LODER@PFIZER.COM			NO	 	
49349NRTHMM378T	1312210216077	000107211	ETHYLENE GLYCOL	TRI	Pounds																		2012	NO	NORTH AMERICAN REFRACTORIES CO	1301 E 8TH ST	WHITE CLOUD	NEWAYGO	MI	49349	YES	NO	NO	NO								327124						43.5413	-85.7696	147481741	093902542							NORTH AMERICAN REFRACTORIES CO	093902542	0		NA												NO	RVETE@ANHREFRACTORIES.COM			NO	 	
49712LXMRC100LE	1312210010993	001330207	XYLENE (MIXED ISOMERS)	TRI	Pounds																		2012	NO	LEXAMAR CORP	100 LEXAMAR DR	BOYNE CITY	CHARLEVOIX	MI	49712	YES	NO	NO	NO								326199						45.2052	-84.9869	118730472										0		NA												NO	DAN_ANDERSON@LEXAMAR.COM			NO	 	
48071HWRDP32565	1312210132585	N511	NITRATE COMPOUNDS	TRI	Pounds																		2012	NO	HOWARD FINISHING LLC	32565 DEQUINDRE	MADISON HEIGHTS	OAKLAND	MI	48071	YES	NO	NO	NO								332813						42.531682	-83.088014	113233691								HOWARD FINISHING LLC	113233691	1672	M2	DETROIT WATER AND SEWERAGE DEPARTMENT	303 S.LIVERNOIS	DETROIT	MI	OAKLAND	48209							NO	JEGRIMES@HOWARDFINISHING.COM			NO	 	
48161NRTHS3000E	1312210715544	N450	MANGANESE COMPOUNDS	TRI	Pounds																		2012	NO	GERDAU MACSTEEL MONROE	3000 E FRONT ST	MONROE	MONROE	MI	48161	YES	NO	NO	NO								331111						41.8925	-83.3562	087054078								GERDAU GROUP	068814482	0		NA												NO	CHUCK.SHORT@GERDAU.COM			YES	 	
49201JCKSN2090M	1312210400798	000071432	BENZENE	TRI	Pounds																		2012	NO	MARATHON PETROLEUM CO - JACKSON MI TERMINAL	2090 MORRILL RD	JACKSON	JACKSON	MI	49201	YES	NO	NO	NO								424710						42.312	-84.422	113053755								MARATHON PETROLEUM CORP	968393996	0		NA												NO	WGMOORE@MARATHONPETROLEUM.COM			NO	 	
48089CDLLC23849	1312210723021	N982	ZINC COMPOUNDS	TRI	Pounds																		2012	NO	CADILLAC PLATING CORP	23849 GROESBECK HWY	WARREN	MACOMB	MI	48089	YES	NO	NO	NO								332813						42.470169	-82.986702	006004451										79.3	M1	WARREN WASTE WATER TREATMENT PLANT	32360 WARKOP AVENUE	WARREN	MI	MACOMB	480931044							NO	CRAIG@CADILLACPLATING.COM			YES	 	
48326RCTCL1653A	1312210222333	N120	DIISOCYANATES	TRI	Pounds																		2012	NO	RECTICEL UREPP NA INC	1653 ATLANTIC BLVD	AUBURN HILLS	OAKLAND	MI	48326	YES	NO	NO	NO								325211						42.697024	-83.269224	119288103								RECTICEL NV		0		NA												NO	MAXSON.SCOTT@RECTICEL.COM			NO	 	
48043DPNTM400GR	1312210641799	000872504	N-METHYL-2-PYRROLIDONE	TRI	Pounds																		2012	NO	AXALTA COATING SYSTEMS LLC - MOUNT CLEMENS PLANT	400 GROESBECK HWY	MOUNT CLEMENS	MACOMB	MI	48043	YES	NO	NO	NO								325510	325211					42.613141	-82.889814	606875391								AXALTA COATING SYSTEMS LLC	078611267	0		NA												NO	JOSEPH.F.CAMPBELL@USA.DUPONT.COM			NO	 	
48043DPNTM400GR	1312210641825	000100425	STYRENE	TRI	Pounds																		2012	NO	AXALTA COATING SYSTEMS LLC - MOUNT CLEMENS PLANT	400 GROESBECK HWY	MOUNT CLEMENS	MACOMB	MI	48043	YES	NO	NO	NO								325510	325211					42.613141	-82.889814	606875391								AXALTA COATING SYSTEMS LLC	078611267	0		NA												NO	JOSEPH.F.CAMPBELL@USA.DUPONT.COM			NO	 	
49036CLMXS460JA	1312210165938	007440508	COPPER	TRI	Pounds																		2012	NO	H C STARCK INC	460 JAY ST	COLDWATER	BRANCH	MI	49036	YES	NO	NO	NO								332117						41.9353	-85.0074	060091995										0		NA												NO	LARRY.DAMRAU@HCSTARCK.COM			YES	 	
48220MCDRM1221F	1312210180939	N230	CERTAIN GLYCOL ETHERS	TRI	Pounds																		2012	NO	MACDERMID INC	1221 FARROW AVE	FERNDALE	OAKLAND	MI	48220	YES	NO	NO	NO								325998						42.456667	-83.118889	001164599								MACDERMID INC		313	O 	DETROIT WATER AND SEWAGE DEPT	303 S. LIVERNOIS	DETROIT	MI	WAYNE	48209							NO	KBUDZIAK@MACDERMID.COM			NO	 	
48220MCDRM1221F	1312210180941	N090	CHROMIUM COMPOUNDS(EXCEPT CHROMITE ORE MINED IN THE TRANSVAAL REGION)	TRI	Pounds																		2012	NO	MACDERMID INC	1221 FARROW AVE	FERNDALE	OAKLAND	MI	48220	YES	NO	NO	NO								325998						42.456667	-83.118889	001164599								MACDERMID INC		64.79	M1	DETROIT WATER AND SEWAGE DEPT	303 S. LIVERNOIS	DETROIT	MI	WAYNE	48209							NO	KBUDZIAK@MACDERMID.COM			YES	 	
48217MRTHN1300S	1312210565558	N458	MERCURY COMPOUNDS	PBT	Pounds																		2012	NO	MARATHON PETROLEUM CO LP - MICHIGAN REFINING DIV	1300 S FORT ST HES DEPT	DETROIT	WAYNE	MI	48217	YES	NO	NO	NO								324110						42.282182	-83.158756	962993101								MARATHON PETROLEUM CORP	968393996	1.4	O 	DETROIT WWTP-CHLORINATION/DECHLORINATION FACILITY	9300 WEST JEFFERSON AVENUE	DETROIT	MI	WAYNE	482092676							NO	CTRUTUES@MARATHONPETROLEUM.COM			YES	 	
49634PCKGN2245U	1312210553804	N420	LEAD COMPOUNDS	PBT	Pounds																		2012	NO	PACKAGING CORP OF AMERICA	2246 UDELL ST	FILER CITY	MANISTEE	MI	49634	YES	NO	NO	NO								322121						44.21336	-86.284609	060047151								PACKAGING CORP OF AMERICA		0		NA												NO	SKALTUNAS@PACKAGINGCORP.COM			YES	 	
49022HRBRM800SF	1312210853166	007664417	AMMONIA	TRI	Pounds																		2012	NO	BENTON HARBOR LLC	800 S FAIR	BENTON HARBOR	BERRIEN	MI	49022	YES	NO	NO	NO								332811						42.103288	-86.436722	061572475		MID061572475						BLUEWATER THERMAL PROCESSING LLC	783197184	0		NA												NO	BASHLEY@BLUEWATERTHERMAL.COM			NO	 	
48164MRCNS36506	1312209922020	000120127	ANTHRACENE	TRI	Pounds																		2012	NO	BONSAL AMERICAN INC	36506 SIBLEY RD	NEW BOSTON	WAYNE	MI	48164	YES	NO	NO	NO								327999	324199					42.16527	-83.39416	003149457								OLDCASTLE INC	037176591	0		NA												NO	JACK.COVER@OLDCASTLE.COM			NO	 	
49423RPCLT473W1	1312210567780	001330207	XYLENE (MIXED ISOMERS)	TRI	Pounds																		2012	NO	REPCOLITE PAINTS INC	473 W 17TH ST	HOLLAND	OTTAWA	MI	49423	YES	NO	NO	NO								325510						42.78194	-86.12916	006014674										0		NA												NO	INFO@REPCOLITE.COM			NO	 	
48184FRDMT38303	1312210291997	000095636	1,2,4-TRIMETHYLBENZENE	TRI	Pounds																		2012	NO	FORD MOTOR CO MICHIGAN ASSEMBLY PLANT	38303 MICHIGAN AVE	WAYNE	WAYNE	MI	48184	YES	NO	NO	NO								336112						42.26666	-83.4	120551403								FORD MOTOR CO	001344746	0		NA												NO	JNOWAK2@FORD.COM			NO	 	
48157JRWHT4525E	1312210383131	N458	MERCURY COMPOUNDS	PBT	Pounds																		2012	NO	JR WHITING GENERATING PLANT	4525 E ERIE RD	ERIE	MONROE	MI	48133	YES	NO	NO	NO								221112						41.791905	-83.449167	087050506								CMS ENERGY	006959803	0		NA												NO	DEBRA.MCINTYRE-DODD@CMSENERGY.COM			YES	 	
49507PLYMR1415S	1312210696151	000071363	N-BUTYL ALCOHOL	TRI	Pounds																		2012	NO	ARKEMA INC	1415 STEELE AVE SW	GRAND RAPIDS	KENT	MI	49507	YES	NO	NO	NO								325211						42.9378	-85.6761	002290773								ARKEMA INC.	002290773	0		NA												NO	JEFF.MILLS@ARKEMA.COM			NO	 	
49512LCKSW49BAR	1312210265029	007439921	LEAD	TRI	Pounds																		2012	NO	LACKS WHEEL TRIM SYSTEMS BARDEN PLATER	4090 BARDEN SE	KENTWOOD	KENT	MI	49512	YES	NO	NO	NO								332813	326199	336399				42.87629	-85.56039	618232144								LACKS ENTERPRISES INC	616811659	5	O 	CITY OF GRAND RAPIDS WASTEWATER TREATMENT PLANT	1300 MARKET AVE. SW	GRAND RAPIDS	MI	KENT	49503							NO	S.RADAKOVITZ@LACKSENTERPRISES.COM			YES	 	
48220GGPRD625WA	1312210685816	N420	LEAD COMPOUNDS	PBT	Pounds																		2012	NO	GAGE PRODUCTS CO	625 WANDA AVE	FERNDALE	OAKLAND	MI	48220	YES	NO	NO	NO								325510						42.451389	-83.114722	005355086		MID005338801								0	O 	DETROIT WWTP-CHLORINATION/DECHLORINATION FACILITY	9300 WEST JEFFERSON AVENUE	DETROIT	MI	WAYNE	482092676							NO	JMILESKIY@GAGEPRODUCTS.COM			YES	 	
4866WSTYRN164BU	1312210147613	000100414	ETHYLBENZENE	TRI	Pounds																		2012	NO	STYRON LLC - MI OPERATIONS	1604 BUILDING	MIDLAND	MIDLAND	MI	48667	YES	NO	NO	NO								325211						43.617297	-84.200045	833167310								STYRON LLC	833167310	0		NA												NO	JNSCOTT@STYRON.COM			NO	 	
48750TTNDS4700N	1312210326233	N010	ANTIMONY COMPOUNDS	TRI	Pounds																		2012	NO	COOPER STANDARD AUTOMOTIVE INC	4700 N INDUSTRIAL ROW	OSCODA	IOSCO	MI	48750	YES	NO	NO	NO								326199						44.416944	-83.349167	183568419								COOPER STANDARD AUTOMOTIVE INC.	004183273	0	O 	OSCODA TOWNSHIP WASTE WATER TREATMENT FACILITY	4466 MCNICHOL AVE.	OSCODA	MI	IOSCO	48750							NO	DPONTBRIAND@COOPERSTANDARD.COM			YES	 	
48909JTD  5300A	1312210496459	N511	NITRATE COMPOUNDS	TRI	Pounds																		2012	NO	BARNES AEROSPACE - LANSING DIV	5300 AURELIUS RD	LANSING	INGHAM	MI	48911	YES	NO	NO	NO								336412	336413					42.680159	-84.523517	157272146								BARNES GROUP INC	001145481	32595	O 	LANSING WWTP	1625 SUNSET AVENUE	LANSING	MI	INGHAM	489171843							NO	LHUGHES@BARNESAERO.COM			NO	 	
49601CDLLC603WE	1312210524486	000117817	DI(2-ETHYLHEXYL) PHTHALATE	TRI	Pounds																		2012	NO	AVON AUTOMOTIVE PLANT 1	603 W 7TH ST	CADILLAC	WEXFORD	MI	49601	YES	NO	NO	NO								326220						44.260798	-85.418246	151927944										20.53	E1	CADILLAC WWTP	1126 ERNST ST	CADILLAC	MI	WEXFORD	49601							NO	BSOMERS@AVONAUTO.COM			NO	 	
49423BHNLM365W2	1312210134831	007439921	LEAD	TRI	Pounds																		2012	NO	BENTELER ALUMINIUM SYSTEMS MICHIGAN INC	365 W 24TH ST	HOLLAND	OTTAWA	MI	49423	YES	NO	NO	NO								331316						42.776134	-86.125041	806348579								BENTELER AUTOMOTIVE CORP		0	M2	HOLLAND BOARD OF PUBLIC WORKS	42 SOUTH RIVER AVENUE	HOLLAND	MI	OTTAWA	49423							NO	GERRY.BUTTS@BENTELER.COM			YES	 	
49423LLNXT1305L	1312210265397	000100425	STYRENE	TRI	Pounds																		2012	NO	ALLEN EXTRUDERS LLC	1305 LINCOLN AVE	HOLLAND	ALLEGAN	MI	49423	YES	NO	NO	NO								326113						42.753651	-86.096863	052497419								SEKISUI AMERICA CORP	001926708	0	M2	HOLLAND WASTEWATER TREATMENT PLANT	42 SOUTH RIVER AVENUE	HOLLAND	MI	OTTAWA	494232805							NO	LARRYV@ALLENX.COM			NO	 	
49631VRTPR601WS	1312210515755	000100414	ETHYLBENZENE	TRI	Pounds																		2012	NO	VENTRA EVART LLC	601 W SEVENTH ST	EVART	OSCEOLA	MI	49631	YES	NO	NO	NO								336399						43.8988	-85.2677	805650756								FLEX-N-GATE CORP		0		NA												NO	BCRAWFORD@VENTRAPLASTICS.COM			NO	 	
49631VRTPR601WS	1312210515817	001330207	XYLENE (MIXED ISOMERS)	TRI	Pounds																		2012	NO	VENTRA EVART LLC	601 W SEVENTH ST	EVART	OSCEOLA	MI	49631	YES	NO	NO	NO								336399						43.8988	-85.2677	805650756								FLEX-N-GATE CORP		0		NA												NO	BCRAWFORD@VENTRAPLASTICS.COM			NO	 	
49464HXCLC215CE	1312210431348	000067561	METHANOL	TRI	Pounds																		2012	NO	VERTELLUS HEALTH & SPECIALTY PRODUCTS LLC	215 N CENTENNIAL ST	ZEELAND	OTTAWA	MI	49464	YES	NO	NO	NO								325192						42.815556	-86.011667									VERTELLUS SPECIALTIES INC	029260833	0		NA												NO	AFRYE@VERTELLUS.COM			NO	 	
48921GMCGL920TO	1312210549681	000108883	TOLUENE	TRI	Pounds																		2012	NO	GMVM-LANSING GRAND RIVER ASSEMBLY	920 TOWNSEND ST MAIL CODE: 489-066-600	LANSING	INGHAM	MI	48933	YES	NO	NO	NO								336111						42.724042	-84.555676	125356613								GENERAL MOTORS LLC	831247536	0		NA												NO	SHARON.BASEL@GM.COM			NO	 	
49085HFFMN229KE	1312209925662	007440508	COPPER	TRI	Pounds																		2012	NO	HOFFMANN DIE CAST CORP	229 KERTH ST	SAINT JOSEPH	BERRIEN	MI	49085	YES	NO	NO	NO								331521						42.074722	-86.497222	155162621										0		NA												NO	HDCMIKE@HOFFMANNDC.COM			YES	 	
49090WYCKF1421K	1312210182681	000071363	N-BUTYL ALCOHOL	TRI	Pounds																		2012	NO	ALBEMARLE INC	1421 KALAMAZOO ST	SOUTH HAVEN	VAN BUREN	MI	49090	YES	NO	NO	NO								325411						42.383333	-86.273333	825080096								ALBEMARLE CORP		0	M2	SOUTH HAVEN WWTP	620 WELLS STREET	SOUTH HAVEN	MI	VAN BUREN	49090							NO	DRU.MANUEL@ALBEMARLE.COM			NO	 	
49441CNNNM2875L	1312210263810	007440508	COPPER	TRI	Pounds																		2012	NO	CANNON-MUSKEGON	2875 LINCOLN ST	MUSKEGON	MUSKEGON	MI	49441	YES	NO	NO	NO								331513						43.200924	-86.304788	006022586								PRECISION CASTPARTS CORP	009027970	0		NA												NO	JBLUE@CANMKG.COM			YES	 	
48121FRDM23001M	1312210572463	000191242	BENZO(G,H,I)PERYLENE	PBT	Pounds																		2012	NO	FORD MOTOR CO DEARBORN TRUCK PLANT	3001 MILLER RD	DEARBORN	WAYNE	MI	48121	YES	NO	NO	NO								336112						42.301742	-83.162934	150420214								FORD MOTOR CO	001344746	0		NA												NO				NO	 	
48121FRDM23001M	1312210572588	000091203	NAPHTHALENE	TRI	Pounds																		2012	NO	FORD MOTOR CO DEARBORN TRUCK PLANT	3001 MILLER RD	DEARBORN	WAYNE	MI	48121	YES	NO	NO	NO								336112						42.301742	-83.162934	150420214								FORD MOTOR CO	001344746	0		NA												NO				NO	 	
48054DTRTD4901P	1312210333480	007647010	HYDROCHLORIC ACID (1995 AND AFTER "ACID AEROSOLS" ONLY)	TRI	Pounds																		2012	NO	DTE ELECTRIC CO ST CLAIR POWER PLANT (PART)	4901 POINTE DR	EAST CHINA TOWNSHIP	ST CLAIR	MI	48054	NO	YES	NO	NO								221112						42.7748	-82.4945	021091061								DTE ENERGY CO	839329158	0		NA												NO	BERRISR@DTEENERGY.COM			NO	 	
48551GMCTRG3100	1312210412173	000071363	N-BUTYL ALCOHOL	TRI	Pounds																		2012	NO	GM LLC POWERTRAIN FLINT ENGINE OPERATIONS	2100 BRISTOL RD	FLINT	GENESEE	MI	48552	NO	YES	NO	NO								336370						42.985622	-83.716612	070628511	005356662							GENERAL MOTORS LLC	831247536	0		NA												NO	KIMBERLY.CARPENTER@GM.COM			NO	 	
48732DKRNJNWEAD	1312210506477	N450	MANGANESE COMPOUNDS	TRI	Pounds																		2012	NO	DE KARN JC WEADOCK GENERATING PLANT	N WEADOCK HWY	ESSEXVILLE	BAY	MI	48732	YES	NO	NO	NO								221112						43.64403	-83.840328	149954919								CMS ENERGY	006959803	0		NA												NO	MARY.KULIS@CMSENERGY.COM			YES	 	
49646CDNGP111WP	1312210536090	000067561	METHANOL	TRI	Pounds																		2012	NO	ILLINOIS TOOL WORKS  CODING PRODUCTS  DIV	111 W PARK DR	KALKASKA	KALKASKA	MI	49646	YES	NO	NO	NO								339944						44.735068	-85.168519	005183939								ILLINOIS TOOL WORKS INC	005146428	0		NA												NO	MKYRO@CODINGPRODUCTS.COM			NO	 	
48161TWBCR1600N	1312210865275	007439921	LEAD	TRI	Pounds																		2012	NO	TAILOR WELDED BLANKS	1600 NADEAU RD	MONROE	MONROE	MI	48162	YES	NO	NO	NO								332999						41.962199	-83.338389	806148755								WORTHINGTON INDUSTRIES INC	004312401	0		NA												NO	CMLYTTLE@WORTHINGTONINDUSTRIES.COM			YES	 	
49221NDRSN1415E	1312210623233	N458	MERCURY COMPOUNDS	PBT	Pounds																		2012	NO	ANDERSON DEVELOPMENT CO	1415 E MICHIGAN ST	ADRIAN	LENAWEE	MI	49221	YES	NO	NO	NO								325211						41.89361	-84.01721	002931228								ANDERSON DEVELOPMENT CO	002931228	0		NA												NO	CHRIS.GOELOE@ANDDEV.COM			YES	 	
48045SLFRD42081	1312210133613	007440508	COPPER	TRI	Pounds																		2012	NO	SELFRIDGE PLATING INC	42081 IRWIN	HARRISON TOWNSHIP	MACOMB	MI	48045	YES	NO	NO	NO								332813						42.603918	-82.851823	054676580										5	O 	DETROIT WWTP-CHLORINATION/DECHLORINATION FACILITY	9300 WEST JEFFERSON AVENUE	DETROIT	MI	WAYNE	482092676							NO				YES	 	
49445NRTHM3005H	1312210403768	000110543	N-HEXANE	TRI	Pounds																		2012	NO	MARATHON PETROLEUM CO - NORTH MUSKEGON MI TERMINAL	3005 HOLTON RD	NORTH MUSKEGON	MUSKEGON	MI	494452513	YES	NO	NO	NO								424710						43.27	-86.2441	092954098								MARATHON PETROLEUM CORP	968393996	0		NA												NO	WGMOORE@MARATHONPETROLEUM.COM			NO	 	
48667THDWCMICHI	1312210575724	000106898	EPICHLOROHYDRIN	TRI	Pounds																		2012	NO	THE DOW CHEMICAL CO	1790 BUILDING	MIDLAND	MIDLAND	MI	48667	YES	NO	NO	NO								325199	325211	325320				43.6003	-84.2234	877223370								THE DOW CHEMICAL CO	001381581	0		NA												NO	MORLOCK@DOW.COM			NO	 	
48192BSFCR1609B	1312210594457	N120	DIISOCYANATES	TRI	Pounds																		2012	NO	BASF CORP	1609 BIDDLE AVE	WYANDOTTE	WAYNE	MI	481923729	YES	NO	NO	NO								325211						42.2183	-83.1459	064197742								BASF CORP	071014385	250	O 	WYANDOTTE WASTEWATER PLANT	797 CENTRAL AVENUE	WYANDOTTE	MI	WAYNE	481927307							NO				NO	 	
48111WYNDS49350	1312210338760	N090	CHROMIUM COMPOUNDS(EXCEPT CHROMITE ORE MINED IN THE TRANSVAAL REGION)	TRI	Pounds																		2012	NO	WAYNE DISPOSAL INC	49350 N I-94 SERVICE DR	BELLEVILLE	WAYNE	MI	48111	NO	YES	NO	NO								562212						42.21917	-83.522691	048090633	058972555	MID048090633		MI0056413				EQ HOLDING CO	022528553	4	C 	SOUTH HURON VALLEY WWT	34001 WEST JEFFERSON	ROCKWOOD	MI	WAYNE	48173							NO	BOB.DOYLE@EQONLINE.COM			YES	 	
48165CNTNN29201	1312210583480	N420	LEAD COMPOUNDS	PBT	Pounds																		2012	NO	CONTINENTAL ALUMINUM	29201 MILFORD RD	NEW HUDSON	OAKLAND	MI	48165	YES	NO	NO	NO								331314						42.4998	-83.6165									METAL EXCHANGE CORP		0		NA												NO	FLINDSAY@CONTALUM.COM			YES	 	
48077STRLN35777	1312210666513	000110543	N-HEXANE	TRI	Pounds																		2012	NO	DAIMLERCHRYSLER CORP STERLING STAMPING PLANT (PART)	35777 VAN DYKE	STERLING HEIGHTS	MACOMB	MI	48312	NO	YES	NO	NO								336370						42.556157	-83.033974	072782683								CHRYSLER GROUP LLC	001344928	0		NA												NO				NO	 	
48228PVSNL9000H	1312210410193	000111422	DIETHANOLAMINE	TRI	Pounds																		2012	NO	PVS NOLWOOD CHEMICALS INC	9000 HUBBELL AVE	DETROIT	WAYNE	MI	48228	YES	NO	NO	NO								424690						42.36131	-83.18736	004912309								PVS CHEMICALS INC	004912309	0		NA												NO	JWHITTEN@PVSCHEMICALS.COM			NO	 	
48229GRTLKNO1QU	1312210572234	007647010	HYDROCHLORIC ACID (1995 AND AFTER "ACID AEROSOLS" ONLY)	TRI	Pounds																		2012	NO	US STEEL CORP GREAT LAKES WORKS	1 QUALITY DR	ECORSE	WAYNE	MI	48229	YES	NO	NO	NO								331111						42.281735	-83.110231	004320479								US STEEL CORP	029990699	0		NA												NO				NO	 	
48213PVSTC6500F	1312210798637	007782505	CHLORINE	TRI	Pounds																		2012	NO	PVS TECHNOLOGIES INC	10825 HARPER AVE	DETROIT	WAYNE	MI	48213	YES	NO	NO	NO								325188						42.395279	-82.997822	151369303								PVS CHEMICALS INC	005630273	0		NA												NO	SWASKO@PVSCHEMICALS.COM			NO	 	
49417RMLLR14516	1312210125047	N100	COPPER COMPOUNDS	TRI	Pounds																		2012	NO	RA MILLER INDUSTRIES INC	14500 168TH AVE	GRAND HAVEN	OTTAWA	MI	494179454	YES	NO	NO	NO								334290						43.032434	-86.204746	006022214										.94	M2	GRAND HAVEN/SPRING LAKE WASTEWATER TREATMENT PLANT	1525 WASHINGTON	GRAND HAVEN	MI	OTTAWA	494171633							NO	PMILLER@RAMI.COM			YES	 	
48390FNSHT4205M	1312210308173	000108883	TOLUENE	TRI	Pounds																		2012	NO	QUEST SPECIALTY COATINGS LLC - WALLED LAKE	4205 MARTIN RD	WALLED LAKE	OAKLAND	MI	48390	YES	NO	NO	NO								325510						42.573536	-83.449611	848649976								QUEST SPECIALTY CHEMICALS INC	132338364	0		NA												NO	JRCZARNIK@MATRIXSYSTEM.COM			NO	 	
49876CHMPNUSHIG	1312210681413	N420	LEAD COMPOUNDS	PBT	Pounds																		2012	NO	VERSO QUINNESEC LLC	US HWY 2	QUINNESEC	DICKINSON	MI	49876	YES	NO	NO	NO								322121	322110					45.795587	-87.958358	038771036								VERSO PAPER CORP	826480902	0		NA												NO	JEFF.MAULE@VERSOPAPER.COM			YES	 	
48174WDBRD15573	1312210041214	000111422	DIETHANOLAMINE	TRI	Pounds																		2012	NO	WOODBRIDGE CORP	15573 OAKWOOD DR	ROMULUS	WAYNE	MI	48174	YES	NO	NO	NO								326150						42.18644	-83.39196	363548074								WOODBRIDGE HOLDINGS INC	161659883	0		NA												NO	DAVE_RALSTON@WOODBRIDGEGROUP.COM			NO	 	
49738GRGPCROUTE	1312210352112	000067561	METHANOL	TRI	Pounds																		2012	NO	GEORGIA-PACIFIC CHEMICALS LLC	4113 FOUR MILE RD	GRAYLING	CRAWFORD	MI	49738	YES	NO	NO	NO								325211	325199					44.598333	-84.691667									KOCH INDUSTRIES INC	006944334	0		NA												NO	COLOCKWO@GAPAC.COM			NO	 	
49634PCKGN2245U	1312210553766	000071432	BENZENE	TRI	Pounds																		2012	NO	PACKAGING CORP OF AMERICA	2246 UDELL ST	FILER CITY	MANISTEE	MI	49634	YES	NO	NO	NO								322121						44.21336	-86.284609	060047151								PACKAGING CORP OF AMERICA		0		NA												NO	SKALTUNAS@PACKAGINGCORP.COM			NO	 	
49022SNDVK2235D	1312210690323	007664417	AMMONIA	TRI	Pounds																		2012	NO	SANDVIK MATERIALS TECHNOLOGY	2235 DEWEY AVE	BENTON HARBOR	BERRIEN	MI	49022	YES	NO	NO	NO								423510						42.073313	-86.397539	004123700								SANDVIK INC	041023700	0		NA												NO	JIM.RUSK@SANDVIK.COM			NO	 	
49345PRDCT9983S	1312210338048	007440508	COPPER	TRI	Pounds																		2012	NO	CASCADE DIE CASTING / GREAT LAKES	9983 SPARTA AVE	SPARTA	KENT	MI	49345	YES	NO	NO	NO								331521						43.146068	-85.710179	147750707								CASCADE DIE CASTING GROUP INC	147750707	0		NA												NO	PGREENE@CASCADE-CDC.COM			YES	 	
48174FNTXL89INK	1312210567792	N090	CHROMIUM COMPOUNDS(EXCEPT CHROMITE ORE MINED IN THE TRANSVAAL REGION)	TRI	Pounds																		2012	NO	FINTEX LLC	8900 INKSTER RD	ROMULUS	WAYNE	MI	48174	YES	NO	NO	NO								332813						42.2423	-83.3084	095711284										8	M2	WYANDOTTE WASTEWATER PLANT	797 CENTRAL AVENUE	WYANDOTTE	MI	WAYNE	481927307							NO				YES	 	
49345SPRTF252EG	1312210082970	007439965	MANGANESE	TRI	Pounds																		2012	NO	FEDERAL-MOGUL POWERTRAIN SYSTEMS	200 S MAPLE	SPARTA	KENT	MI	49345	YES	NO	NO	NO								331511						43.155919	-85.703903	006407514								FEDERAL MOGUL CORP	088862933	.04	C 	SPARTA WWTP	611 E. GARDNER STREET	SPARTA	MI	KENT	493451469							NO				YES	 	
48174RMLSR28000	1312210402424	000091203	NAPHTHALENE	TRI	Pounds																		2012	NO	MARATHON PETROLEUM CO - ROMULUS MI TERMINAL	28001 CITRON DR	ROMULUS	WAYNE	MI	48174	YES	NO	NO	NO								424710						42.245	-83.3126	057697591								MARATHON PETROLEUM CORP	968393996	0		NA												NO	WGMOORE@MARATHONPETROLEUM.COM			NO	 	
48184FRDMT37625	1312210292138	N450	MANGANESE COMPOUNDS	TRI	Pounds																		2012	NO	FORD MOTOR COMPANY-WAYNE ASSEMBLY	37625 MICHIGAN AVE	WAYNE	WAYNE	MI	48184	YES	NO	NO	NO								336111						42.277	-83.4077	005379706								FORD MOTOR CO	001344746	0		NA												NO	JNOWAK2@FORD.COM			YES	 	
4864WDWKKM27SUT	1312210045098	000306832	2,2-DICHLORO-1,1,1-TRIFLUOROETHANE	TRI	Pounds																		2012	NO	DOW KOKAM MI LLC	2700 S SAGINAW RD	MIDLAND	MIDLAND	MI	48640	YES	NO	NO	NO								335912						43.607553	-84.20775											0		NA												NO	TTHENKE@DOWKOKAM.COM			NO	 	
49460JHCMP17000	1312210449587	N090	CHROMIUM COMPOUNDS(EXCEPT CHROMITE ORE MINED IN THE TRANSVAAL REGION)	TRI	Pounds																		2012	NO	J H CAMPBELL GENERATING PLANT	17000 CROSWELL ST	WEST OLIVE	OTTAWA	MI	49460	YES	NO	NO	NO								221112						42.912078	-86.203574	041409954								CMS ENERGY	006959803	0		NA												NO	ROGER.MORGENSTERN@CMSENERGY.COM			YES	 	
49460JHCMP17000	1312210449676	007664393	HYDROGEN FLUORIDE	TRI	Pounds																		2012	NO	J H CAMPBELL GENERATING PLANT	17000 CROSWELL ST	WEST OLIVE	OTTAWA	MI	49460	YES	NO	NO	NO								221112						42.912078	-86.203574	041409954								CMS ENERGY	006959803	0		NA												NO	ROGER.MORGENSTERN@CMSENERGY.COM			NO	 	
4950WGRSPR76BND	1312210558577	007439965	MANGANESE	TRI	Pounds																		2012	NO	GR SPRING & STAMPING INC	706 BOND AVE NW	GRAND RAPIDS	KENT	MI	49503	YES	NO	NO	NO								336370						42.975236	-85.671412									HZ INDUSTRIES	006018311	0		NA												NO	JENNIFERROBINSON@GRS-S.COM			YES	 	
49442GLLLY5142E	1312210806485	007440020	NICKEL	TRI	Pounds																		2012	NO	EAGLE ALLOY INC	5142 EVANSTON AVE	MUSKEGON	MUSKEGON	MI	49442	YES	NO	NO	NO								331513						43.2136	-86.1188	092945310										0		NA												NO	JWORKMAN@EAGLEALLOY.COM			YES	 	
49276GLBLT1144C	1312209919935	007664417	AMMONIA	TRI	Pounds																		2012	NO	GREEN PLAINS RENEWABLE ENERGY INC	11440 CEMETERY RD	RIGA	LENAWEE	MI	49276	YES	NO	NO	NO								325193						41.8146	-83.8362									GREEN PLAINS RENEWABLE ENERGY INC	186380718	0		NA												NO	ERICA.MONTEFUSCO@GPREINC.COM			NO	 	
48111WYNDS49350	1312210541696	000127184	TETRACHLOROETHYLENE	TRI	Pounds																		2012	NO	WAYNE DISPOSAL INC	49350 N I-94 SERVICE DR	BELLEVILLE	WAYNE	MI	48111	NO	YES	NO	NO								562211	562219	562998				42.21917	-83.522691	048090633	058972555	MID048090633		MI0056413				EQ HOLDING CO	022528553	0		NA												NO	BOB.DOYLE@EQONLINE.COM			NO	 	
48121RGSTL3001M	1312210696961	N458	MERCURY COMPOUNDS	PBT	Pounds																		2012	NO	SEVERSTAL DEARBORN LLC	4001 MILLER RD	DEARBORN	WAYNE	MI	48120	YES	NO	NO	NO								331111	331221					42.301111	-83.1625	142299051								SEVERSTAL N.A. INC	645166489	0		NA												NO	JIM.EARL@SEVERSTALNA.COM			YES	 	
48842PRKRH1355S	1312210096196	007439921	LEAD	TRI	Pounds																		2012	NO	PARKER HANNIFIN CORP	1355 N CEDAR RD	MASON	INGHAM	MI	48854	YES	NO	NO	NO								332912						42.621389	-84.501111	004175550								PARKER HANNIFIN CORP	004175550	0		NA												NO	TBRAMAN@PARKER.COM			YES	 	
48054DTRTD4901P	1312210333516	007664393	HYDROGEN FLUORIDE	TRI	Pounds																		2012	NO	DTE ELECTRIC CO ST CLAIR POWER PLANT (PART)	4901 POINTE DR	EAST CHINA TOWNSHIP	ST CLAIR	MI	48054	NO	YES	NO	NO								221112						42.7748	-82.4945	021091061								DTE ENERGY CO	839329158	0		NA												NO	BERRISR@DTEENERGY.COM			NO	 	
48551GMCTRG3100	1312210412058	000107211	ETHYLENE GLYCOL	TRI	Pounds																		2012	NO	GM LLC POWERTRAIN FLINT ENGINE OPERATIONS	2100 BRISTOL RD	FLINT	GENESEE	MI	48552	NO	YES	NO	NO								336370						42.985622	-83.716612	070628511	005356662							GENERAL MOTORS LLC	831247536	0		NA												NO	KIMBERLY.CARPENTER@GM.COM			NO	 	
49423GRDSM636E4	1312210648592	000110543	N-HEXANE	TRI	Pounds																		2012	NO	SHERWIN-WILLIAMS CO	636 E 40TH ST	HOLLAND	ALLEGAN	MI	49423	YES	NO	NO	NO								325510						42.761389	-86.08	137403952								THE SHERWIN-WILLIAMS CO	004206397	0		NA												NO	RSTHOMAS@SHERWIN.COM			NO	 	
48036TWRTM44850	1312210002681	007439921	LEAD	TRI	Pounds																		2012	NO	TOWER AUTOMOTIVE CLINTON	44850 GROESBECK HWY	CLINTON TOWNSHIP	MACOMB	MI	48036	YES	NO	NO	NO								336370						42.62805	-82.87611	928966266								TOWER INTERNATIONAL LLC		0		NA												NO	KUPCAK.MATT@TOWERAUTOMOTIVE.COM			YES	 	
49829PPRPN2000P	1312210153375	N420	LEAD COMPOUNDS	PBT	Pounds																		2012	NO	ESCANABA GENERATING STATION	2000 POWER PLANT RD	ESCANABA	DELTA	MI	49829	YES	NO	NO	NO								221112						45.77219	-87.064949									CITY OF ESCANABA		0		NA												NO				YES	 	
49829MDPBLCOUNT	1312210236675	N420	LEAD COMPOUNDS	PBT	Pounds																		2012	NO	ESCANABA PAPER CO	7100 COUNTY RD 426	ESCANABA	DELTA	MI	49829	YES	NO	NO	NO								322121						45.804856	-87.094498	030179782								NEWPAGE CORP	197533446	0		NA												NO	JACKIE.PRIDE@NEWPAGECORP.COM			YES	 	
49221MCHGN1336E	1312210227296	007697372	NITRIC ACID	TRI	Pounds																		2012	NO	DAIRY FARMERS OF AMERICA INC ADRIAN	1336 E MAUMEE ST	ADRIAN	LENAWEE	MI	49221	YES	NO	NO	NO								311514						41.8966	-84.016376	056687528								DAIRY FARMERS OF AMERICA INC	029855640	4	M2	CITY OF ADRIAN, MI - WASTEWATER TREATMENT PLANT	1001 OAKWOOD ROAD	ADRIAN	MI	LENAWEE	49221							NO	JWELLIK@DFAMILK.COM			NO	 	
48430CNTRF14241	1312210546139	000108883	TOLUENE	TRI	Pounds																		2012	NO	CONTOUR FABRICATORS INC	14241 FENTON RD	FENTON	GENESEE	MI	48430	YES	NO	NO	NO								339113						42.820556	-83.704444	072778095		MIR000048983		MIS210687				RAWCAR GROUP LLC	072778095	0		NA												NO	PAUL.MARTEL@CONTOURFAB.COM			NO	 	
48667THDWCMICHI	1312210575395	000094757	2,4-D	TRI	Pounds																		2012	NO	THE DOW CHEMICAL CO	1790 BUILDING	MIDLAND	MIDLAND	MI	48667	YES	NO	NO	NO								325199	325211	325320				43.6003	-84.2234	877223370								THE DOW CHEMICAL CO	001381581	0		NA												NO	MORLOCK@DOW.COM			NO	 	
48667THDWCMICHI	1312210575674	000077736	DICYCLOPENTADIENE	TRI	Pounds																		2012	NO	THE DOW CHEMICAL CO	1790 BUILDING	MIDLAND	MIDLAND	MI	48667	YES	NO	NO	NO								325199	325211	325320				43.6003	-84.2234	877223370								THE DOW CHEMICAL CO	001381581	0		NA												NO	MORLOCK@DOW.COM			NO	 	
48667THDWCMICHI	1312210575864	007647010	HYDROCHLORIC ACID (1995 AND AFTER "ACID AEROSOLS" ONLY)	TRI	Pounds																		2012	NO	THE DOW CHEMICAL CO	1790 BUILDING	MIDLAND	MIDLAND	MI	48667	YES	NO	NO	NO								325199	325211	325320				43.6003	-84.2234	877223370								THE DOW CHEMICAL CO	001381581	0		NA												NO	MORLOCK@DOW.COM			NO	 	
48667THDWCMICHI	1312210576031	000091203	NAPHTHALENE	TRI	Pounds																		2012	NO	THE DOW CHEMICAL CO	1790 BUILDING	MIDLAND	MIDLAND	MI	48667	YES	NO	NO	NO								325199	325211	325320				43.6003	-84.2234	877223370								THE DOW CHEMICAL CO	001381581	0		NA												NO	MORLOCK@DOW.COM			NO	 	
49456SPRMM18686	1312210817870	007439921	LEAD	TRI	Pounds																		2012	NO	SUPREME MACHINED PRODUCTS	18686 172ND AVE	SPRING LAKE	OTTAWA	MI	49456	YES	NO	NO	NO								332721						43.105573	-86.208387	006022693										.4	M2	GRAND HAVEN/SPRING LAKE WASTEWATER TREATMENT PLANT	1525 WASHINGTON	GRAND HAVEN	MI	OTTAWA	494171633							NO	CBAILEY@SUPREME1.COM			YES	 	
49464BLMRF83009	1312210059299	007697372	NITRIC ACID	TRI	Pounds																		2012	NO	HILLSHIRE BRANDS - ZEELAND	8300 96TH AVE	ZEELAND	OTTAWA	MI	49464	YES	NO	NO	NO								311612						42.918611	-86.028611	168838480								HILLSHIRE BRANDS CO	005213962	0		NA												NO	ROSS.MYERS@HILLSHIREBRANDS.COM			NO	 	
48211SLCTY1923F	1312210564732	N020	ARSENIC COMPOUNDS	TRI	Pounds																		2012	NO	EQ DETROIT INC	1923 FREDERICK	DETROIT	WAYNE	MI	48211	YES	NO	NO	NO								562211	562998	562219				42.366697	-83.048061	035420772								EQ HOLDINGS CO	022528553	0	C 	CITY OF DETROIT WATER SEWERAGE	303 LIVERNOIS	DETROIT	MI	WAYNE	48209							NO	SCOTT.MARIS@EQONLINE.COM			YES	 	
49858NRTHR7056T	1312210166789	N982	ZINC COMPOUNDS	TRI	Pounds																		2012	NO	NORTHERN COATINGS & CHEMICAL CO INC	705 6TH AVE	MENOMINEE	MENOMINEE	MI	498583162	YES	NO	NO	NO								325510						45.103972	-87.610813	065453169										0		NA												NO	MSHAFFER@NORTHERN-COATINGS.COM			YES	 	
49252SMPSN917AN	1312210085078	007440020	NICKEL	TRI	Pounds																		2012	NO	METALDYNE-LITCHFIELD OPERATIONS	917 ANDERSON RD	LITCHFIELD	HILLSDALE	MI	49252	YES	NO	NO	NO								336350						42.0319	-84.7576	045245149								METALDYNE POWERTRAIN COMPONENTS INC	119269827	0		NA												NO	LSCHNEIDER@METALDYNE.COM			YES	 	
49099WHTPG15781	1312210185221	007439921	LEAD	TRI	Pounds																		2012	NO	WHITE PIGEON PAPER CO	15781 RIVER ST	WHITE PIGEON	ST JOSEPH	MI	49099	YES	NO	NO	NO								322130						41.7949	-85.6494	005214556								ARTISTIC CARTON CO	005214556	0		NA												NO	PSTOFER@WHITEPIGEONPAPER.COM			YES	 	
49093RMSTR816MA	1312210294334	007440020	NICKEL	TRI	Pounds																		2012	NO	ARMSTRONG INTERNATIONAL INC	816 MAPLE ST	THREE RIVERS	ST JOSEPH	MI	49093	YES	NO	NO	NO								332919						41.95496	-85.637436	005068028								ARMSTRONG GLOBAL HOLDING INC	005068028	0		NA												NO	GREG@ARMSTRONGINTERNATIONAL.COM			YES	 	
49221WCKRS3301S	1312210297103	007664417	AMMONIA	TRI	Pounds																		2012	NO	WACKER CHEMICAL CORP	3301 SUTTON RD	ADRIAN	LENAWEE	MI	49221	YES	NO	NO	NO								325212						41.948	-83.9484	075400671								WACKER CHEMICAL CORP		0		NA												NO	BRYAN.ALEXANDER@WACKER.COM			NO	 	
49127SPRMC3389L	1312209939014	N100	COPPER COMPOUNDS	TRI	Pounds																		2012	NO	SUPREME CASTING INC	3389 LINCO RD	STEVENSVILLE	BERRIEN	MI	49127	YES	NO	NO	NO								331521						41.985556	-86.535	088740873								SUPREME CASTING INC	088740873	0		NA												NO	BOB@SUPREMECASTING.COM			YES	 	
48150STHWN118SE	1312210070140	000067561	METHANOL	TRI	Pounds																		2012	NO	SOUTHWIN - LIVONIA PLANT	11800 SEARS DR	LIVONIA	WAYNE	MI	48150	YES	NO	NO	NO								325998						42.37105	-83.34579	603552183								SOUTHWIN LTD	603552183	0		NA												NO	BDUBOSE@SOUTHWINLTD.COM			NO	 	
48911JTNG 5212A	1312210424053	007697372	NITRIC ACID	TRI	Pounds																		2012	NO	SYMMETRY MEDICAL INC LANSING	5212 AURELIUS RD	LANSING	INGHAM	MI	48911	YES	NO	NO	NO								332112						42.681096	-84.523408	155271810								SYMMETRY MEDICAL INC	070987714	0	M2	LANSING WWTP	1625 SUNSET AVENUE	LANSING	MI	INGHAM	489171843							NO	HEATHER.MONAGHAN@SYMMETRYMEDICAL.COM			NO	 	
49548PRMLT5252C	1312210783991	N511	NITRATE COMPOUNDS	TRI	Pounds																		2012	NO	AGROPUR INC	5252 CLAY AVE	GRAND RAPIDS	KENT	MI	49548	YES	NO	NO	NO								311511						42.868959	-85.676901	030630507								AGROPUR INC		101028	C 	CITY OF WYOMING CLEAN WATER PLANT	2350 IVANREST AVE. SW	GRANDVILLE	MI	KENT	494183402							NO	KARAS@AGROPUR-US.COM			NO	 	
48809XTRDD302AS	1312210591398	N420	LEAD COMPOUNDS	PBT	Pounds																		2012	NO	MUELLER INDUSTRIES EXTRUDED METALS INC	302 ASHFIELD ST	BELDING	IONIA	MI	48809	YES	NO	NO	NO								331421						43.0997	-85.2231	121512013								MUELLER INDUSTRIES INC	632031748	1	M2	BELDING WWTP	1500 WELLS ST	BELDING	MI	IONIA	48809							NO	JDAVIDSON@MUELLERINDUSTRIES.COM			YES	 	
48906SHLND2011T	1312210034625	000120821	1,2,4-TRICHLOROBENZENE	TRI	Pounds																		2012	NO	NEXEO SOLUTIONS LLC	2011 TURNER ST	LANSING	INGHAM	MI	48906	YES	NO	NO	NO								424690						42.756	-84.5519											0		NA												NO	GARY_JACKSON@NEXEOSOLUTIONS.COM			NO	 	
48453DGPNC3260F	1312210254710	000100425	STYRENE	TRI	Pounds																		2012	NO	DGP INC	3260 FENNER ST	MARLETTE	SANILAC	MI	48453	YES	NO	NO	NO								326199						43.3228	-83.083											0		NA												NO	CCLARK@DGPINC.NET			NO	 	
48849SBWDB7795S	1312210024648	000075070	ACETALDEHYDE	TRI	Pounds																		2012	NO	CARBON GREEN BIOENERGY	7795 SADDLEBAG LAKE RD	LAKE ODESSA	BARRY	MI	48849	YES	NO	NO	NO								325193						42.765834	-85.078	828745062										0		NA												NO	BBOSCH@CGBIOENERGY.COM			NO	 	
49508VLLYC3353E	1312210560898	N420	LEAD COMPOUNDS	PBT	Pounds																		2012	NO	VALLEY CITY PLATING	3353 EASTERN AVE SE	GRAND RAPIDS	KENT	MI	495082404	YES	NO	NO	NO								332813						42.9051	-85.6477	006023378										4.34	M2	CITY OF GRAND RAPIDS WASTEWATER TREATMENT PLANT	1300 MARKET AVE. SW	GRAND RAPIDS	MI	KENT	49503							NO	DAVEPELL@BRASSPLATER.COM			YES	 	
49221RVNMS915TA	1312210664090	007439965	MANGANESE	TRI	Pounds																		2012	NO	ERVIN INDUSTRIES INC	915 TABOR ST	ADRIAN	LENAWEE	MI	49221	YES	NO	NO	NO								327910						41.8852	-84.0262	005043708								ERVIN INDUSTRIES INC	005337738	0		NA												NO	JLEMON@ERVININDUSTRIES.COM			YES	 	
49045SPCLL88448	1312210451555	N120	DIISOCYANATES	TRI	Pounds																		2012	NO	SPECIAL-LITE INC	860 S WILLIAMS ST	DECATUR	VAN BUREN	MI	49045	YES	NO	NO	NO								332321						42.094639	-85.971653	054647961										0		NA												NO	STACEY_HOLLENBECK@SPECIAL-LITE.COM			NO	 	
49651LKCTY415NW	1312209905619	007439965	MANGANESE	TRI	Pounds																		2012	NO	LC MANUFACTURING LLC	4150 N WOLCOTT RD	LAKE CITY	MISSAUKEE	MI	49651	YES	NO	NO	NO								332111						44.398333	-85.209722									M&B MFG LLC		0		NA												NO	SSTEPHENS@LCFORGE.COM			YES	 	
48220MCDRM1221F	1312210180927	007664417	AMMONIA	TRI	Pounds																		2012	NO	MACDERMID INC	1221 FARROW AVE	FERNDALE	OAKLAND	MI	48220	YES	NO	NO	NO								325998						42.456667	-83.118889	001164599								MACDERMID INC		1487	O 	DETROIT WATER AND SEWAGE DEPT	303 S. LIVERNOIS	DETROIT	MI	WAYNE	48209							NO	KBUDZIAK@MACDERMID.COM			NO	 	
49508LCKSN4260A	1312210265120	007697372	NITRIC ACID	TRI	Pounds																		2012	NO	LACKS TRIM SYSTEMS - AIRLANE	4260 AIRLANE SE	KENTWOOD	KENT	MI	49512	YES	NO	NO	NO								332813	326199	336399				42.885575	-85.574189	118712306								LACKS ENTERPRISES INC	616811659	5	O 	CITY OF GRAND RAPIDS WASTEWATER TREATMENT PLANT	1300 MARKET AVE. SW	GRAND RAPIDS	MI	KENT	49503							NO	S.RADAKOVITZ@LACKSENTERPRISES.COM			NO	 	
48170CYGNT45889	1312210286833	000108883	TOLUENE	TRI	Pounds																		2012	NO	CYGNET AUTOMATED CLEANING LLC	45889 MAST ST	PLYMOUTH	WAYNE	MI	48170	YES	NO	NO	NO								325510						42.3883	-83.4933	382929136								CYGNET AUTOMATED CLEANING LLC	382929136	.18	M2	YPSILANTI COMMUNITY ULTILITIES AUTHORITY	2777 STATE RD.	YPSILANTI	MI	WASHTENAW	481989112	YPSILANTI COMMUNITY ULTILITIES AUTHORITY	2777 STATE RD.	YPSILANTI	MI	WASHTENAW	481989112	NO	GEORGE@IBCRESOURCE.COM			NO	 	
48170CYGNT45889	1312210286833	000108883	TOLUENE	TRI	Pounds																		2012	NO	CYGNET AUTOMATED CLEANING LLC	45889 MAST ST	PLYMOUTH	WAYNE	MI	48170	YES	NO	NO	NO								325510						42.3883	-83.4933	382929136								CYGNET AUTOMATED CLEANING LLC	382929136	.18	M2	YPSILANTI COMMUNITY ULTILITIES AUTHORITY	2777 STATE RD.	YPSILANTI	MI	WASHTENAW	481989112	YPSILANTI COMMUNITY ULTILITIES AUTHORITY	2777 STATE RD.	YPSILANTI	MI	WASHTENAW	481989112	NO	GEORGE@IBCRESOURCE.COM			NO	 	
48917LNSNG3725S	1312210340954	N040	BARIUM COMPOUNDS	TRI	Pounds																		2012	NO	LANSING BOARD OF WATER & LIGHT -ERICKSON	3725 S CANAL RD	LANSING	INGHAM	MI	48917	YES	NO	NO	NO								221112						42.692364	-84.657362									LANSING BOARD OF WATER & LIGHT	809992055	0		NA												NO	SXS@LBWL.COM			YES	 	
48217MRTHN1300S	1312210565533	N420	LEAD COMPOUNDS	PBT	Pounds																		2012	NO	MARATHON PETROLEUM CO LP - MICHIGAN REFINING DIV	1300 S FORT ST HES DEPT	DETROIT	WAYNE	MI	48217	YES	NO	NO	NO								324110						42.282182	-83.158756	962993101								MARATHON PETROLEUM CORP	968393996	161.7	O 	DETROIT WWTP-CHLORINATION/DECHLORINATION FACILITY	9300 WEST JEFFERSON AVENUE	DETROIT	MI	WAYNE	482092676							NO	CTRUTUES@MARATHONPETROLEUM.COM			YES	 	
48054DTRTD4505K	1312210333124	N150	DIOXIN AND DIOXIN-LIKE COMPOUNDS	DIOXIN	Grams																		2012	NO	DTE ELECTRIC CO - BELLE RIVER POWER PLANT (PART)	4505 KING RD	CHINA TOWNSHIP	ST CLAIR	MI	48054	NO	YES	NO	NO								221112						42.777428	-82.512405	197254725								DTE ENERGY CO		0		NA												NO	BERRISR@DTEENERGY.COM			NO	 	
48768GRDVS700EH	1312210655066	007440508	COPPER	TRI	Pounds																		2012	NO	METAVATION LLC	700 E HURON AVE	VASSAR	TUSCOLA	MI	48768	YES	NO	NO	NO								331511						43.3664	-83.571	608460820								REVSTONE INDUSTRIES LLC	787032916	0		NA												NO	PBUJALSKI@REVSTONE.COM			YES	 	
48218DTRTD1BELA	1312210333567	N590	POLYCYCLIC AROMATIC COMPOUNDS	PBT	Pounds																		2012	NO	DTE ELECTRIC COMPANY- RIVER ROUGE POWER PLANT	1 BELANGER PARK DR	RIVER ROUGE	WAYNE	MI	48218	YES	NO	NO	NO								221112						42.2727	-83.1124	783638471								DTE ENERGY CO	839329158	0		NA												NO	BERRISR@DTEENERGY.COM			NO	 	
49120MRTHN2216S	1312210399743	000110543	N-HEXANE	TRI	Pounds																		2012	NO	MARATHON PETROLEUM CO - NILES MI TERMINAL	2216 S THIRD ST	NILES	BERRIEN	MI	491204010	YES	NO	NO	NO								424710						41.7889	-86.255	039348313								MARATHON PETROLEUM CORP	968393996	0		NA												NO	WGMOORE@MARATHONPETROLEUM.COM			NO	 	
48220GGPRD625WA	1312210685879	000091203	NAPHTHALENE	TRI	Pounds																		2012	NO	GAGE PRODUCTS CO	625 WANDA AVE	FERNDALE	OAKLAND	MI	48220	YES	NO	NO	NO								325510						42.451389	-83.114722	005355086		MID005338801								0	C 	DETROIT WWTP-CHLORINATION/DECHLORINATION FACILITY	9300 WEST JEFFERSON AVENUE	DETROIT	MI	WAYNE	482092676							NO	JMILESKIY@GAGEPRODUCTS.COM			NO	 	
48393TMSPH30760	1312210040248	007632000	SODIUM NITRITE	TRI	Pounds																		2012	NO	ATMOSPHERE HEAT TREATING	30760 CENTURY DR	WIXOM	OAKLAND	MI	48393	YES	NO	NO	NO								332811						42.5183	-83.5481	013317545								ATMOSPHERE HEAT TREATING		0		NA												NO	SKIPJAMES@ATMOSPHEREHEATTREAT.COM			YES	 	
4866WSTYRN164BU	1312210147563	000079061	ACRYLAMIDE	TRI	Pounds																		2012	NO	STYRON LLC - MI OPERATIONS	1604 BUILDING	MIDLAND	MIDLAND	MI	48667	YES	NO	NO	NO								325211						43.617297	-84.200045	833167310								STYRON LLC	833167310	0		NA												NO	JNSCOTT@STYRON.COM			NO	 	
49091GRMMN1801S	1312209929165	000071363	N-BUTYL ALCOHOL	TRI	Pounds																		2012	NO	MORGAN OLSON LLC	1801 S NOTTAWA RD	STURGIS	ST JOSEPH	MI	49091	YES	NO	NO	NO								336211						41.782546	-85.418619	135772668								JB POINDEXTER & CO INC	154280655	0		NA												NO	STEVE.HART@MORGANOLSON.COM			NO	 	
48183DTRTD4695W	1312210333136	N458	MERCURY COMPOUNDS	PBT	Pounds																		2012	NO	DTE ELECTRIC CO - TRENTON CHANNEL POWER PLANT	4695 W JEFFERSON AVE	TRENTON	WAYNE	MI	48183	YES	NO	NO	NO								221112						42.1237	-83.1812	120464540								DTE ENERGY CO	839329158	0		NA												NO	BERRISR@DTEENERGY.COM			YES	 	
48183DTRTD4695W	1312210333252	N770	VANADIUM COMPOUNDS	TRI	Pounds																		2012	NO	DTE ELECTRIC CO - TRENTON CHANNEL POWER PLANT	4695 W JEFFERSON AVE	TRENTON	WAYNE	MI	48183	YES	NO	NO	NO								221112						42.1237	-83.1812	120464540								DTE ENERGY CO	839329158	0		NA												NO	BERRISR@DTEENERGY.COM			YES	 	
49445NRMCH1740W	1312210527750	000071363	N-BUTYL ALCOHOL	TRI	Pounds																		2012	NO	BAYER CROPSCIENCE	1740 WHITEHALL RD	MUSKEGON	MUSKEGON	MI	49445	YES	NO	NO	NO								325320						43.285278	-86.261111	001350263								BAYER GROUP		81964	M2	MUSKEGON CO WWMS METRO WWTP	8301 WHITE ROAD	MUSKEGON	MI	MUSKEGON	494429497							NO	HAROLD.LOFTON@BAYER.COM			NO	 	
48212DLTRS17350	1312210661625	000091203	NAPHTHALENE	TRI	Pounds																		2012	NO	ALPHA RESINS INC	17350 RYAN RD	DETROIT	WAYNE	MI	48212	YES	NO	NO	NO								325211						42.421037	-83.062423									FAIRMOUNT MINERALS LTD	016909793	5	O 	DETROIT WWTP-CHLORINATION/DECHLORINATION FACILITY	9300 WEST JEFFERSON AVENUE	DETROIT	MI	WAYNE	482092676							NO	KNELSON@ALPHARESINS.COM			NO	 	
48422MCHGN159SO	1312210060683	N420	LEAD COMPOUNDS	PBT	Pounds																		2012	NO	MICHIGAN SUGAR CO - CROSW ELL FACTORY	159 S HOWARD	CROSWELL	SANILAC	MI	48422	YES	NO	NO	NO								311313						43.2668	-82.6154	103202128								MICHIGAN SUGAR CO		0		NA												NO	STEVEN.SMOCK@MICHIGANSUGAR.COM			YES	 	
48605SGNWG1629N	1312210094429	007440020	NICKEL	TRI	Pounds																		2012	NO	SAGINAW METAL CASTING OPERATIONS	1629 N WASHINGTON ST	SAGINAW	SAGINAW	MI	48601	YES	NO	NO	NO								331524						43.458488	-83.911394	015822497								GENERAL MOTORS LLC	831247536	2	M2	CITY OF SAGINAW WASTEWATER TREATMENT PLANT	2406 VETERANS MEMORIAL PARKWAY	SAGINAW	MI	SAGINAW	486011268							NO	SHARON.BASEL@GM.COM			YES	 	
48843DMNDC604SM	1312210587388	N090	CHROMIUM COMPOUNDS(EXCEPT CHROMITE ORE MINED IN THE TRANSVAAL REGION)	TRI	Pounds																		2012	NO	DIAMOND CHROME PLATING INC	604 S MICHIGAN AVE	HOWELL	LIVINGSTON	MI	48843	YES	NO	NO	NO								332813						42.602857	-83.932609	072128234								SUPERIOR INDUSTRIES INTERNATIONAL INC	005344913	5	M2	CITY OF HOWELL POTW	1191 PINCKNEY ROAD	HOWELL	MI	LIVINGSTON	48843							NO	SALES@DIAMONDCHROMEPLATING.COM			YES	 	
48217MRTHN1300S	1312210565457	000111422	DIETHANOLAMINE	TRI	Pounds																		2012	NO	MARATHON PETROLEUM CO LP - MICHIGAN REFINING DIV	1300 S FORT ST HES DEPT	DETROIT	WAYNE	MI	48217	YES	NO	NO	NO								324110						42.282182	-83.158756	962993101								MARATHON PETROLEUM CORP	968393996	5750	O 	DETROIT WWTP-CHLORINATION/DECHLORINATION FACILITY	9300 WEST JEFFERSON AVENUE	DETROIT	MI	WAYNE	482092676							NO	CTRUTUES@MARATHONPETROLEUM.COM			NO	 	
48217MRTHN1300S	1312210565596	000110543	N-HEXANE	TRI	Pounds																		2012	NO	MARATHON PETROLEUM CO LP - MICHIGAN REFINING DIV	1300 S FORT ST HES DEPT	DETROIT	WAYNE	MI	48217	YES	NO	NO	NO								324110						42.282182	-83.158756	962993101								MARATHON PETROLEUM CORP	968393996	76	O 	DETROIT WWTP-CHLORINATION/DECHLORINATION FACILITY	9300 WEST JEFFERSON AVENUE	DETROIT	MI	WAYNE	482092676							NO	CTRUTUES@MARATHONPETROLEUM.COM			NO	 	
48054DTRTD4505K	1312210332995	N020	ARSENIC COMPOUNDS	TRI	Pounds																		2012	NO	DTE ELECTRIC CO - BELLE RIVER POWER PLANT (PART)	4505 KING RD	CHINA TOWNSHIP	ST CLAIR	MI	48054	NO	YES	NO	NO								221112						42.777428	-82.512405	197254725								DTE ENERGY CO		0		NA												NO	BERRISR@DTEENERGY.COM			YES	 	
48030KCJNS321WT	1312210667667	N106	CYANIDE COMPOUNDS	TRI	Pounds																		2012	NO	K C JONES PLATING CO	321 W TEN MILE RD	HAZEL PARK	OAKLAND	MI	48030	YES	NO	NO	NO								332813						42.475834	-83.106392	005511852										45	M2	DETROIT WWTP-CHLORINATION/DECHLORINATION FACILITY	9300 WEST JEFFERSON AVENUE	DETROIT	MI	WAYNE	482092676							NO	BRIAN.HARRICK@KCJPLATING.COM			NO	 	
48030KCJNS321WT	1312210667679	N495	NICKEL COMPOUNDS	TRI	Pounds																		2012	NO	K C JONES PLATING CO	321 W TEN MILE RD	HAZEL PARK	OAKLAND	MI	48030	YES	NO	NO	NO								332813						42.475834	-83.106392	005511852										177	M2	DETROIT WWTP-CHLORINATION/DECHLORINATION FACILITY	9300 WEST JEFFERSON AVENUE	DETROIT	MI	WAYNE	482092676							NO	BRIAN.HARRICK@KCJPLATING.COM			YES	 	
49518CNTRY2555B	1312210046165	007697372	NITRIC ACID	TRI	Pounds																		2012	NO	COUNTRY FRESH LLC	2555 BUCHANAN AVE SW	GRAND RAPIDS	KENT	MI	49548	YES	NO	NO	NO								311511						42.917778	-85.6725	005869078								DEAN FOODS CO		965	O 	CITY OF WYOMING CLEAN WATER PLANT	2350 IVANREST AVE. SW	GRANDVILLE	MI	KENT	494183402							NO	DAVE_VANORDER@DEANFOODS.COM			NO	 	
48214MCKVN11570	1312210354128	007440473	CHROMIUM	TRI	Pounds																		2012	NO	MACK AVENUE ENGINE PLANT COMPLEX	11570 WARREN RD E	DETROIT	WAYNE	MI	48214	YES	NO	NO	NO								336312						42.383333	-82.975	005357959								CHRYSLER GROUP LLC	830966904	1	M2	DETROIT WATER & SEWER DEPT.	9300 WEST JEFFERSON STREET	DETROIT	MI	WAYNE	48209							NO				YES	 	
49036MCRCY267NO	1312210417147	N420	LEAD COMPOUNDS	PBT	Pounds																		2012	NO	ALERIS RECYCLING INC	267 N FILLMORE RD	COLDWATER	BRANCH	MI	49036	YES	NO	NO	NO								331314						41.923	-85.035	963903278								ALERIS RECYCLING INC.	057896847	0		NA												NO	JAMES.HOUSE@ALERIS.COM			YES	 	
49507PLYMR1415S	1312210696086	000095636	1,2,4-TRIMETHYLBENZENE	TRI	Pounds																		2012	NO	ARKEMA INC	1415 STEELE AVE SW	GRAND RAPIDS	KENT	MI	49507	YES	NO	NO	NO								325211						42.9378	-85.6761	002290773								ARKEMA INC.	002290773	0		NA												NO	JEFF.MILLS@ARKEMA.COM			NO	 	
48055GNRLM4555G	1312210504546	N230	CERTAIN GLYCOL ETHERS	TRI	Pounds																		2012	NO	GM ORION ASSEMBLY CENTER	4555 GIDDINGS RD	LAKE ORION	OAKLAND	MI	48359	YES	NO	NO	NO								336111						42.7158	-83.2607	007992886								GENERAL MOTORS LLC	831247536	7500	C 	DETROIT WWTP-CHLORINATION/DECHLORINATION FACILITY	9300 WEST JEFFERSON AVENUE	DETROIT	MI	WAYNE	482092676							NO	SHARON.BASEL@GM.COM			NO	 	
49269MCHGN2400N	1312210224135	N982	ZINC COMPOUNDS	TRI	Pounds																		2012	NO	MICHIGAN AUTOMOTIVE COMPRESSOR  INC	2400 N DEARING RD	PARMA	JACKSON	MI	49269	YES	NO	NO	NO								336391						42.266599	-84.545102	606360444								TOYOTA INDUSTRIES N.A. & DENSO LTD		224.87	M2	JACKSON WWTP	2995 LANSING AVE	JACKSON	MI	JACKSON	49202							NO	MCCULLAD@MICHAUTO.COM			YES	 	
48205NDSTR11900	1312210374512	000095636	1,2,4-TRIMETHYLBENZENE	TRI	Pounds																		2012	NO	3M CO - DETROIT	11900 E 8 MILE RD	DETROIT	WAYNE	MI	48205	YES	NO	NO	NO								327910						42.4478	-83.0029	055693618								3M CO	006173082	0	M2	DETROIT WWTP-CHLORINATION/DECHLORINATION FACILITY	9300 WEST JEFFERSON AVENUE	DETROIT	MI	WAYNE	482092676							NO	EPCRA@MMM.COM			NO	 	
48458FLNTMG6065	1312210400673	000191242	BENZO(G,H,I)PERYLENE	PBT	Pounds																		2012	NO	MARATHON PETROLEUM CO - FLINT MI TERMINAL	G-6065 N DORT HWY	MOUNT MORRIS	GENESEE	MI	48458	YES	NO	NO	NO								424710						43.091667	-83.675	124826517								MARATHON PETROLEUM CORP	968393996	0		NA												NO	WGMOORE@MARATHONPETROLEUM.COM			NO	 	
4942WMRCNT3565H	1312210417604	000071363	N-BUTYL ALCOHOL	TRI	Pounds																		2012	NO	AMERICAN AUTOCOAT INC	3565 HIGHLAND DR	HUDSONVILLE	OTTAWA	MI	49426	YES	NO	NO	NO								336399						42.8561	-85.8691											0		NA												NO	PFRISBIE@AMERICANAUTOCOAT.COM			NO	 	
49003MRCNC2715M	1312210313476	N511	NITRATE COMPOUNDS	TRI	Pounds																		2012	NO	CYTEC INDUSTRIES INC	2715 MILLER RD	KALAMAZOO	KALAMAZOO	MI	490014176	YES	NO	NO	NO								325211						42.267517	-85.546532	001173467								CYTEC INDUSTRIES INC	809749948	754112	C 	KALAMAZOO WATER RECLAMATION PLANT	1415 N. HARRISON	KALAMAZOO	MI	KALAMAZOO	490072565							NO	ALBERT.DUMOIS@CYTEC.COM			NO	 	
48111WYNDS49350	1312210541470	N040	BARIUM COMPOUNDS	TRI	Pounds																		2012	NO	WAYNE DISPOSAL INC	49350 N I-94 SERVICE DR	BELLEVILLE	WAYNE	MI	48111	NO	YES	NO	NO								562211	562219	562998				42.21917	-83.522691	048090633	058972555	MID048090633		MI0056413				EQ HOLDING CO	022528553	0		NA												NO	BOB.DOYLE@EQONLINE.COM			YES	 	
48054DTRTD4901P	1312210333682	007664939	SULFURIC ACID (1994 AND AFTER "ACID AEROSOLS" ONLY)	TRI	Pounds																		2012	NO	DTE ELECTRIC CO ST CLAIR POWER PLANT (PART)	4901 POINTE DR	EAST CHINA TOWNSHIP	ST CLAIR	MI	48054	NO	YES	NO	NO								221112						42.7748	-82.4945	021091061								DTE ENERGY CO	839329158	0		NA												NO	BERRISR@DTEENERGY.COM			NO	 	
4920WCHMTL11TEC	1312210716559	007632000	SODIUM NITRITE	TRI	Pounds																		2012	NO	CHEMETALL US INC	1100 TECHNOLOGY DR	JACKSON	JACKSON	MI	49201	YES	NO	NO	NO								325611								055613120										0		NA												NO	JESSY.CONARD@CHEMETALL.COM			YES	 	
49221HYDRT1400E	1312210337729	007664417	AMMONIA	TRI	Pounds																		2012	NO	BIOLAB INC	1400 E MICHIGAN ST	ADRIAN	LENAWEE	MI	49221	YES	NO	NO	NO								325199						41.893611	-84.0175	178306551								CHEMTURA CORP	088400325	0		NA												NO	JOHN.POELSTRA@CHEMTURA.COM			NO	 	
48846MRCNB14NOR	1312210520944	N090	CHROMIUM COMPOUNDS(EXCEPT CHROMITE ORE MINED IN THE TRANSVAAL REGION)	TRI	Pounds																		2012	NO	VENTRA IONIA MAIN LLC	14 N BEARDSLEY RD	IONIA	IONIA	MI	48846	YES	NO	NO	NO								336399						42.985496	-85.030167	831144196								VENTRA GREENWICH HOLDINGS CORP		250	M2	IONIA WWTP	720 WELLS STREET	IONIA	MI	IONIA	48846							NO	NDAVIS@VENTRA.US			YES	 	
48551GMCTRG3100	1312210418152	000071432	BENZENE	TRI	Pounds																		2012	NO	GM LLC POWERTRAIN FLINT ENGINE OPERATIONS	2100 BRISTOL RD	FLINT	GENESEE	MI	48552	NO	YES	NO	NO								336112						42.985622	-83.716612	070628511	005356662							GENERAL MOTORS LLC	831247536	0		NA												NO	KIMBERLY.CARPENTER@GM.COM			NO	 	
49601CMCST23010	1312210807487	007440666	ZINC (FUME OR DUST)	TRI	Pounds																		2012	NO	CADILLAC CASTING INC	1500 FOURTH AVE	CADILLAC	WEXFORD	MI	49601	YES	NO	NO	NO								331511						44.261866	-85.412914	617796029										0		NA												NO				YES	 	
48034NTDPN24671	1312210479630	000872504	N-METHYL-2-PYRROLIDONE	TRI	Pounds																		2012	NO	UNITED PAINT & CHEMICAL	24671 TELEGRAPH RD	SOUTHFIELD	OAKLAND	MI	48034	YES	NO	NO	NO								325510						42.4697	-83.2808	005323910										0		NA												NO	GPICEU@POLYGCM.COM			NO	 	
49036LCHML368WG	1312210417426	007782505	CHLORINE	TRI	Pounds																		2012	NO	ALERIS SPECIFICATION ALLOYS INC	368 W GARFIELD AVE	COLDWATER	BRANCH	MI	49036	YES	NO	NO	NO								331314						41.923	-85.035	963915959								ALERIS SPECIFICATION ALLOYS INC.	963598144	0		NA												NO	JAMES.HOUSE@ALERIS.COM			NO	 	
48077STRLN35777	1312210666525	007632000	SODIUM NITRITE	TRI	Pounds																		2012	NO	DAIMLERCHRYSLER CORP STERLING STAMPING PLANT (PART)	35777 VAN DYKE	STERLING HEIGHTS	MACOMB	MI	48312	NO	YES	NO	NO								336370						42.556157	-83.033974	072782683								CHRYSLER GROUP LLC	001344928	0		NA												NO				YES	 	
48686DWCRN3901S	1312210665143	000563473	3-CHLORO-2-METHYL-1-PROPENE	TRI	Pounds																		2012	NO	DOW CORNING CORP MIDLAND PLANT	3901 S SAGINAW RD MAIL # 065	MIDLAND	MIDLAND	MI	486860995	YES	NO	NO	NO								325998						43.58891	-84.20784	005353487								DOW CORNING CORP	005353487	0		NA												NO	JEFFERY.LYNCH@DOWCORNING.COM			NO	 	
48686DWCRN3901S	1312210665244	000110827	CYCLOHEXANE	TRI	Pounds																		2012	NO	DOW CORNING CORP MIDLAND PLANT	3901 S SAGINAW RD MAIL # 065	MIDLAND	MIDLAND	MI	486860995	YES	NO	NO	NO								325998						43.58891	-84.20784	005353487								DOW CORNING CORP	005353487	0		NA												NO	JEFFERY.LYNCH@DOWCORNING.COM			NO	 	
48229GRTLKNO1QU	1312210572208	008001589	CREOSOTE	TRI	Pounds																		2012	NO	US STEEL CORP GREAT LAKES WORKS	1 QUALITY DR	ECORSE	WAYNE	MI	48229	YES	NO	NO	NO								331111						42.281735	-83.110231	004320479								US STEEL CORP	029990699	0		NA												NO				NO	 	
48078CRTSC6645S	1312210716698	N511	NITRATE COMPOUNDS	TRI	Pounds																		2012	NO	CURTIS METAL FINISHING CO	6645 SIMS DR	STERLING HEIGHTS	MACOMB	MI	483133726	YES	NO	NO	NO								332812						42.5883	-83.0424	091611897								COMMERCIAL STEEL TREATING CORP	005319405	146730	C 	DETROIT WWTP-CHLORINATION/DECHLORINATION FACILITY	9300 WEST JEFFERSON AVENUE	DETROIT	MI	WAYNE	482092676							NO	NORBERT.JAEGER@CURTISMETAL.COM			NO	 	
49423TRNSM300EA	1312210047383	007440020	NICKEL	TRI	Pounds																		2012	NO	TRANS-MATIC MANUFACTURING CO INC	300 E 48TH ST	HOLLAND	ALLEGAN	MI	49423	YES	NO	NO	NO								332116						42.754643	-86.094324	044558328								TRANS-MATIC MANUFACTURING CO		3	M2	HOLLAND BOARD OF PUBLIC WORKS	625 HASTINGS AVENUE	HOLLAND	MI	OTTAWA	49423							NO	JHARTINGS@TRANSMATIC.COM			YES	 	
49441NNFRR1146N	1312210331942	007439921	LEAD	TRI	Pounds																		2012	NO	NON-FERROUS CAST ALLOYS INC	1146 N GATEWAY BLVD	MUSKEGON	MUSKEGON	MI	49441	YES	NO	NO	NO								331524						43.144753	-86.216413	062236658										0		NA												NO	DALE@NFCA.COM			YES	 	
48215CHRYL2101C	1312210467003	007632000	SODIUM NITRITE	TRI	Pounds																		2012	NO	CHRYSLER JEFFERSON NORTH ASSEMBLY PLANT	2101 CONNOR AVE	DETROIT	WAYNE	MI	48215	YES	NO	NO	NO								336111						42.3747	-82.969	121848105								CHRYSLER GROUP LLC	830966904	0	O 	DETROIT WATER & SEWER DEPT.	9300 WEST JEFFERSON STREET	DETROIT	MI	WAYNE	48209							NO				YES	 	
49015TCHNC195BR	1312210605818	007440473	CHROMIUM	TRI	Pounds																		2012	NO	MUSASHI AUTO PARTS-MI INC	195 BRYDGES DR	BATTLE CREEK	CALHOUN	MI	49037	YES	NO	NO	NO								336350						42.34328	-85.277977											0		NA												NO				YES	 	
48091WRRNS22800	1312210334571	N230	CERTAIN GLYCOL ETHERS	TRI	Pounds																		2012	NO	WARREN STAMPING PLANT	22800 MOUND RD	WARREN	MACOMB	MI	48091	NO	YES	NO	NO								336370						42.4611	-83.0436	005357900								CHRYSLER GROUP LLC	001344928	0		NA												NO				NO	 	
49868LSNPC461MI	1312210507265	000050000	FORMALDEHYDE	TRI	Pounds																		2012	NO	LOUISIANA-PACIFIC CORP NEWBERRY SIDING	461 MILLER RD 7299 N C.R. 403	NEWBERRY	LUCE	MI	49868	YES	NO	NO	NO								321219						46.335124	-85.494452	181200528								LOUISIANA PACIFIC CORP	061500534	0		NA												NO	KURT.CHAMBERLAIN@LPCORP.COM			NO	 	
48838KNTFN1413C	1312209996800	007439965	MANGANESE	TRI	Pounds																		2012	NO	KENT FOUNDRY	1413 CALLAGHAN ST	GREENVILLE	MONTCALM	MI	48838	YES	NO	NO	NO								331511						43.1863	-85.2286	006022834										0		NA												NO	SZINY@KENTFOUNDRY.COM			YES	 	
48065RMRMN74000	1312210454551	000107211	ETHYLENE GLYCOL	TRI	Pounds																		2012	NO	ROMEO RIM INC - PLANTS 1 & 2	74000 VAN DYKE AVE	ROMEO	MACOMB	MI	48065	YES	NO	NO	NO								326199						42.839561	-83.018509	061750220								R MARK HAMLIN JR TRUST		0		NA												NO				NO	 	
48183CHRYS2000V	1312210689269	007439921	LEAD	TRI	Pounds																		2012	NO	CHRYSLER TRENTON ENGINE PLANT	2000 VAN HORN	TRENTON	WAYNE	MI	48183	YES	NO	NO	NO								336312						42.1301	-83.1923	005358064								CHRYSLER GROUP LLC	830966904	0	M2	CITY OF TRENTON WWTP	1801 VAN HORN	TRENTON	MI	WAYNE	48138							NO				YES	 	
48183CHRYS2000V	1312210689271	007440020	NICKEL	TRI	Pounds																		2012	NO	CHRYSLER TRENTON ENGINE PLANT	2000 VAN HORN	TRENTON	WAYNE	MI	48183	YES	NO	NO	NO								336312						42.1301	-83.1923	005358064								CHRYSLER GROUP LLC	830966904	5	M2	CITY OF TRENTON WWTP	1801 VAN HORN	TRENTON	MI	WAYNE	48138							NO				YES	 	
48174CHMCN13395	1312210324897	000110543	N-HEXANE	TRI	Pounds																		2012	NO	UNIVAR USA INC ROMULUS BRANCH	13395 HURON RIVER DR	ROMULUS	WAYNE	MI	481740906	YES	NO	NO	NO								424690						42.206574	-83.403378									UNIVAR USA INC	102971785	0	O 	WYANDOTTE WASTEWATER PLANT	797 CENTRAL AVENUE	WYANDOTTE	MI	WAYNE	481927307							NO	TIEN.PHAM@UNIVARUSA.COM			NO	 	
48043DPNTM400GR	1312210641864	000584849	TOLUENE-2,4-DIISOCYANATE	TRI	Pounds																		2012	NO	AXALTA COATING SYSTEMS LLC - MOUNT CLEMENS PLANT	400 GROESBECK HWY	MOUNT CLEMENS	MACOMB	MI	48043	YES	NO	NO	NO								325510	325211					42.613141	-82.889814	606875391								AXALTA COATING SYSTEMS LLC	078611267	0		NA												NO	JOSEPH.F.CAMPBELL@USA.DUPONT.COM			NO	 	
49508LCKSN4260A	1312210264990	N100	COPPER COMPOUNDS	TRI	Pounds																		2012	NO	LACKS TRIM SYSTEMS - AIRLANE	4260 AIRLANE SE	KENTWOOD	KENT	MI	49512	YES	NO	NO	NO								332813	326199	336399				42.885575	-85.574189	118712306								LACKS ENTERPRISES INC	616811659	250	O 	CITY OF GRAND RAPIDS WASTEWATER TREATMENT PLANT	1300 MARKET AVE. SW	GRAND RAPIDS	MI	KENT	49503							NO	S.RADAKOVITZ@LACKSENTERPRISES.COM			YES	 	
49508LCKSN4260A	1312210265017	000050000	FORMALDEHYDE	TRI	Pounds																		2012	NO	LACKS TRIM SYSTEMS - AIRLANE	4260 AIRLANE SE	KENTWOOD	KENT	MI	49512	YES	NO	NO	NO								332813	326199	336399				42.885575	-85.574189	118712306								LACKS ENTERPRISES INC	616811659	5	O 	CITY OF GRAND RAPIDS WASTEWATER TREATMENT PLANT	1300 MARKET AVE. SW	GRAND RAPIDS	MI	KENT	49503							NO	S.RADAKOVITZ@LACKSENTERPRISES.COM			NO	 	
48217MRTHN1300S	1312210565634	000127184	TETRACHLOROETHYLENE	TRI	Pounds																		2012	NO	MARATHON PETROLEUM CO LP - MICHIGAN REFINING DIV	1300 S FORT ST HES DEPT	DETROIT	WAYNE	MI	48217	YES	NO	NO	NO								324110						42.282182	-83.158756	962993101								MARATHON PETROLEUM CORP	968393996	0		NA												NO	CTRUTUES@MARATHONPETROLEUM.COM			NO	 	
48054DTRTD4505K	1312210333199	N420	LEAD COMPOUNDS	PBT	Pounds																		2012	NO	DTE ELECTRIC CO - BELLE RIVER POWER PLANT (PART)	4505 KING RD	CHINA TOWNSHIP	ST CLAIR	MI	48054	NO	YES	NO	NO								221112						42.777428	-82.512405	197254725								DTE ENERGY CO		0		NA												NO	BERRISR@DTEENERGY.COM			YES	 	
48030KCJNS321WT	1312210667655	N100	COPPER COMPOUNDS	TRI	Pounds																		2012	NO	K C JONES PLATING CO	321 W TEN MILE RD	HAZEL PARK	OAKLAND	MI	48030	YES	NO	NO	NO								332813						42.475834	-83.106392	005511852										9	M2	DETROIT WWTP-CHLORINATION/DECHLORINATION FACILITY	9300 WEST JEFFERSON AVENUE	DETROIT	MI	WAYNE	482092676							NO	BRIAN.HARRICK@KCJPLATING.COM			YES	 	
48183MRTHN24400	1312210714895	N590	POLYCYCLIC AROMATIC COMPOUNDS	PBT	Pounds																		2012	NO	MARATHON PIPE LINE LLC  WOODHAVEN TERMINAL	24400 ALLEN RD	WOODHAVEN	WAYNE	MI	48183	YES	NO	NO	NO								424710						42.130801	-83.228161	007902836								MARATHON PETROLEUM CORP	968393996	0		NA												NO	RWPRICE@MARATHONPETROLEUM.COM			NO	 	
49068WLKRM904IN	1312210578338	007440020	NICKEL	TRI	Pounds																		2012	NO	TENNECO	904 INDUSTRIAL RD	MARSHALL	CALHOUN	MI	49068	YES	NO	NO	NO								336399						42.266717	-84.97318	106754013								TENNECO INC	003118668	0		NA												NO	BGAMBLE2@TENNECO.COM			YES	 	
48192CDNPL3715E	1312210792711	N230	CERTAIN GLYCOL ETHERS	TRI	Pounds																		2012	NO	CADON PLATING CO	3715 11TH ST	WYANDOTTE	WAYNE	MI	48192	YES	NO	NO	NO								332812	332813					42.195021	-83.165319	005339460										0		NA												NO	BRAGER@CADONPLATING.COM			NO	 	
49036SMCLD180AS	1312210283988	007440508	COPPER	TRI	Pounds																		2012	NO	ASAMA COLDWATER MANUFACTURING	180 ASAMA PKWY	COLDWATER	BRANCH	MI	49036	YES	NO	NO	NO								331511						41.95158	-84.977226									ASAHI KASEI		0		NA												NO	MARK_CONTI@ASAMACM.COM			YES	 	
48055GNRLM4555G	1312210504534	000071432	BENZENE	TRI	Pounds																		2012	NO	GM ORION ASSEMBLY CENTER	4555 GIDDINGS RD	LAKE ORION	OAKLAND	MI	48359	YES	NO	NO	NO								336111						42.7158	-83.2607	007992886								GENERAL MOTORS LLC	831247536	0		NA												NO	SHARON.BASEL@GM.COM			NO	 	
48220GGPRD625WA	1312210685828	000067561	METHANOL	TRI	Pounds																		2012	NO	GAGE PRODUCTS CO	625 WANDA AVE	FERNDALE	OAKLAND	MI	48220	YES	NO	NO	NO								325510						42.451389	-83.114722	005355086		MID005338801								5	C 	DETROIT WWTP-CHLORINATION/DECHLORINATION FACILITY	9300 WEST JEFFERSON AVENUE	DETROIT	MI	WAYNE	482092676							NO	JMILESKIY@GAGEPRODUCTS.COM			NO	 	
48183DTRTD4695W	1312210333050	007664393	HYDROGEN FLUORIDE	TRI	Pounds																		2012	NO	DTE ELECTRIC CO - TRENTON CHANNEL POWER PLANT	4695 W JEFFERSON AVE	TRENTON	WAYNE	MI	48183	YES	NO	NO	NO								221112						42.1237	-83.1812	120464540								DTE ENERGY CO	839329158	0		NA												NO	BERRISR@DTEENERGY.COM			NO	 	
48077STRLN38111	1312210367532	000071432	BENZENE	TRI	Pounds																		2012	NO	CHRYSLER STERLING HEIGHTS ASSEMBLY PLANT	38111 VAN DYKE	STERLING HEIGHTS	MACOMB	MI	48312	YES	NO	NO	NO								336111						42.57361	-83.02969	108426180								CHRYSLER GROUP LLC	830966904	0		NA												NO				NO	 	
48506MDSTT624KE	1312210355855	007697372	NITRIC ACID	TRI	Pounds																		2012	NO	MID STATE PLATING CO	602 KELSO ST	FLINT	GENESEE	MI	48506	YES	NO	NO	NO								332813						43.020555	-83.65203	041812538										0		NA												NO	DAVE@MIDSTATEPLATING.COM			NO	 	
49431GRTLK800NW	1312210584886	N450	MANGANESE COMPOUNDS	TRI	Pounds																		2012	NO	GREAT LAKES CASTINGS LLC	800 N WASHINGTON AVE	LUDINGTON	MASON	MI	494312724	YES	NO	NO	NO								331511						43.964986	-86.439498	006016935								REPUBLIC FINANCIAL CORP	055610216	0		NA												NO	RKILLIPS@GREATLAKESCASTINGS.COM			YES	 	
48079KZSLT916SO	1312210084392	007647010	HYDROCHLORIC ACID (1995 AND AFTER "ACID AEROSOLS" ONLY)	TRI	Pounds																		2012	NO	CARGILL SALT SAINT CLAIR	916 S RIVERSIDE AVE	SAINT CLAIR	ST CLAIR	MI	48079	YES	NO	NO	NO								311942						42.8184	-82.4858	006249189								CARGILL INC	006249189	0		NA												NO	KEITH_KLUG@CARGILL.COM			NO	 	
48921GMCGL920TO	1312210549578	000095636	1,2,4-TRIMETHYLBENZENE	TRI	Pounds																		2012	NO	GMVM-LANSING GRAND RIVER ASSEMBLY	920 TOWNSEND ST MAIL CODE: 489-066-600	LANSING	INGHAM	MI	48933	YES	NO	NO	NO								336111						42.724042	-84.555676	125356613								GENERAL MOTORS LLC	831247536	0		NA												NO	SHARON.BASEL@GM.COM			NO	 	
48921GMCGL920TO	1312210549679	007632000	SODIUM NITRITE	TRI	Pounds																		2012	NO	GMVM-LANSING GRAND RIVER ASSEMBLY	920 TOWNSEND ST MAIL CODE: 489-066-600	LANSING	INGHAM	MI	48933	YES	NO	NO	NO								336111						42.724042	-84.555676	125356613								GENERAL MOTORS LLC	831247536	0	C 	LANSING WWTP	1625 SUNSET AVENUE	LANSING	MI	INGHAM	489171843							NO	SHARON.BASEL@GM.COM			YES	 	
48228PPRTL9100F	1312210663338	007632000	SODIUM NITRITE	TRI	Pounds																		2012	NO	HOUGHTON INTERNATIONAL INC	9100 FREELAND AVE	DETROIT	WAYNE	MI	48228	YES	NO	NO	NO								324191						42.363648	-83.183537	003264405								HOUGHTON INTERNATIONAL INC	002261535	12	M2	DETROIT WATER AND SEWERAGE DEPT	303 SOUTH LIVERNOIS	DETROIT	MI	WAYNE	48209							NO	DON.TESIN@HOUGHTONINTL.COM			YES	 	
49855PRSQS2701L	1312210133726	007647010	HYDROCHLORIC ACID (1995 AND AFTER "ACID AEROSOLS" ONLY)	TRI	Pounds																		2012	NO	PRESQUE ISLE POWER PLANT	2701 LAKESHORE BLVD	MARQUETTE	MARQUETTE	MI	49855	YES	NO	NO	NO								221112						46.58136	-87.39518	007947385								WISCONSIN ENERGY CORP	157305780	0		NA												NO	DONNA.DANIHEL@WE-ENERGIES.COM			NO	 	
49855PRSQS2701L	1312210133740	N420	LEAD COMPOUNDS	PBT	Pounds																		2012	NO	PRESQUE ISLE POWER PLANT	2701 LAKESHORE BLVD	MARQUETTE	MARQUETTE	MI	49855	YES	NO	NO	NO								221112						46.58136	-87.39518	007947385								WISCONSIN ENERGY CORP	157305780	0		NA												NO	DONNA.DANIHEL@WE-ENERGIES.COM			YES	 	
48217DWCLV13800	1312210598443	N420	LEAD COMPOUNDS	PBT	Pounds																		2012	NO	EDW C LEVY CO - PLANT 6	13800 MELLON	DETROIT	WAYNE	MI	48217	YES	NO	NO	NO								327992						42.2925	-83.1627									EDW C LEVY CO	005354816	0		NA												NO	TGREEN@EDWCLEVY.NET			YES	 	
48732DKRNJNWEAD	1312210506364	N100	COPPER COMPOUNDS	TRI	Pounds																		2012	NO	DE KARN JC WEADOCK GENERATING PLANT	N WEADOCK HWY	ESSEXVILLE	BAY	MI	48732	YES	NO	NO	NO								221112						43.64403	-83.840328	149954919								CMS ENERGY	006959803	0		NA												NO	MARY.KULIS@CMSENERGY.COM			YES	 	
49444WBBCH2708J	1312210144883	000107211	ETHYLENE GLYCOL	TRI	Pounds																		2012	NO	WEBB CHEMICAL SERVICE CORP	2708 JARMAN	MUSKEGON HEIGHTS	MUSKEGON	MI	49444	YES	NO	NO	NO								424690						43.202338	-86.231066	006410740										36	O 	MUSKEGON CO WWMS METRO WWTP	8301 WHITE ROAD	MUSKEGON	MI	MUSKEGON	494429497							NO	TFINKLER@WEBBCHEMICAL.COM			NO	 	
48706BYCTY1806M	1312210278127	N590	POLYCYCLIC AROMATIC COMPOUNDS	PBT	Pounds																		2012	NO	MARATHON PETROLEUM CO - BAY CITY MI TERMINAL	1806 MARQUETTE ST	BAY CITY	BAY	MI	48706	YES	NO	NO	NO								424710						43.6169	-83.8658	020658741								MARATHON PETROLEUM CORP	968393996	0		NA												NO	WGMOORE@MARATHONPETROLEUM.COM			NO	 	
49801THNLSONENE	1312210071193	000067561	METHANOL	TRI	Pounds																		2012	NO	NELSON PAINT CO OF MICHIGAN	ONE NELSON DR	KINGSFORD	DICKINSON	MI	49802	YES	NO	NO	NO								325510						45.805687	-88.067454	006134431										0		NA												NO	FRIEDENSTABJ@NELSONPAINT.COM			NO	 	
4950WPRDGN5CTTA	1312210422578	007632000	SODIUM NITRITE	TRI	Pounds																		2012	NO	PRIDGEON & CLAY INC	50 COTTAGE GROVE ST SW	GRAND RAPIDS	KENT	MI	49507	YES	NO	NO	NO								336370						42.93543	-85.66863	006012330								PRIDGEON & CLAY INC.	006012330	0		NA												NO	JLAHUIS@PRIDGEONANDCLAY.COM			YES	 	
48667THDWCMICHI	1312210575407	001928434	2,4-D 2-ETHYLHEXYL ESTER	TRI	Pounds																		2012	NO	THE DOW CHEMICAL CO	1790 BUILDING	MIDLAND	MIDLAND	MI	48667	YES	NO	NO	NO								325199	325211	325320				43.6003	-84.2234	877223370								THE DOW CHEMICAL CO	001381581	0		NA												NO	MORLOCK@DOW.COM			NO	 	
48316FRCTM6226M	1312210549782	N120	DIISOCYANATES	TRI	Pounds																		2012	NO	SHELBY FOAM SYSTEM	6200 26 MILE RD	SHELBY TOWNSHIP	MACOMB	MI	48316	YES	NO	NO	NO								326150						42.713	-83.0522									INTIER AUTOMOTIVE OF AMERICA HOLDINGS INC.		0		NA												NO				NO	 	
49001THPJH7171P	1312210674634	000064186	FORMIC ACID	TRI	Pounds																		2012	NO	PHARMACIA & UPJOHN CO LLC A SUBSIDIARY OF PFIZER INC	7171 PORTAGE RD	KALAMAZOO	KALAMAZOO	MI	49001	YES	NO	NO	NO								325412						42.213044	-85.556083	007702681								PFIZER INC	001326495	0	O 	KALAMAZOO WATER RECLAMATION PLANT	1415 N. HARRISON	KALAMAZOO	MI	KALAMAZOO	490072565							NO	CHRISTOPHER.LODER@PFIZER.COM			NO	 	
49464BLMRF83009	1312210059085	N511	NITRATE COMPOUNDS	TRI	Pounds																		2012	NO	HILLSHIRE BRANDS - ZEELAND	8300 96TH AVE	ZEELAND	OTTAWA	MI	49464	YES	NO	NO	NO								311612						42.918611	-86.028611	168838480								HILLSHIRE BRANDS CO	005213962	0		NA												NO	ROSS.MYERS@HILLSHIREBRANDS.COM			NO	 	
48077STRLN35777	1312210666549	001330207	XYLENE (MIXED ISOMERS)	TRI	Pounds																		2012	NO	DAIMLERCHRYSLER CORP STERLING STAMPING PLANT (PART)	35777 VAN DYKE	STERLING HEIGHTS	MACOMB	MI	48312	NO	YES	NO	NO								336370						42.556157	-83.033974	072782683								CHRYSLER GROUP LLC	001344928	0		NA												NO				NO	 	
48332CCNTR23435	1312210587782	007439921	LEAD	TRI	Pounds																		2012	NO	ACE CONTROLS INC	23435 INDUSTRIAL PARK DR	FARMINGTON HILLS	OAKLAND	MI	48335	YES	NO	NO	NO								333995						42.46256	-83.41934	006405419								KAYDON CORP	101633782	0		NA												NO	VPULTORAK@ACECONTROLS.COM			YES	 	
48686DWCRN3901S	1312210665321	000110543	N-HEXANE	TRI	Pounds																		2012	NO	DOW CORNING CORP MIDLAND PLANT	3901 S SAGINAW RD MAIL # 065	MIDLAND	MIDLAND	MI	486860995	YES	NO	NO	NO								325998						43.58891	-84.20784	005353487								DOW CORNING CORP	005353487	0		NA												NO	JEFFERY.LYNCH@DOWCORNING.COM			NO	 	
49858LJNSC12003	1312210256335	007440020	NICKEL	TRI	Pounds																		2012	NO	LE JONES CO LLC	1200 34TH ST	MENOMINEE	MENOMINEE	MI	49858	YES	NO	NO	NO								331528	332721					45.12962	-87.618626	006134183								L.E. JONES INTERNATIONAL CO LLC		150	O 	MENOMINEE WWTP	1301 5TH AVENUE	MENOMINEE	MI	MENOMINEE	49858							NO	PMELLING@LEJONES.COM			YES	 	
49441CWCCS2672H	1312210695298	007440020	NICKEL	TRI	Pounds																		2012	NO	CWC TEXTRON	1085 W SHERMAN BLVD	MUSKEGON	MUSKEGON	MI	494413588	YES	NO	NO	NO								331511						43.2029	-86.263038	006030357		MID006030357		MIG250337				TEXTRON INC	001339879	.0501	M2	MUSKEGON COUNTY WASTE WATER	8301 WHITE ROAD	MUSKEGON	MI	MUSKEGON	49442							NO	BOB.MEACHAM@KAUTEX.TEXTRON.COM			YES	 	
49221GNRLM1450E	1312210616405	000108883	TOLUENE	TRI	Pounds																		2012	NO	INTEVA PRODUCTS - ADRIAN OPERATIONS	1450 E BEECHER ST	ADRIAN	LENAWEE	MI	49221	YES	NO	NO	NO								336360						41.8895	-84.0142	084571256								THE RENCO GROUP INC	000173278	0		NA												NO	KWELCH@INTEVAPRODUCTS.COM			NO	 	
49707BTBPR416FO	1312210678468	000050000	FORMALDEHYDE	TRI	Pounds																		2012	NO	DECORATIVE PANELS INTERNATIONAL	416 FORD AVE	ALPENA	ALPENA	MI	49707	YES	NO	NO	NO								321219						45.064036	-83.424389	148288868								AMERICAN STANDARD BRANDS	809119709	0		NA												NO				NO	 	
48174CHMCN13395	1312210324962	000091203	NAPHTHALENE	TRI	Pounds																		2012	NO	UNIVAR USA INC ROMULUS BRANCH	13395 HURON RIVER DR	ROMULUS	WAYNE	MI	481740906	YES	NO	NO	NO								424690						42.206574	-83.403378									UNIVAR USA INC	102971785	0	O 	WYANDOTTE WASTEWATER PLANT	797 CENTRAL AVENUE	WYANDOTTE	MI	WAYNE	481927307							NO	TIEN.PHAM@UNIVARUSA.COM			NO	 	
49512DSLTC43004	1312210717563	007440473	CHROMIUM	TRI	Pounds																		2012	NO	ROBERT BOSCH FUEL SYSTEMS LLC	4700 BROADMOOR ST SE	KENTWOOD	KENT	MI	49512	YES	NO	NO	NO								336399						42.883617	-85.560279	194894572								ROBERT BOSCH N.A.	037041076	0		NA												NO	BECKY.MACDONALD@US.BOSCH.COM			YES	 	
49252MCHGN720HE	1312210687428	007439976	MERCURY	PBT	Pounds																		2012	NO	MICHIGAN SOUTH CENTRAL POWER AGENCY	720 HERRING RD	LITCHFIELD	HILLSDALE	MI	49252	YES	NO	NO	NO								221112						42.0318	-84.755	094798121										0		NA												NO	BURKM@MSCPA.NET			YES	 	
49508LCTRC379FO	1312210819710	N420	LEAD COMPOUNDS	PBT	Pounds																		2012	NO	ELECTRO CHEMICAL FINISHING CO	379 44TH ST SW	WYOMING	KENT	MI	49548	YES	NO	NO	NO								332813						42.884423	-85.674707	085889459								ELECTRO CHEMICAL FINISHING CO		1	M2	CITY OF WYOMING CLEAN WATER PLANT	2350 IVANREST AVE. SW	GRANDVILLE	MI	KENT	494183402							NO	SHULST@ECFINC.COM			YES	 	
48341KZCTN2527B	1312210657223	001330207	XYLENE (MIXED ISOMERS)	TRI	Pounds																		2012	NO	AKZONOBEL COATINGS INC	120 FRANKLIN RD	PONTIAC	OAKLAND	MI	48341	YES	NO	NO	NO								325510						42.6263	-83.2891	119274454								AKZO NOBEL NV	021973748	0		NA												NO	PETER.ONYSKIW@AKZONOBEL.COM			NO	 	
48838FDRLM510EG	1312210808097	007440508	COPPER	TRI	Pounds																		2012	NO	FEDERAL-MOGUL POWERTRAIN	510 E GROVE ST	GREENVILLE	MONTCALM	MI	48838	YES	NO	NO	NO								336312						43.180789	-85.24554	175796464								FEDERAL MOGUL CORP	006557045	.177	M2	GREENVILLE WWTP	205 FAIRPLAINS	GREENVILLE	MI	MONTCALM	488382413							NO	SHANDA.JENNINGS@FEDERALMOGUL.COM			YES	 	
48184FRDMT38303	1312210292254	000107211	ETHYLENE GLYCOL	TRI	Pounds																		2012	NO	FORD MOTOR CO MICHIGAN ASSEMBLY PLANT	38303 MICHIGAN AVE	WAYNE	WAYNE	MI	48184	YES	NO	NO	NO								336112						42.26666	-83.4	120551403								FORD MOTOR CO	001344746	2200	O 	DETROIT WWTP-CHLORINATION/DECHLORINATION FACILITY	9300 WEST JEFFERSON AVENUE	DETROIT	MI	WAYNE	482092676							NO	JNOWAK2@FORD.COM			NO	 	
48055GNRLM4555G	1312210504647	000071363	N-BUTYL ALCOHOL	TRI	Pounds																		2012	NO	GM ORION ASSEMBLY CENTER	4555 GIDDINGS RD	LAKE ORION	OAKLAND	MI	48359	YES	NO	NO	NO								336111						42.7158	-83.2607	007992886								GENERAL MOTORS LLC	831247536	0		NA												NO	SHARON.BASEL@GM.COM			NO	 	
48184MRCNJ34136	1312210638351	000100414	ETHYLBENZENE	TRI	Pounds																		2012	NO	AMERICAN JETWAY CORP	34136 MYRTLE	WAYNE	WAYNE	MI	48184	YES	NO	NO	NO								325998						42.279167	-83.375073	049266521										0		NA												NO	GJONES@AMERICANJETWAY.COM			NO	 	
48184MRCNJ34136	1312210638490	001330207	XYLENE (MIXED ISOMERS)	TRI	Pounds																		2012	NO	AMERICAN JETWAY CORP	34136 MYRTLE	WAYNE	WAYNE	MI	48184	YES	NO	NO	NO								325998						42.279167	-83.375073	049266521										0		NA												NO	GJONES@AMERICANJETWAY.COM			NO	 	
48817MCGNN1021N	1312210830434	007440020	NICKEL	TRI	Pounds																		2012	NO	MACHINE TOOL & GEAR INC	1021 N SHIAWASSEE	CORUNNA	SHIAWASSEE	MI	48817	YES	NO	NO	NO								336350						42.994195	-84.119968	933479446		MID058825258						NEWCOR	835536699	0		NA												NO	DOCHODNICKY@NEWCOR.COM			YES	 	
48120DBLGL3000M	1312210239962	007440666	ZINC (FUME OR DUST)	TRI	Pounds																		2012	NO	DOUBLE EAGLE STEEL COATING CO	3000 MILLER RD	DEARBORN	WAYNE	MI	48120	YES	NO	NO	NO								332812						42.308891	-83.156689	131430183								DOUBLE EAGLE STEEL COATING CO	131430183	0		NA												NO	HOWARD@DESCC.COM			YES	 	
49707LFRGCFORDA	1312210461404	N450	MANGANESE COMPOUNDS	TRI	Pounds																		2012	NO	LAFARGE MIDWEST INC	1435 FORD AVE	ALPENA	ALPENA	MI	49707	YES	NO	NO	NO								327310						45.072443	-83.404362	555427079								LAFARGE N.A. INC	050622018	0		NA												NO	GIL.PETERSON@LAFARGE-NA.COM			YES	 	
4954WGRSPR218AV	1312210558502	007439921	LEAD	TRI	Pounds																		2012	NO	GR SPRING & STAMPING INC	2180 AVASTAR PKWY NW	WALKER	KENT	MI	49544	YES	NO	NO	NO								336370						43.00247	-85.688165									HZ INDUSTRIES	006018311	0		NA												NO	JENNIFERROBINSON@GRS-S.COM			YES	 	
4834WSPRRM247AU	1312210216709	N511	NITRATE COMPOUNDS	TRI	Pounds																		2012	NO	SUPERIOR MATERIALS 36	2470 AUBURN RD	AUBURN HILLS	OAKLAND	MI	48342	YES	NO	NO	NO								327320						42.63472	-83.240399											0		NA												NO	MJWOLOSZYK@SUPERIORMATERIALS.NET			NO	 	
48183DTRTD4695W	1312210332971	N100	COPPER COMPOUNDS	TRI	Pounds																		2012	NO	DTE ELECTRIC CO - TRENTON CHANNEL POWER PLANT	4695 W JEFFERSON AVE	TRENTON	WAYNE	MI	48183	YES	NO	NO	NO								221112						42.1237	-83.1812	120464540								DTE ENERGY CO	839329158	0		NA												NO	BERRISR@DTEENERGY.COM			YES	 	
48061NTDTC1905B	1312210822944	N120	DIISOCYANATES	TRI	Pounds																		2012	NO	IAC PORT HURON LLC	1905 BEARD ST	PORT HURON	ST CLAIR	MI	48060	YES	NO	NO	NO								336399						42.95832	-82.44444	064206444								IAC N.A.	064206444	0		NA												NO	GESCHENBERG@IACGROUP.COM			NO	 	
49512LCKSN43755	1312210265132	000108101	METHYL ISOBUTYL KETONE	TRI	Pounds																		2012	NO	LACKS TRIM SYSTEMS - 52ND STREET PAINT EAST	4375 52ND ST SE	KENTWOOD	KENT	MI	49512	YES	NO	NO	NO								336399						42.869223	-85.557313	607580149								LACKS ENTERPRISES INC	616811659	5	O 	CITY OF GRAND RAPIDS WASTEWATER TREATMENT PLANT	1300 MARKET AVE. SW	GRAND RAPIDS	MI	KENT	49503							NO	S.RADAKOVITZ@LACKSENTERPRISES.COM			NO	 	
4950WGRSPR76BND	1312210558591	007440020	NICKEL	TRI	Pounds																		2012	NO	GR SPRING & STAMPING INC	706 BOND AVE NW	GRAND RAPIDS	KENT	MI	49503	YES	NO	NO	NO								336370						42.975236	-85.671412									HZ INDUSTRIES	006018311	0		NA												NO	JENNIFERROBINSON@GRS-S.COM			YES	 	
4883WXCLDM9GARD	1312210206823	000107211	ETHYLENE GLYCOL	TRI	Pounds																		2012	NO	EXCELDA MANUFACTURING CO - FOWLERVILLE	900 GARDEN LN	FOWLERVILLE	LIVINGSTON	MI	48836	YES	NO	NO	NO								325998						42.65511	-84.08454	005320007										0		NA												NO	GSODE@EXCELDA.COM			NO	 	
48218SCKBT14ZUG	1312210774838	000067561	METHANOL	TRI	Pounds																		2012	NO	EES COKE BATTERY LLC	1400 ZUG ISLAND	RIVER ROUGE	WAYNE	MI	48218	YES	NO	NO	NO								324199						42.29	-83.11	876235490								DTE ENERGY CO	839329158	0		NA												NO				NO	 	
48228PPRTL9100F	1312210663326	N511	NITRATE COMPOUNDS	TRI	Pounds																		2012	NO	HOUGHTON INTERNATIONAL INC	9100 FREELAND AVE	DETROIT	WAYNE	MI	48228	YES	NO	NO	NO								324191						42.363648	-83.183537	003264405								HOUGHTON INTERNATIONAL INC	002261535	12	M2	DETROIT WATER AND SEWERAGE DEPT	303 SOUTH LIVERNOIS	DETROIT	MI	WAYNE	48209							NO	DON.TESIN@HOUGHTONINTL.COM			NO	 	
48121RGSTL3001M	1312210696997	N590	POLYCYCLIC AROMATIC COMPOUNDS	PBT	Pounds																		2012	NO	SEVERSTAL DEARBORN LLC	4001 MILLER RD	DEARBORN	WAYNE	MI	48120	YES	NO	NO	NO								331111	331221					42.301111	-83.1625	142299051								SEVERSTAL N.A. INC	645166489	0		NA												NO	JIM.EARL@SEVERSTALNA.COM			NO	 	
48066PLLPL15765	1312210132635	007697372	NITRIC ACID	TRI	Pounds																		2012	NO	HOWARD FINISHING LLC	15765 STURGEON	ROSEVILLE	MACOMB	MI	48066	YES	NO	NO	NO								332813						42.5141	-82.9604	113233691								HOWARD FINISHING LLC	113233691	0		NA												NO	JEGRIMES@HOWARDFINISHING.COM			NO	 	
48551GMCTRG3100	1312210412351	000108883	TOLUENE	TRI	Pounds																		2012	NO	GM LLC POWERTRAIN FLINT ENGINE OPERATIONS	2100 BRISTOL RD	FLINT	GENESEE	MI	48552	NO	YES	NO	NO								336370						42.985622	-83.716612	070628511	005356662							GENERAL MOTORS LLC	831247536	0		NA												NO	KIMBERLY.CARPENTER@GM.COM			NO	 	
48551GMCTRG3100	1312210412449	001330207	XYLENE (MIXED ISOMERS)	TRI	Pounds																		2012	NO	GM LLC POWERTRAIN FLINT ENGINE OPERATIONS	2100 BRISTOL RD	FLINT	GENESEE	MI	48552	NO	YES	NO	NO								336370						42.985622	-83.716612	070628511	005356662							GENERAL MOTORS LLC	831247536	0		NA												NO	KIMBERLY.CARPENTER@GM.COM			NO	 	
49120NLSCH225FO	1312209931599	001330207	XYLENE (MIXED ISOMERS)	TRI	Pounds																		2012	NO	NCP COATINGS INC	225 FORT ST	NILES	BERRIEN	MI	491200307	YES	NO	NO	NO								325510						41.8124	-86.2536	005167242								NCP COATINGS INC		0		NA												NO	SHERMAN@NCPCOATINGS.COM			NO	 	
48551GMCTRG3100	1312210418620	000110543	N-HEXANE	TRI	Pounds																		2012	NO	GM LLC POWERTRAIN FLINT ENGINE OPERATIONS	2100 BRISTOL RD	FLINT	GENESEE	MI	48552	NO	YES	NO	NO								336112						42.985622	-83.716612	070628511	005356662							GENERAL MOTORS LLC	831247536	0		NA												NO	KIMBERLY.CARPENTER@GM.COM			NO	 	
48757GRCCH2405S	1312210678102	N100	COPPER COMPOUNDS	TRI	Pounds																		2012	NO	AGRIUM ADVANCED TECHNOLOGIES (US) INC	2405 W VASSAR RD M-15	REESE	SAGINAW	MI	48757	YES	NO	NO	NO								325314						43.441644	-83.753319	072768500								AGRIUM INC	249568056	0		NA												NO	DEDGINGTON@AGRIUMAT.COM			YES	 	
49443SNCHM4925E	1312210862773	N511	NITRATE COMPOUNDS	TRI	Pounds																		2012	NO	SUN CHEMICAL CORP MUSKEGON PL ANT	4925 EVANSTON AVE	MUSKEGON	MUSKEGON	MI	49442	YES	NO	NO	NO								325131						43.2129	-86.137	085889285								DIC AMERICAS INC	054527502	122841	O 	MUSKEGON CO WWMS METRO WWTP	8301 WHITE ROAD	MUSKEGON	MI	MUSKEGON	494429497							NO	SCOTT.HENDRYX@SUNCHEMICAL.COM			NO	 	
48150PPLDP12238	1312210040224	007632000	SODIUM NITRITE	TRI	Pounds																		2012	NO	APPLIED PROCESS INC	12238 NEWBURGH RD	LIVONIA	WAYNE	MI	48150	YES	NO	NO	NO								332811						42.373304	-83.411551	121521397								APPLIED PROCESS INC		0		NA												NO	RDESORMEAUX@APPLIEDPROCESS.COM			YES	 	
49333BRDFR200LA	1312210325306	N120	DIISOCYANATES	TRI	Pounds																		2012	NO	BRADFORD WHITE CORP	200 LAFAYETTE ST	MIDDLEVILLE	BARRY	MI	493339492	YES	NO	NO	NO								335228						42.7178	-85.4633	157297540								BRADFORD WHITE CORP	157297540	0		NA												NO	RBOYEA@BRADFORDWHITE.COM			NO	 	
48211SLCTY1923F	1312210564706	N010	ANTIMONY COMPOUNDS	TRI	Pounds																		2012	NO	EQ DETROIT INC	1923 FREDERICK	DETROIT	WAYNE	MI	48211	YES	NO	NO	NO								562211	562998	562219				42.366697	-83.048061	035420772								EQ HOLDINGS CO	022528553	0	C 	CITY OF DETROIT WATER SEWERAGE	303 LIVERNOIS	DETROIT	MI	WAYNE	48209							NO	SCOTT.MARIS@EQONLINE.COM			YES	 	
49504SFTYK2700M	1312210387864	N590	POLYCYCLIC AROMATIC COMPOUNDS	PBT	Pounds																		2012	NO	SAFETY-KLEEN SYSTEMS (506101)	2700 MULLINS	GRAND RAPIDS	KENT	MI	49504	YES	NO	NO	NO								562112	484220	484230				43.016161	-85.757217	053976551								SAFETY-KLEEN INC	053976551	0		NA												NO	ADAM.TODD@SAFETY-KLEEN.COM			NO	 	
48686DWCRN3901S	1312210665220	000075003	CHLOROETHANE	TRI	Pounds																		2012	NO	DOW CORNING CORP MIDLAND PLANT	3901 S SAGINAW RD MAIL # 065	MIDLAND	MIDLAND	MI	486860995	YES	NO	NO	NO								325998						43.58891	-84.20784	005353487								DOW CORNING CORP	005353487	0		NA												NO	JEFFERY.LYNCH@DOWCORNING.COM			NO	 	
48686DWCRN3901S	1312210665283	007647010	HYDROCHLORIC ACID (1995 AND AFTER "ACID AEROSOLS" ONLY)	TRI	Pounds																		2012	NO	DOW CORNING CORP MIDLAND PLANT	3901 S SAGINAW RD MAIL # 065	MIDLAND	MIDLAND	MI	486860995	YES	NO	NO	NO								325998						43.58891	-84.20784	005353487								DOW CORNING CORP	005353487	0		NA												NO	JEFFERY.LYNCH@DOWCORNING.COM			NO	 	
48229GRTLKNO1QU	1312210572133	001332214	ASBESTOS (FRIABLE)	TRI	Pounds																		2012	NO	US STEEL CORP GREAT LAKES WORKS	1 QUALITY DR	ECORSE	WAYNE	MI	48229	YES	NO	NO	NO								331111						42.281735	-83.110231	004320479								US STEEL CORP	029990699	0		NA												NO				YES	 	
49221NDRSN525GU	1312210867420	007440020	NICKEL	TRI	Pounds																		2012	NO	ANDERSON DEVELOPMENT CO	525 GULF ST	ADRIAN	LENAWEE	MI	49221	YES	NO	NO	NO								325120						41.891389	-84.0175	022931228								ANDERSON DEVELOPMENT CO	022931228	0		NA												NO	CHRIS.GOELOE@ANDDEV.COM	RR5		YES	 	
48134MZDMT1MAZD	1312210378384	000071432	BENZENE	TRI	Pounds																		2012	NO	FLAT ROCK ASSEMBLY PLANT	1 INTERNATIONAL DR	FLAT ROCK	WAYNE	MI	48134	YES	NO	NO	NO								336111	336211	336370				42.10621	-83.247708	139464804								FORD MOTOR CO	001344746	0		NA												NO	AGEDMAN@FORD.COM			NO	 	
48239FRGNG126BE	1312210007199	007440484	COBALT	TRI	Pounds																		2012	NO	STEEL INDUSTRIES PLANT 1	12600 BEECH DALY	REDFORD	WAYNE	MI	48239	YES	NO	NO	NO								332111						42.377778	-83.295	102673725								AMERIFORGE GROUP	136438327	0		NA												NO	RMICALLEF@AMERIFORGE.COM			YES	 	
48211DYNCL6520G	1312210488058	N511	NITRATE COMPOUNDS	TRI	Pounds																		2012	NO	US ECOLOGY MICHIGAN (DBA DYNECOL)	6520 GEORGIA ST	DETROIT	WAYNE	MI	48211	YES	NO	NO	NO								562211						42.393	-83.0326	074259565								US ECOLOGY INC.	118806585	645356	C 	DETROIT WWTP-CHLORINATION/DECHLORINATION FACILITY	9300 WEST JEFFERSON AVENUE	DETROIT	MI	WAYNE	482092676							NO				NO	 	
49876CHMPNUSHIG	1312210681312	000075070	ACETALDEHYDE	TRI	Pounds																		2012	NO	VERSO QUINNESEC LLC	US HWY 2	QUINNESEC	DICKINSON	MI	49876	YES	NO	NO	NO								322121	322110					45.795587	-87.958358	038771036								VERSO PAPER CORP	826480902	0		NA												NO	JEFF.MAULE@VERSOPAPER.COM			NO	 	
49858NCHRC55201	1312210163352	007439921	LEAD	TRI	Pounds																		2012	NO	ANCHOR COUPLING INC	5520 13TH ST	MENOMINEE	MENOMINEE	MI	49858	YES	NO	NO	NO								332912						45.152098	-87.617516	115429151								CATERPILLAR INC	005070479	.05	M2	MENOMINEE WWTP	1301 5TH AVENUE	MENOMINEE	MI	MENOMINEE	49858							NO	DUGAN_JIM_@CAT.COM			YES	 	
48217MRTHN1300S	1312210565507	007647010	HYDROCHLORIC ACID (1995 AND AFTER "ACID AEROSOLS" ONLY)	TRI	Pounds																		2012	NO	MARATHON PETROLEUM CO LP - MICHIGAN REFINING DIV	1300 S FORT ST HES DEPT	DETROIT	WAYNE	MI	48217	YES	NO	NO	NO								324110						42.282182	-83.158756	962993101								MARATHON PETROLEUM CORP	968393996	0		NA												NO	CTRUTUES@MARATHONPETROLEUM.COM			NO	 	
48054DTRTD4505K	1312210333151	007647010	HYDROCHLORIC ACID (1995 AND AFTER "ACID AEROSOLS" ONLY)	TRI	Pounds																		2012	NO	DTE ELECTRIC CO - BELLE RIVER POWER PLANT (PART)	4505 KING RD	CHINA TOWNSHIP	ST CLAIR	MI	48054	NO	YES	NO	NO								221112						42.777428	-82.512405	197254725								DTE ENERGY CO		0		NA												NO	BERRISR@DTEENERGY.COM			NO	 	
49015MGCST31FRI	1312210123156	007440020	NICKEL	TRI	Pounds																		2012	NO	OMEGA CASTINGS INC	301 FRITZ KEIPER BLVD FORT CUSTER/INDUSTRIAL PARK	BATTLE CREEK	CALHOUN	MI	49037	YES	NO	NO	NO								331513						42.33667	-85.28778	079286571										0		NA												NO	BRETT@OMEGACASTINGS.COM			YES	 	
48071STRNC434WE	1312209907500	N120	DIISOCYANATES	TRI	Pounds																		2012	NO	CASS POLYMERS OF MICHIGAN INC	31200 STEPHENSON HWY	MADISON HEIGHTS	OAKLAND	MI	48071	YES	NO	NO	NO								325520						42.521686	-83.119207	017125402								CASS HOLDING LLC		0		NA												NO	DHAYNES@CASSPOLYMERS.COM			NO	 	
48207JXMTL4651B	1312210213512	N495	NICKEL COMPOUNDS	TRI	Pounds																		2012	NO	AJAX METAL PROCESSING INC	4651 BELLEVUE AVE	DETROIT	WAYNE	MI	48207	YES	NO	NO	NO								332813						42.369	-83.0222	005320031								AJAX METAL PROCESSING INC		622	O 	DETROIT WWTP-CHLORINATION/DECHLORINATION FACILITY	9300 WEST JEFFERSON AVENUE	DETROIT	MI	WAYNE	482092676							NO	FBUONO@AJAXMETAL.COM			YES	 	
49042MCHGN125DE	1312210368926	N511	NITRATE COMPOUNDS	TRI	Pounds																		2012	NO	MICHIGAN MILK PRODUCERS ASSOC	125 DEPOT ST	CONSTANTINE	ST JOSEPH	MI	49042	YES	NO	NO	NO								311514						41.843611	-85.665278	005382460								MICHIGAN MILK PRODUCERS ASSOC	005382460	12851	C 	THREE RIVERS WWTP	409 WOLF ROAD	THREE RIVERS	MI	ST JOSEPH	49093							NO	DAVIS@MIMILK.COM			NO	 	
49460JHCMP17000	1312210449548	007664417	AMMONIA	TRI	Pounds																		2012	NO	J H CAMPBELL GENERATING PLANT	17000 CROSWELL ST	WEST OLIVE	OTTAWA	MI	49460	YES	NO	NO	NO								221112						42.912078	-86.203574	041409954								CMS ENERGY	006959803	0		NA												NO	ROGER.MORGENSTERN@CMSENERGY.COM			NO	 	
4942WGRTKN4211H	1312210278317	007440666	ZINC (FUME OR DUST)	TRI	Pounds																		2012	NO	AGRITEK INDUSTRIES INC	4211 HALLACY DR	HOLLAND	OTTAWA	MI	49424	YES	NO	NO	NO								332116						42.84505	-86.10862	181363672										0		NA												NO				YES	 	
48103THTFR7101J	1312210290728	000050000	FORMALDEHYDE	TRI	Pounds																		2012	NO	THETFORD CORP	7101 JACKSON RD	ANN ARBOR	WASHTENAW	MI	48103	YES	NO	NO	NO								325612						42.291667	-83.87	053334892								THETFORD CORP		0		NA												NO	WLOREK@NORCOLD.COM			NO	 	
48218DTRTL25MAR	1312210600793	007440666	ZINC (FUME OR DUST)	TRI	Pounds																		2012	NO	CARMEUSE LIME INC  RIVER ROUGE FACILITY	25 MARION AVE	RIVER ROUGE	WAYNE	MI	48218	YES	NO	NO	NO								327410						42.2774	-83.128	039103122								CARMEUSE N.A.	021073510	0		NA												NO	DAVID.SWISHER@CARMEUSENA.COM			YES	 	
49444WBBCH2708J	1312210144895	000050000	FORMALDEHYDE	TRI	Pounds																		2012	NO	WEBB CHEMICAL SERVICE CORP	2708 JARMAN	MUSKEGON HEIGHTS	MUSKEGON	MI	49444	YES	NO	NO	NO								424690						43.202338	-86.231066	006410740										20	O 	MUSKEGON CO WWMS METRO WWTP	8301 WHITE ROAD	MUSKEGON	MI	MUSKEGON	494429497							NO	TFINKLER@WEBBCHEMICAL.COM			NO	 	
48706BYCTY1806M	1312210278053	000095636	1,2,4-TRIMETHYLBENZENE	TRI	Pounds																		2012	NO	MARATHON PETROLEUM CO - BAY CITY MI TERMINAL	1806 MARQUETTE ST	BAY CITY	BAY	MI	48706	YES	NO	NO	NO								424710						43.6169	-83.8658	020658741								MARATHON PETROLEUM CORP	968393996	0		NA												NO	WGMOORE@MARATHONPETROLEUM.COM			NO	 	
49423NFRMC942BR	1312210764674	N090	CHROMIUM COMPOUNDS(EXCEPT CHROMITE ORE MINED IN THE TRANSVAAL REGION)	TRI	Pounds																		2012	NO	UNIFORM COLOR CO	942 BROOKS AVE	HOLLAND	ALLEGAN	MI	49423	YES	NO	NO	NO								325131	325991					42.763643	-86.083489	038621801								UNIFORM COLOR CO		1.03	O 	HOLLAND BOARD OF PUBLIC WORKS	625 HASTINGS AVENUE	HOLLAND	MI	OTTAWA	49423							NO	JPORATH@UNIFORMCOLOR.COM			YES	 	
49120NLSCH225FO	1312209931551	000108101	METHYL ISOBUTYL KETONE	TRI	Pounds																		2012	NO	NCP COATINGS INC	225 FORT ST	NILES	BERRIEN	MI	491200307	YES	NO	NO	NO								325510						41.8124	-86.2536	005167242								NCP COATINGS INC		0		NA												NO	SHERMAN@NCPCOATINGS.COM			NO	 	
49068TCMCR1511G	1312210624173	N495	NICKEL COMPOUNDS	TRI	Pounds																		2012	NO	AUTOCAM CORP MARSHALL	1511 GEORGE BROWN DR	MARSHALL	CALHOUN	MI	49068	YES	NO	NO	NO								332721						42.280278	-84.956944	101639599								MICRON HOLDINGS INC		0		NA												NO	MFINGAS@AUTOCAM.COM			YES	 	
49221NDRSN1415E	1312210623260	000110543	N-HEXANE	TRI	Pounds																		2012	NO	ANDERSON DEVELOPMENT CO	1415 E MICHIGAN ST	ADRIAN	LENAWEE	MI	49221	YES	NO	NO	NO								325211						41.89361	-84.01721	002931228								ANDERSON DEVELOPMENT CO	002931228	0		NA												NO	CHRIS.GOELOE@ANDDEV.COM			NO	 	
48667THDWCMICHI	1312210575534	000079118	CHLOROACETIC ACID	TRI	Pounds																		2012	NO	THE DOW CHEMICAL CO	1790 BUILDING	MIDLAND	MIDLAND	MI	48667	YES	NO	NO	NO								325199	325211	325320				43.6003	-84.2234	877223370								THE DOW CHEMICAL CO	001381581	0		NA												NO	MORLOCK@DOW.COM			NO	 	
48667THDWCMICHI	1312210575700	000088857	DINITROBUTYL PHENOL	TRI	Pounds																		2012	NO	THE DOW CHEMICAL CO	1790 BUILDING	MIDLAND	MIDLAND	MI	48667	YES	NO	NO	NO								325199	325211	325320				43.6003	-84.2234	877223370								THE DOW CHEMICAL CO	001381581	0		NA												NO	MORLOCK@DOW.COM			NO	 	
48667THDWCMICHI	1312210575787	000118741	HEXACHLOROBENZENE	PBT	Pounds																		2012	NO	THE DOW CHEMICAL CO	1790 BUILDING	MIDLAND	MIDLAND	MI	48667	YES	NO	NO	NO								325199	325211	325320				43.6003	-84.2234	877223370								THE DOW CHEMICAL CO	001381581	0		NA												NO	MORLOCK@DOW.COM			NO	 	
48667THDWCMICHI	1312210575989	000068122	N,N-DIMETHYLFORMAMIDE	TRI	Pounds																		2012	NO	THE DOW CHEMICAL CO	1790 BUILDING	MIDLAND	MIDLAND	MI	48667	YES	NO	NO	NO								325199	325211	325320				43.6003	-84.2234	877223370								THE DOW CHEMICAL CO	001381581	0		NA												NO	MORLOCK@DOW.COM			NO	 	
48192BSFCR1609B	1312210594444	N230	CERTAIN GLYCOL ETHERS	TRI	Pounds																		2012	NO	BASF CORP	1609 BIDDLE AVE	WYANDOTTE	WAYNE	MI	481923729	YES	NO	NO	NO								325211						42.2183	-83.1459	064197742								BASF CORP	071014385	250	O 	WYANDOTTE WASTEWATER PLANT	797 CENTRAL AVENUE	WYANDOTTE	MI	WAYNE	481927307							NO				NO	 	
49417FNSHC1820H	1312210710543	N982	ZINC COMPOUNDS	TRI	Pounds																		2012	NO	SHAPE 1820	1820 HAYES ST	GRAND HAVEN	OTTAWA	MI	49417	YES	NO	NO	NO								332812						43.02969	-86.223645	065859555								SHAPE CORP	065859555	38	O 	GRAND HAVEN/SPRING LAKE WASTEWATER TREATMENT PLANT	1525 WASHINGTON	GRAND HAVEN	MI	OTTAWA	494171633							NO	CURRIERB@SHAPECORP.COM			YES	 	
49345GNRLF320SO	1312210282125	000110543	N-HEXANE	TRI	Pounds																		2012	NO	GENERAL FORMULATIONS INC	320 S UNION	SPARTA	KENT	MI	49345	YES	NO	NO	NO								322222						43.155315	-85.706765	006011100								CELIA CORP	006011100	0		NA												NO	DFODROCY@GENERALFORMULATIONS.COM			NO	 	
