Year,TRI Facility ID,Facility Name,Street Address,City,County,ST,ZIP,Latitude,Longitude,Primary SIC,SIC 2,SIC 3,SIC 4,SIC 5,SIC 6,Primary NAICS,NAICS 2,NAICS 3,NAICS 4,NAICS 5,NAICS 6,Doc_Ctrl_Num,Chemical,CAS #/Compound ID,Clean Air Act Chemical,Classification,Metal,Metal Category,Carcinogen,Form Type,Unit of Measure,5.1 Fugitive Air,5.2 Stack Air,5.3 Water,5.4.1 Underground Class I,5.4.2 Underground Class II-V,5.5.1A RCRA C Landfills,5.5.1B Other Landfills,5.5.2 Land Treatment,5.5.3 Surface Impoundment,5.5.3A RCRA C Surface Impoundment,5.5.3B Other Surface Impoundment,5.5.4 Other Disposal,On-site Release Total,6.1 POTW - Metals and Metal Compounds,6.1 POTW - Non-Metals,6.1 POTW - Total Transfers,6.2 M10,6.2 M41,6.2 M62,6.2 M71,6.2 M81,6.2 M82,6.2 M72,6.2 M63,6.2 M66,6.2 M67,6.2 M64,6.2 M65,6.2 M73,6.2 M79,6.2 M90,6.2 M94,6.2 M99,Off-Site Release Total,6.2 M20,6.2 M24,6.2 M26,6.2 M28,6.2 M93,Off-Site Recycled Total,6.2 M56,6.2 M92,Off-Site Recovery Total,6.2 M40,6.2 M50,6.2 M54,6.2 M61,6.2 M69,6.2 M95,Off-Site Treated Total,Total Releases,8.1 Releases,8.1a On-site Contained Releases,8.1b On-site Other Releases,8.1c Off-site Contained Releases,8.1d Off-site Other Releases,8.2 Energy Recovery On-site,8.3 Energy Recovery Off-site,8.4 Recycling On-Site,8.5 Recycling Off-Site,8.6 Treatment On-site,8.7 Treatement Off-site,Production Waste (8.1 thru 8.7),8.8 One-time Release,8.9 Production Ratio,Parent Company Name,Parent Company DB Number,3/3/2012 v10
2005,90805RCPRD5905P,BP EAST HYNES TERMINAL,5905 PARAMOUNT BLVD,LONG BEACH,LOS ANGELES,CA,90805,33.861098,-118.1599,5171,,,,,,424710,,,,,,1305203426275,PROPYLENE,000115071,NO,NON-PBT,NO,0,NO,R,Pounds,.42,73.98,0,0,0,0,0,0,0,0,0,0,74.4,0,0,0,0,0,0,0,0,0,0,0,0,0,0,0,0,0,0,0,0,0,0,0,0,0,0,0,0,0,0,0,0,0,0,0,0,0,74.4,0,0,74.4,0,0,0,0,0,0,0,0,74.4,0,1,BP PRODUCTS NA INC,039596507
2005,92368RVRSD19409,TXI RIVERSIDE CEMENT ORO GRANDE PLANT,19409 NATIONAL TRAILS HWY,ORO GRANDE,SAN BERNARDINO,CA,92368,34.603093,-117.339555,3241,,,,,,327310,,,,,,1305203446998,LEAD COMPOUNDS,N420,YES,PBT,YES,1,NO,R,Pounds,124,143,0,0,0,185322,0,0,0,0,0,0,185589,0,0,0,0,0,0,0,0,0,0,0,0,0,0,0,0,0,0,0,0,0,0,0,0,0,0,0,0,0,0,0,0,0,0,0,0,0,185589,0,185322,267,0,0,0,0,0,0,0,0,185589,0,1.03,TEXAS INDUSTRIES INC,NA
2005,92509DRCTP5361V,DURA COAT PRODUCTS INC,5361 VIA RICARDO,RIVERSIDE,RIVERSIDE,CA,92509,34.017494,-117.377606,2851,,,,,,325510,,,,,,1305203447115,ZINC COMPOUNDS,N982,NO,NON-PBT,YES,1,NO,R,Pounds,.34,0,0,0,0,0,0,0,0,0,0,0,.34,0,0,0,0,0,0,0,0,0,0,0,0,0,0,0,0,0,0,0,0,0,0,0,0,0,0,0,0,0,0,0,0,0,0,0,0,0,.34,0,0,.34,0,0,0,0,0,0,0,0,.34,0,.99,DURA COAT PRODUCTS INC,129148818
2005,95965RCBS 605OR,AMMUNITION ACCESSORIES INC. RCBS OPERATION,605 ORO DAM BLVD,OROVILLE,BUTTE,CA,95965,39.49866,-121.568474,3499,,,,,,332999,,,,,,1305203461633,LEAD,007439921,YES,PBT,YES,1,YES,R,Pounds,0,0,0,0,0,0,0,0,0,0,0,0,0,0,0,0,0,0,0,0,0,0,0,0,0,0,0,0,0,0,0,0,0,0,0,0,0,0,436.13,436.13,0,0,0,0,0,0,0,0,0,0,0,0,0,0,0,0,0,0,0,436.13,0,0,436.13,0,.86,ALLIANT TECHSYSTEMS (ATK),618705925
2005,94565GWFPW1600L,GWF POWER SYSTEMS LP,1600 LOVERIDGE RD,PITTSBURG,CONTRA COSTA,CA,94565,38.015762,-121.859083,4911,,,,,,221112,,,,,,1305203466646,NICKEL COMPOUNDS,N495,YES,NON-PBT,YES,1,NO,A,Pounds,0,0,0,0,0,0,0,0,0,0,0,0,0,0,0,0,0,0,0,0,0,0,0,0,0,0,0,0,0,0,0,0,0,0,0,0,0,0,0,0,0,0,0,0,0,0,0,0,0,0,0,0,0,0,0,0,0,0,0,0,0,0,0,0,,GWF POWER SYSTEMS LP,068135144
2005,93635LSBNS2211S,LOS BANOS RMC,22101 SUNSET AVE,LOS BANOS,MERCED,CA,93635,37.027611,-120.892562,3273,,,,,,327320,,,,,,1305203466661,LEAD,007439921,YES,PBT,YES,1,YES,R,Pounds,.14,.044,0,0,0,0,0,0,0,0,0,0,.184,0,0,0,0,0,0,0,0,0,0,0,0,0,0,0,0,0,0,0,0,0,0,0,0,0,0,0,0,0,0,0,0,0,0,0,0,0,.184,0,0,.184,0,0,0,0,0,0,0,0,.184,0,1,VULCAN MATERIALS CO,000396025
2005,92020GGKTR203NJ,TRIUMPH FABRICATIONS - SAN DIEGO,203 N JOHNSON AVE,EL CAJON,SAN DIEGO,CA,92020,32.796333,-116.97104,3728,,,,,,336413,,,,,,1305203428331,NICKEL,007440020,YES,NON-PBT,YES,1,YES,R,Pounds,0,0,0,0,0,0,0,0,0,0,0,0,0,0,0,0,0,0,0,0,0,0,0,0,0,0,0,0,0,0,0,0,0,0,0,0,0,0,2187,2187,0,0,0,0,0,0,0,0,0,0,0,0,0,0,0,0,0,0,0,2187,0,0,2187,0,2.01,TRIUMPH GROUP INC,807636451
2005,93501PRDCT11601,PRC-DESOTO INTERNATIONAL INC,11601 UNITED ST,MOJAVE,KERN,CA,93501,34.989932,-118.15004,2891,2851,,,,,325520,,,,,,1305203448776,TOLUENE DIISOCYANATE (MIXED ISOMERS),026471625,NO,NON-PBT,NO,0,YES,R,Pounds,270,0,0,0,0,0,0,0,0,0,0,0,270,0,0,0,0,0,0,0,0,0,0,0,0,0,0,0,0,0,0,0,0,0,0,0,0,0,0,0,0,0,0,0,700,0,0,0,0,700,270,0,0,270,0,0,0,0,0,0,0,700,970,0,.78,PPG INDUSTRIES INC,001344803
2005,93631FSTRF10101,FOSTER FARMS KINGSBURG COMMODITIES,1010 18TH ST,KINGSBURG,FRESNO,CA,93631,36.51064,-119.54792,2048,,,,,,311119,,,,,,1305203487323,MANGANESE COMPOUNDS,N450,YES,NON-PBT,YES,1,NO,A,Pounds,0,0,0,0,0,0,0,0,0,0,0,0,0,0,0,0,0,0,0,0,0,0,0,0,0,0,0,0,0,0,0,0,0,0,0,0,0,0,0,0,0,0,0,0,0,0,0,0,0,0,0,0,0,0,0,0,0,0,0,0,0,0,0,0,,FOSTER FARMS,NA
2005,94553RPRDS110WA,AIR PRODUCTS & CHEMICALS INC (MARTINEZ-WATERFRONT ROAD),110 WATERFRONT RD GATE 75,MARTINEZ,CONTRA COSTA,CA,945531466,38.021111,-122.106667,2813,,,,,,325120,,,,,,1305203501236,COPPER COMPOUNDS,N100,NO,NON-PBT,YES,1,NO,R,Pounds,.5,0,0,0,0,0,0,0,0,0,0,0,.5,0,0,0,0,0,0,0,0,0,0,0,0,0,0,0,0,0,0,0,0,0,0,56211,0,0,0,56211,0,0,0,0,0,0,0,0,0,0,.5,0,0,.5,0,0,0,0,0,56211,0,0,56211.5,0,0,AIR PRODUCTS & CHEMICALS INC,003001070
2005,92335FNTNP13733,FONTANA PAPER MILLS INC,13733 VALLEY BLVD,FONTANA,SAN BERNARDINO,CA,92335,34.070122,-117.506221,2952,,,,,,324122,,,,,,1305203501390,LEAD,007439921,YES,PBT,YES,1,YES,R,Pounds,0,0,0,0,0,0,0,0,0,0,0,0,0,0,0,0,0,0,0,0,0,0,0,0,0,0,0,0,0,0,0,0,0,0,0,0,0,0,0,0,0,0,0,0,0,0,0,0,0,0,0,0,0,0,0,0,0,0,0,0,0,0,0,0,1.14,NA,NA
2005,95315FSTRF14519,FOSTER FARMS COLLIER COMPLEX,14519 W COLLIER RD,DELHI,MERCED,CA,95315,37.409871,-120.746557,2048,,,,,,311119,,,,,,1305203470479,COPPER COMPOUNDS,N100,NO,NON-PBT,YES,1,NO,A,Pounds,0,0,0,0,0,0,0,0,0,0,0,0,0,0,0,0,0,0,0,0,0,0,0,0,0,0,0,0,0,0,0,0,0,0,0,0,0,0,0,0,0,0,0,0,0,0,0,0,0,0,0,0,0,0,0,0,0,0,0,0,0,0,0,0,,FOSTER FARMS,NA
2005,90802LNGBC1004P,CHEMOIL CORP,1004 PIER F AVE,LONG BEACH,LOS ANGELES,CA,90802,33.751629,-118.208842,5171,,,,,,424710,,,,,,1305203428596,BENZENE,000071432,YES,NON-PBT,NO,0,YES,R,Pounds,20.5,.01,0,0,0,0,0,0,0,0,0,0,20.51,0,0,0,0,0,0,0,0,0,0,0,0,0,0,0,0,0,0,0,0,0,0,0,0,0,0,0,0,0,0,0,0,0,0,0,0,0,20.51,0,0,20.51,0,0,0,0,0,0,0,0,20.51,0,1,NA,NA
2005,90802LNGBC1004P,CHEMOIL CORP,1004 PIER F AVE,LONG BEACH,LOS ANGELES,CA,90802,33.751629,-118.208842,5171,,,,,,424710,,,,,,1305203428661,COBALT,007440484,YES,NON-PBT,YES,1,YES,R,Pounds,.02,.001,0,0,0,0,0,0,0,0,0,0,.021,0,0,0,0,0,0,0,0,0,0,0,0,0,0,0,0,0,0,0,0,0,0,0,0,0,0,0,0,0,0,0,0,0,0,0,0,0,.021,0,0,.02,0,0,0,0,0,0,0,0,.02,0,1,NA,NA
2005,94533SHLND2461C,ASHLAND DISTRIBUTION CO,2461 CROCKER CIR,FAIRFIELD,SOLANO,CA,94533,38.27377,-121.985718,5169,,,,,,424690,,,,,,1305203398209,CYCLOHEXANE,000110827,NO,NON-PBT,NO,0,NO,R,Pounds,39,13,0,0,0,0,0,0,0,0,0,0,52,0,0,0,0,0,0,0,0,0,0,0,0,0,0,0,0,0,0,0,0,0,0,0,0,0,0,0,333,0,333,0,0,0,0,0,0,0,52,0,0,52,0,0,0,333,0,0,127,0,512,0,1.03,ASHLAND INC,005003264
2005,94533SHLND2461C,ASHLAND DISTRIBUTION CO,2461 CROCKER CIR,FAIRFIELD,SOLANO,CA,94533,38.27377,-121.985718,5169,,,,,,424690,,,,,,1305203398247,"N,N-DIMETHYLFORMAMIDE",000068122,YES,NON-PBT,NO,0,YES,A,Pounds,0,0,0,0,0,0,0,0,0,0,0,0,0,0,0,0,0,0,0,0,0,0,0,0,0,0,0,0,0,0,0,0,0,0,0,0,0,0,0,0,0,0,0,0,0,0,0,0,0,0,0,0,0,0,0,0,0,0,0,0,0,0,0,0,,ASHLAND INC,005003264
2005,94533SHLND2461C,ASHLAND DISTRIBUTION CO,2461 CROCKER CIR,FAIRFIELD,SOLANO,CA,94533,38.27377,-121.985718,5169,,,,,,424690,,,,,,1305203398298,XYLENE (MIXED ISOMERS),001330207,YES,NON-PBT,NO,0,NO,R,Pounds,184,6,0,0,0,0,0,0,0,0,0,0,190,0,0,0,0,0,0,0,0,0,0,0,0,0,0,0,0,0,0,0,0,0,0,0,0,0,0,0,1574,0,1574,0,0,0,0,0,0,0,190,0,0,190,0,0,0,1574,0,0,239,0,2003,0,.93,ASHLAND INC,005003264
2005,95624GRGPC10399,GEORGIA-PACIFIC CHEMICALS LLC,10399 E STOCKTON BLVD,ELK GROVE,SACRAMENTO,CA,95624,38.382164,-121.360489,2821,,,,,,325211,,,,,,1305203411893,CRESOL (MIXED ISOMERS),001319773,YES,NON-PBT,NO,0,NO,R,Pounds,0,0,0,0,0,0,0,0,0,0,0,0,0,0,0,0,0,0,0,0,0,0,0,0,0,0,0,0,0,0,0,0,0,0,0,0,0,0,0,0,0,0,0,0,0,0,0,0,0,0,0,0,0,0,0,0,0,0,0,0,0,0,0,0,.99,KOCH INDUSTRIES INC,006944334
2005,91730GNRLL11266,DOW CHEMICAL CO GENERAL LATEX & CHEMICAL CORP,11266 JERSEY BLVD,RANCHO CUCAMONGA,SAN BERNARDINO,CA,91730,34.094624,-117.556906,3069,3087,,,,,326299,,,,,,1305203437443,CHLORODIFLUOROMETHANE,000075456,NO,NON-PBT,NO,0,NO,R,Pounds,973,10719,0,0,0,0,0,0,0,0,0,0,11692,0,0,0,0,0,0,0,0,0,0,0,0,0,61,0,0,0,0,0,0,61,0,0,0,0,0,0,0,0,0,0,0,0,0,0,0,0,11753,0,0,11692,61,0,0,0,0,0,0,0,11753,0,1.13,THE DOW CHEMICAL CO,NA
2005,93033HNMPP5936P,INTERNATIONAL PAPER - HUENEME MILL,5936 PERKINS RD,OXNARD,VENTURA,CA,93033,34.143983,-119.183959,2631,,,,,,322211,,,,,,1305203444260,AMMONIA,007664417,NO,NON-PBT,NO,0,NO,R,Pounds,5,13390,0,0,0,0,0,0,0,0,0,0,13395,0,923,923,0,0,0,0,0,0,0,0,0,0,0,0,0,0,0,0,0,0,0,0,0,0,0,0,0,0,0,0,0,0,0,0,0,0,13395,0,0,13390,0,0,0,0,0,0,0,923,14313,0,1.01,INTERNATIONAL PAPER CO,001316561
2005,90802LNGBC1004P,CHEMOIL CORP,1004 PIER F AVE,LONG BEACH,LOS ANGELES,CA,90802,33.751629,-118.208842,5171,,,,,,424710,,,,,,1305203428762,PHENANTHRENE,000085018,YES,NON-PBT,NO,0,NO,R,Pounds,.01,.7,0,0,0,0,0,0,0,0,0,0,.71,0,0,0,0,0,0,0,0,0,0,0,0,0,0,0,0,0,0,0,0,0,0,0,0,0,0,0,0,0,0,0,0,0,0,0,0,0,.71,0,0,.71,0,0,0,0,0,0,0,0,.71,0,.86,NA,NA
2005,90802LNGBC1004P,CHEMOIL CORP,1004 PIER F AVE,LONG BEACH,LOS ANGELES,CA,90802,33.751629,-118.208842,5171,,,,,,424710,,,,,,1305203428824,XYLENE (MIXED ISOMERS),001330207,YES,NON-PBT,NO,0,NO,R,Pounds,92.5,1.7,0,0,0,0,0,0,0,0,0,0,94.2,0,0,0,0,0,0,0,0,0,0,0,0,0,0,0,0,0,0,0,0,0,0,0,0,0,0,0,0,0,0,0,0,0,0,0,0,0,94.2,0,0,94.2,0,0,0,0,0,0,0,0,94.2,0,1,NA,NA
2005,90810CRSNT2365E,CHEMOIL TERMINALS CORP,2365 E SEPULVEDA BLVD,LONG BEACH,LOS ANGELES,CA,90810,33.80542,-118.22565,5171,,,,,,424710,,,,,,1305203428901,CHLORINE,007782505,YES,NON-PBT,NO,0,NO,R,Pounds,2.3,0,0,0,0,0,0,0,0,0,0,0,2.3,0,0,0,0,0,0,0,0,0,0,0,0,0,0,0,0,0,0,0,0,0,0,0,0,0,0,0,0,0,0,0,0,0,0,0,0,0,2.3,0,0,2.3,0,0,0,0,0,0,0,0,2.3,0,1,NA,NA
2005,90001LLYSC1960E,ALLOYS CLEANING INC,1960 E GAGE AVE,LOS ANGELES,LOS ANGELES,CA,90001,33.981389,-118.238056,3471,,,,,,332813,,,,,,1305203435692,CHROMIUM COMPOUNDS(EXCEPT CHROMITE ORE MINED IN THE TRANSVAAL REGION),N090,YES,NON-PBT,YES,1,NO,R,Pounds,0,0,0,0,0,0,0,0,0,0,0,0,0,5,0,5,0,0,0,0,0,0,0,0,0,0,1541,0,0,0,0,0,0,1541,0,0,0,0,0,0,0,0,0,0,0,0,0,0,0,0,1546,0,0,0,1549,0,0,0,0,0,0,0,1549,0,1.08,NA,NA
2005,90001LLYSC1960E,ALLOYS CLEANING INC,1960 E GAGE AVE,LOS ANGELES,LOS ANGELES,CA,90001,33.981389,-118.238056,3471,,,,,,332813,,,,,,1305203435767,ZINC COMPOUNDS,N982,NO,NON-PBT,YES,1,NO,R,Pounds,0,0,0,0,0,0,0,0,0,0,0,0,0,19,0,19,0,0,0,0,0,0,0,0,0,0,337,0,0,0,0,0,0,337,0,0,0,0,0,0,0,0,0,0,0,0,0,0,0,0,356,0,0,0,356,0,0,0,0,0,0,0,356,0,1.08,NA,NA
2005,95654GRGPCPOBOX,SIERRAPINE AMPINE DIV,11300 RIDGE RD,MARTELL,AMADOR,CA,95654,38.375,-120.80833,2493,,,,,,321219,,,,,,1305203394984,FORMALDEHYDE,000050000,YES,NON-PBT,NO,0,YES,R,Pounds,0,52509.85,0,0,0,0,0,0,0,0,0,0,52509.85,0,0,0,0,0,0,0,0,0,0,0,0,0,0,0,0,0,0,0,0,0,0,0,0,0,0,0,0,0,0,0,0,0,0,0,0,0,52509.85,0,0,52509.85,0,0,0,0,1680,0,2363,0,56552.85,0,90.6,SIERRAPINE,784376493
2005,90670SKCRP12767,SIKA CORP,12767 E IMPERIAL HWY,SANTA FE SPRINGS,LOS ANGELES,CA,906704711,33.91718,-118.059096,2891,3272,,,,,325520,,,,,,1305203427190,MALEIC ANHYDRIDE,000108316,YES,NON-PBT,NO,0,NO,A,Pounds,0,0,0,0,0,0,0,0,0,0,0,0,0,0,0,0,0,0,0,0,0,0,0,0,0,0,0,0,0,0,0,0,0,0,0,0,0,0,0,0,0,0,0,0,0,0,0,0,0,0,0,0,0,0,0,0,0,0,0,0,0,0,0,0,,SIKA CORP,NA
2005,90670BRNNT10747,BRENNTAG PACIFIC INC,10747 PATTERSON PL,SANTA FE SPRINGS,LOS ANGELES,CA,906704043,33.937333,-118.060278,5169,,,,,,424690,,,,,,1305203463548,ETHYLBENZENE,000100414,YES,NON-PBT,NO,0,NO,A,Pounds,0,0,0,0,0,0,0,0,0,0,0,0,0,0,0,0,0,0,0,0,0,0,0,0,0,0,0,0,0,0,0,0,0,0,0,0,0,0,0,0,0,0,0,0,0,0,0,0,0,0,0,0,0,0,0,0,0,0,0,0,0,0,0,0,,BRENNTAG NA INC,092963644
2005,90670BRNNT10747,BRENNTAG PACIFIC INC,10747 PATTERSON PL,SANTA FE SPRINGS,LOS ANGELES,CA,906704043,33.937333,-118.060278,5169,,,,,,424690,,,,,,1305203463637,TETRACHLOROETHYLENE,000127184,YES,NON-PBT,NO,0,YES,A,Pounds,0,0,0,0,0,0,0,0,0,0,0,0,0,0,0,0,0,0,0,0,0,0,0,0,0,0,0,0,0,0,0,0,0,0,0,0,0,0,0,0,0,0,0,0,0,0,0,0,0,0,0,0,0,0,0,0,0,0,0,0,0,0,0,0,,BRENNTAG NA INC,092963644
2005,91730MSTRB9060H,BASF CORP,9060 HAVEN AVE,RANCHO CUCAMONGA,SAN BERNARDINO,CA,91730,34.089121,-117.575868,2899,,,,,,325998,,,,,,1305203444411,DIETHANOLAMINE,000111422,YES,NON-PBT,NO,0,NO,A,Pounds,0,0,0,0,0,0,0,0,0,0,0,0,0,0,0,0,0,0,0,0,0,0,0,0,0,0,0,0,0,0,0,0,0,0,0,0,0,0,0,0,0,0,0,0,0,0,0,0,0,0,0,0,0,0,0,0,0,0,0,0,0,0,0,0,,BASF CORP,071014385
2005,91730MSTRB9060H,BASF CORP,9060 HAVEN AVE,RANCHO CUCAMONGA,SAN BERNARDINO,CA,91730,34.089121,-117.575868,2899,,,,,,325998,,,,,,1305203444423,ETHYLENE GLYCOL,000107211,YES,NON-PBT,NO,0,NO,R,Pounds,7,7,0,0,0,0,0,0,0,0,0,0,14,0,0,0,0,0,0,0,0,0,0,0,0,0,0,0,0,0,0,0,0,0,0,0,0,0,0,0,0,0,0,0,0,0,0,0,0,0,14,0,0,14,0,0,0,0,0,0,0,0,14,0,1.11,BASF CORP,071014385
2005,90810CRSNT2365E,CHEMOIL TERMINALS CORP,2365 E SEPULVEDA BLVD,LONG BEACH,LOS ANGELES,CA,90810,33.80542,-118.22565,5171,,,,,,424710,,,,,,1305203428937,COPPER,007440508,NO,NON-PBT,YES,1,NO,R,Pounds,.11,.02,0,0,0,0,0,0,0,0,0,0,.13,0,0,0,0,0,0,0,0,0,0,0,0,0,0,0,0,2.52,0,0,0,2.52,0,0,0,0,0,0,0,0,0,0,0,0,0,0,0,0,2.65,0,0,.13,0,2.52,0,0,0,0,0,0,2.65,0,.18,NA,NA
2005,90810CRSNT2365E,CHEMOIL TERMINALS CORP,2365 E SEPULVEDA BLVD,LONG BEACH,LOS ANGELES,CA,90810,33.80542,-118.22565,5171,,,,,,424710,,,,,,1305203428990,N-HEXANE,000110543,YES,NON-PBT,NO,0,NO,R,Pounds,648,447,0,0,0,0,0,0,0,0,0,0,1095,0,0,0,0,0,0,0,0,0,0,0,0,0,0,0,0,0,0,0,0,0,0,0,0,0,0,0,0,0,0,0,0,0,0,0,0,0,1095,0,0,1095,0,0,0,0,0,0,0,0,1095,0,1.5,NA,NA
2005,90810CRSNT2365E,CHEMOIL TERMINALS CORP,2365 E SEPULVEDA BLVD,LONG BEACH,LOS ANGELES,CA,90810,33.80542,-118.22565,5171,,,,,,424710,,,,,,1305203429093,ANTIMONY,007440360,YES,NON-PBT,YES,1,NO,R,Pounds,0,0,0,0,0,0,0,0,0,0,0,0,0,0,0,0,0,0,0,0,0,0,0,0,0,0,0,0,0,0,0,0,0,0,0,0,0,0,0,0,0,0,0,0,0,0,0,0,0,0,0,0,0,0,0,0,0,0,0,0,0,0,0,0,1,NA,NA
2005,95678HBFLL10500,HB FULLER,10500 INDUSTRIAL AVE,ROSEVILLE,PLACER,CA,956786212,38.78,-121.303611,2891,,,,,,325520,,,,,,1305203457763,N-METHYLOLACRYLAMIDE,000924425,NO,NON-PBT,NO,0,NO,A,Pounds,0,0,0,0,0,0,0,0,0,0,0,0,0,0,0,0,0,0,0,0,0,0,0,0,0,0,0,0,0,0,0,0,0,0,0,0,0,0,0,0,0,0,0,0,0,0,0,0,0,0,0,0,0,0,0,0,0,0,0,0,0,0,0,0,,HB FULLER CO,006159776
2005,95678HBFLL10500,HB FULLER,10500 INDUSTRIAL AVE,ROSEVILLE,PLACER,CA,956786212,38.78,-121.303611,2891,,,,,,325520,,,,,,1305203457799,VINYL ACETATE,000108054,YES,NON-PBT,NO,0,YES,R,Pounds,1625,1655,0,0,0,0,0,0,0,0,0,0,3280,0,582,582,0,0,0,0,0,0,0,0,0,0,0,0,0,0,0,0,0,0,0,0,0,0,0,0,0,0,0,530,289,0,0,0,0,819,3280,0,0,3280,0,582,0,0,0,0,0,818,4680,0,.95,HB FULLER CO,006159776
2005,90806DGNGT2350H,BP HATHAWAY TERMINAL,2350 OBISPO AVE,SIGNAL HILL,LOS ANGELES,CA,90755,33.80115,-118.15779,5171,,,,,,424710,,,,,,1305203425828,XYLENE (MIXED ISOMERS),001330207,YES,NON-PBT,NO,0,NO,R,Pounds,183.17,97.68,0,0,0,0,0,0,0,0,0,0,280.85,0,0,0,0,0,0,0,0,0,0,0,0,0,0,0,0,0,0,0,0,0,0,0,12.16,0,0,12.16,0,0,0,0,3.78,0,0,0,0,3.78,280.85,0,0,280.86,0,0,0,0,0,12.16,0,3.78,296.8,0,1,BP PRODUCTS NORTH AMERICA INC,039596507
2005,91749CMCCH18383,ECOLAB INC,18383 E RAILROAD ST,CITY OF INDUSTRY,LOS ANGELES,CA,91748,33.997144,-117.90324,2841,2842,,,,,325611,,,,,,1305203405814,CERTAIN GLYCOL ETHERS,N230,YES,NON-PBT,NO,0,NO,R,Pounds,10,24,0,0,0,0,0,0,0,0,0,0,34,0,126,126,0,0,0,0,0,0,0,0,0,0,0,0,0,0,0,0,0,0,0,0,0,0,0,0,0,0,0,0,0,0,0,16,0,16,34,0,0,34,0,0,0,0,0,0,0,142,176,0,.94,ECOLAB INC,030841597
2005,95076MTKPC1715W,INDALEX INC -WATSONVILLE,1715 W BEACH ST,WATSONVILLE,SANTA CRUZ,CA,95076,36.867787,-121.817955,3471,3354,,,,,332813,,,,,,1305203395759,NITRATE COMPOUNDS,N511,NO,NON-PBT,NO,0,NO,R,Pounds,0,0,0,0,0,0,0,0,0,0,0,0,0,0,521219,521219,0,0,0,0,0,0,0,0,0,0,0,0,0,0,0,0,0,0,0,0,0,0,0,0,0,0,0,0,0,0,0,0,0,0,0,0,0,0,0,0,0,0,0,0,0,521219,521219,0,.95,INDALEX HOLDING GROUP INC,626132133
2005,91749CMCCH18383,ECOLAB INC,18383 E RAILROAD ST,CITY OF INDUSTRY,LOS ANGELES,CA,91748,33.997144,-117.90324,2841,2842,,,,,325611,,,,,,1305203405838,PERACETIC ACID,000079210,NO,NON-PBT,NO,0,NO,R,Pounds,14,55,0,0,0,0,0,0,0,0,0,0,69,0,0,0,0,0,0,0,0,0,0,0,0,0,0,0,0,0,0,0,0,0,0,0,0,0,0,0,0,0,0,0,0,0,0,0,0,0,69,0,0,69,0,0,0,0,0,0,65,0,134,0,.87,ECOLAB INC,030841597
2005,90670PTMWN10640,PTM & W INDUSTRIES INC,10640 S PAINTER AVE,SANTA FE SPRINGS,LOS ANGELES,CA,906704092,33.937742,-118.051379,3999,,,,,,339999,,,,,,1305203415753,DIISOCYANATES,N120,YES,NON-PBT,NO,0,NO,A,Pounds,0,0,0,0,0,0,0,0,0,0,0,0,0,0,0,0,0,0,0,0,0,0,0,0,0,0,0,0,0,0,0,0,0,0,0,0,0,0,0,0,0,0,0,0,0,0,0,0,0,0,0,0,0,0,0,0,0,0,0,0,0,0,0,0,,NA,NA
2005,90813RCPRD1400P,BP MARINE TERMINAL 3,1400 W PIER C ST,LONG BEACH,LOS ANGELES,CA,90813,33.773273,-118.212077,5171,,,,,,424710,,,,,,1305203426085,XYLENE (MIXED ISOMERS),001330207,YES,NON-PBT,NO,0,NO,R,Pounds,.02,7.36,0,0,0,0,0,0,0,0,0,0,7.38,0,0,0,0,0,0,0,0,0,0,0,0,0,0,1.08,0,0,0,0,0,1.08,0,0,68.86,0,0,68.86,0,0,0,0,0,0,0,0,0,0,8.46,0,0,7.38,1.08,0,0,0,0,68.86,0,0,77.32,0,1,BP PRODUCTS NA INC,039596507
2005,90805RCPRD5905P,BP EAST HYNES TERMINAL,5905 PARAMOUNT BLVD,LONG BEACH,LOS ANGELES,CA,90805,33.861098,-118.1599,5171,,,,,,424710,,,,,,1305203426162,CYCLOHEXANE,000110827,NO,NON-PBT,NO,0,NO,R,Pounds,60.64,189.7,0,0,0,0,0,0,0,0,0,0,250.34,0,0,0,0,0,0,0,0,0,0,0,0,0,0,4.27,0,0,0,0,0,4.27,6.14,0,4.5,0,0,10.64,0,0,0,0,0,0,0,0,0,0,254.61,0,0,250.34,4.27,0,0,0,0,10.64,0,0,265.25,0,1,BP PRODUCTS NA INC,039596507
2005,93501PRDCT11601,PRC-DESOTO INTERNATIONAL INC,11601 UNITED ST,MOJAVE,KERN,CA,93501,34.989932,-118.15004,2891,2851,,,,,325520,,,,,,1305203448713,MANGANESE COMPOUNDS,N450,YES,NON-PBT,YES,1,NO,R,Pounds,31,1,0,0,0,0,0,0,0,0,0,0,32,0,0,0,0,510,17,0,0,0,0,0,0,0,0,0,0,0,0,0,0,527,0,0,0,0,0,0,0,0,0,0,0,0,0,0,0,0,559,0,0,31,0,527,0,0,0,0,0,0,558,0,.72,PPG INDUSTRIES INC,001344803
2005,90262DVNDS2605I,TRIUMPH PROCESSING INC,2588 & 2605 INDUSTRY WAY,LYNWOOD,LOS ANGELES,CA,902624007,33.924674,-118.227483,3471,,,,,,332813,,,,,,1305203466230,CHROMIUM COMPOUNDS(EXCEPT CHROMITE ORE MINED IN THE TRANSVAAL REGION),N090,YES,NON-PBT,YES,1,NO,R,Pounds,0,0,0,0,0,0,0,0,0,0,0,0,0,58.05,0,58.05,0,4338,12731,0,0,0,0,0,0,0,0,0,0,0,0,0,0,17069,0,0,0,0,0,0,0,0,0,0,0,0,0,0,0,0,17127.05,0,0,0,0,17069,0,0,0,0,0,0,17069,0,1.5,TRIUMPH AEROSPACE SYSTEM GROUP INC,789947608
2005,94566RMCPC1645S,CEMEX PLEASANTON,1645 STANLEY BLVD,PLEASANTON,ALAMEDA,CA,94566,37.672416,-121.840104,3273,,,,,,327320,,,,,,1305203555166,LEAD COMPOUNDS,N420,YES,PBT,YES,1,NO,R,Pounds,0,0,0,0,0,0,0,0,0,0,0,0,0,0,0,0,0,36,0,0,0,0,0,0,0,0,0,0,0,0,0,0,0,36,0,0,0,0,0,0,0,0,0,0,0,0,0,0,0,0,36,0,0,0,0,36,0,0,0,0,0,0,36,0,1.1,CEMEX,189840945
2005,94802CHVRN576ST,CHEVRON RICHMOND TECHNOLOGY CENTER,100 CHEVRON WAY,RICHMOND,CONTRA COSTA,CA,94802,37.929643,-122.386782,8733,,,,,,541710,,,,,,1305203558541,NICKEL COMPOUNDS,N495,YES,NON-PBT,YES,1,NO,R,Pounds,0,0,0,0,0,0,0,0,0,0,0,0,0,0,0,0,0,60.08,0,0,0,0,0,0,0,0,0,0,0,0,0,0,0,60.08,0,0,0,0,0,0,0,0,0,0,0,0,0,0,0,0,60.08,0,0,0,0,60.8,0,0,0,0,0,0,60.8,0,0,CHEVRON CORP,001382555
2005,94802CHVRN576ST,CHEVRON RICHMOND TECHNOLOGY CENTER,100 CHEVRON WAY,RICHMOND,CONTRA COSTA,CA,94802,37.929643,-122.386782,8733,,,,,,541710,,,,,,1305203558580,TETRACHLOROETHYLENE,000127184,YES,NON-PBT,NO,0,YES,R,Pounds,2.54,0,0,0,0,0,0,0,0,0,0,0,2.54,0,0,0,0,0,0,0,0,0,0,0,0,0,0,0,0,0,0,0,0,0,0,0,0,0,0,0,0,0,0,0,0,0,0,0,0,0,2.54,0,0,2.54,0,0,0,0,0,0,0,0,2.54,0,1,CHEVRON CORP,001382555
2005,91723BRWNN633NB,BROWN INTERNATIONAL CORP,633 N BARRANCA AVE,COVINA,LOS ANGELES,CA,91723,34.092231,-117.881362,3556,,,,,,333294,,,,,,1305203497425,CHROMIUM,007440473,YES,NON-PBT,YES,1,YES,R,Pounds,0,.143,.849,0,0,0,0,0,0,0,0,0,.992,.008,0,.008,0,0,0,0,0,0,0,0,0,0,0,0,.043,0,0,0,0,.043,0,12659.611,0,0,0,12659.611,0,0,0,0,0,0,0,0,0,0,1.043,0,0,.143,0,12659.6,0,0,0,12659.6,0,0,25319.343,0,1.22,NA,NA
2005,90280RCPRD8601S,ARCO VINVALE TERMINAL,8601 S GARFIELD AVE,SOUTH GATE,LOS ANGELES,CA,90280,33.95304,-118.164,5171,,,,,,424710,,,,,,1305203469642,MERCURY COMPOUNDS,N458,YES,PBT,YES,1,NO,R,Pounds,0,0,0,0,0,0,0,0,0,0,0,0,0,0,0,0,0,0,0,0,0,0,0,0,0,0,0,0,0,0,0,0,0,0,0,0,0,0,0,0,0,0,0,0,0,0,0,0,0,0,0,0,0,0,0,0,0,0,0,0,0,0,0,0,1.05,BP PRODUCTS NA INC,039596507
2005,94533BLLPC2400H,BALL METAL BEVERAGE CONTAINER CORP,2400 HUNTINGTON DR,FAIRFIELD,SOLANO,CA,94533,38.27718,-121.97536,3411,,,,,,332431,,,,,,1305203477017,"SULFURIC ACID (1994 AND AFTER ""ACID AEROSOLS"" ONLY)",007664939,NO,NON-PBT,NO,0,NO,A,Pounds,0,0,0,0,0,0,0,0,0,0,0,0,0,0,0,0,0,0,0,0,0,0,0,0,0,0,0,0,0,0,0,0,0,0,0,0,0,0,0,0,0,0,0,0,0,0,0,0,0,0,0,0,0,0,0,0,0,0,0,0,0,0,0,0,,BALL CORP,006419147
2005,90670VLVLN9520J,VALVOLINE,9520 JOHN ST,SANTA FE SPRINGS,LOS ANGELES,CA,906702904,33.953808,-118.061786,2992,,,,,,324191,,,,,,1305203560457,ZINC COMPOUNDS,N982,NO,NON-PBT,YES,1,NO,R,Pounds,0,3,3,0,0,0,0,0,0,0,0,0,6,0,0,0,0,0,0,0,0,0,0,0,0,0,0,0,0,0,0,43,0,43,0,0,0,0,0,0,0,0,0,0,0,0,0,0,0,0,49,0,0,6,0,43,0,0,0,0,0,0,49,0,1.1,ASHLAND INC,005003264
2005,91702WYNNL1151W,ILLINOIS TOOL WORKS WYNN'S DIV,1151 W 5TH ST,AZUSA,LOS ANGELES,CA,91702,34.129915,-117.92225,2992,,,,,,325998,,,,,,1305203562208,ZINC COMPOUNDS,N982,NO,NON-PBT,YES,1,NO,A,Pounds,0,0,0,0,0,0,0,0,0,0,0,0,0,0,0,0,0,0,0,0,0,0,0,0,0,0,0,0,0,0,0,0,0,0,0,0,0,0,0,0,0,0,0,0,0,0,0,0,0,0,0,0,0,0,0,0,0,0,0,0,0,0,0,0,,ILLINOIS TOOL WORKS INC,005146428
2005,92316RCCLT2395S,ARCO COLTON TERMINAL,2395 E RIVERSIDE AVE,BLOOMINGTON,SAN BERNARDINO,CA,92316,34.058134,-117.37024,5171,,,,,,424710,,,,,,1305203471964,CYCLOHEXANE,000110827,NO,NON-PBT,NO,0,NO,R,Pounds,0,0,0,0,0,0,0,0,0,0,0,0,0,0,0,0,0,0,0,0,0,0,0,0,0,0,0,0,0,0,0,0,0,0,0,0,0,0,0,0,0,0,0,0,13685,0,0,0,0,13685,0,0,0,0,0,0,0,0,0,0,0,13685,13685,0,.99,BP PRODUCTS NA INC,039596507
2005,92316RCCLT2395S,ARCO COLTON TERMINAL,2395 E RIVERSIDE AVE,BLOOMINGTON,SAN BERNARDINO,CA,92316,34.058134,-117.37024,5171,,,,,,424710,,,,,,1305203472030,POLYCYCLIC AROMATIC COMPOUNDS,N590,YES,PBT,NO,0,YES,R,Pounds,0,0,0,0,0,0,0,0,0,0,0,0,0,0,0,0,0,0,0,0,0,0,0,0,0,0,0,0,0,0,0,0,0,0,0,0,0,0,0,0,0,0,0,0,0,0,0,0,0,0,0,0,0,0,0,0,0,0,0,0,0,0,0,0,.99,BP PRODUCTS NA INC,039596507
2005,92882STLC0909RA,US TILE CO CORONA,909 RAILROAD ST,CORONA,RIVERSIDE,CA,928821906,33.88585,-117.5773,3259,,,,,,327123,,,,,,1305203548932,BARIUM COMPOUNDS,N040,NO,NON-PBT,YES,3,NO,R,Pounds,0,0,0,0,0,232,0,0,0,0,0,750,982,0,0,0,0,0,0,0,0,0,0,0,0,0,0,232,0,0,0,0,0,232,0,0,0,0,21613,21613,0,0,0,0,0,0,0,0,0,0,1214,0,0,0,232,0,0,0,0,21613,0,0,21845,0,1.1,BORAL USA,026389254
2005,95376CLTXC400WE,DOW CHEMICAL ISO PLANT TRACY CA,400 W GANDY DANCER DR,TRACY,SAN JOAQUIN,CA,95377,37.708333,-121.425,3086,,,,,,326150,,,,,,1305203488984,N-METHYL-2-PYRROLIDONE,000872504,NO,NON-PBT,NO,0,NO,R,Pounds,22.5,0,0,0,0,0,0,0,0,0,0,0,22.5,0,0,0,0,0,0,0,0,0,0,0,0,0,0,0,0,0,0,0,0,0,0,0,0,0,202.5,202.5,0,0,0,0,0,0,0,0,0,0,22.5,0,0,22.5,0,0,0,0,0,202.5,0,0,225,0,1,THE DOW CHEMICAL CO,001381581
2005,95380DLMSF3600W,WEST MAIN TURLOCK FEEDMILL & COMMODITIES,3600 W MAIN ST,TURLOCK,STANISLAUS,CA,95380,37.49266,-120.88996,2048,,,,,,311119,,,,,,1305203487513,MANGANESE COMPOUNDS,N450,YES,NON-PBT,YES,1,NO,A,Pounds,0,0,0,0,0,0,0,0,0,0,0,0,0,0,0,0,0,0,0,0,0,0,0,0,0,0,0,0,0,0,0,0,0,0,0,0,0,0,0,0,0,0,0,0,0,0,0,0,0,0,0,0,0,0,0,0,0,0,0,0,0,0,0,0,,NA,NA
2005,91331MCPRD12306,MOC PRODUCTS CO INC,12306 MONTAGUE ST,PACOIMA,LOS ANGELES,CA,91331,34.25508,-118.401019,2842,,,,,,325612,,,,,,1305203538970,CERTAIN GLYCOL ETHERS,N230,YES,NON-PBT,NO,0,NO,A,Pounds,0,0,0,0,0,0,0,0,0,0,0,0,0,0,0,0,0,0,0,0,0,0,0,0,0,0,0,0,0,0,0,0,0,0,0,0,0,0,0,0,0,0,0,0,0,0,0,0,0,0,0,0,0,0,0,0,0,0,0,0,0,0,0,0,,NA,NA
2005,90040KSRLM6250E,KAISER ALUMINUM FABRICATED PRODUCTS LLC,6250 E BANDINI BLVD,LOS ANGELES,LOS ANGELES,CA,90040,33.989541,-118.14937,3354,,,,,,331316,,,,,,1305203559315,DIOXIN AND DIOXIN-LIKE COMPOUNDS,N150,YES,DIOXIN,NO,0,NO,R,Grams,0,.25,0,0,0,0,0,0,0,0,0,0,.25,0,0,0,0,0,0,0,0,0,0,0,0,0,0,0,0,0,0,0,0,0,0,0,0,0,0,0,0,0,0,0,0,0,0,0,0,0,.25,0,0,.25,0,0,0,0,0,0,0,0,.25,0,1.6,KAISER ALUMINUM FABRICATED PRODUCTS LLC,787043715
2005,95361LGLBR304NY,AL GILBERT CO,304 YOSEMITE AVE,OAKDALE,STANISLAUS,CA,953610038,37.769029,-120.848642,2048,,,,,,311119,,,,,,1305203527039,COPPER COMPOUNDS,N100,NO,NON-PBT,YES,1,NO,A,Pounds,0,0,0,0,0,0,0,0,0,0,0,0,0,0,0,0,0,0,0,0,0,0,0,0,0,0,0,0,0,0,0,0,0,0,0,0,0,0,0,0,0,0,0,0,0,0,0,0,0,0,0,0,0,0,0,0,0,0,0,0,0,0,0,0,,NA,NA
2005,91016M    1601S,3M CO - MONROVIA TAPE,1601 S SHAMROCK AVE,MONROVIA,LOS ANGELES,CA,910164248,34.134168,-117.990764,2295,3497,3069,,,,313320,,,,,,1305203527092,TOLUENE,000108883,YES,NON-PBT,NO,0,NO,R,Pounds,0,1980,0,0,0,0,0,0,0,0,0,0,1980,0,0,0,0,0,0,0,0,0,0,0,0,0,0,0,0,0,0,0,0,0,750,0,0,0,0,750,0,0,0,0,4500,0,0,0,0,4500,1980,0,0,1980,0,0,0,0,0,750,152000,4500,159230,0,1.01,3M CO,006173082
2005,93561CLVRS13573,LEHIGH SOUTHWEST CEMENT CO,13573 TEHACHAPI BLVD,TEHACHAPI,KERN,CA,935618156,35.121031,-118.367775,3241,,,,,,327310,,,,,,1305203550761,DIOXIN AND DIOXIN-LIKE COMPOUNDS,N150,YES,DIOXIN,NO,0,NO,R,Grams,0,.207,0,0,0,0,0,0,0,0,0,0,.207,0,0,0,0,0,0,0,0,0,0,0,0,0,0,0,0,0,0,0,0,0,0,0,0,0,0,0,0,0,0,0,0,0,0,0,0,0,.207,0,0,.207,0,0,0,0,0,0,0,0,.207,0,.98,LEHIGH HANSON,001316355
2005,94565DWCHMFOOTO,DOW CHEMICAL CO,901 LOVERIDGE RD,PITTSBURG,CONTRA COSTA,CA,94565,38.03,-121.851944,2879,2869,2865,2821,,,325199,,,,,,1305203570965,"1-(3-CHLOROALLYL)-3,5,7-TRIAZA-1-AZONIAADAMANTANE CHLORIDE",004080313,NO,NON-PBT,NO,0,NO,R,Pounds,0,0,0,0,0,0,0,0,0,0,0,0,0,0,0,0,0,0,0,0,0,0,0,0,0,0,0,0,0,0,0,0,0,0,0,0,0,0,0,0,0,0,0,0,32521,0,0,0,0,32521,0,0,0,0,0,0,0,0,0,0,203,32521,32724,0,1.2,THE DOW CHEMICAL CO,001381581
2005,92634JHNSN1550E,JOHNSON CONTROLS BATTERY GROUP INC,1550 E KIMBERLY AVE,FULLERTON,ORANGE,CA,92831,33.863144,-117.899252,3691,,,,,,335911,,,,,,1305203527167,ANTIMONY,007440360,YES,NON-PBT,YES,1,NO,R,Pounds,0,0,0,0,0,0,0,0,0,0,0,0,0,0,0,0,0,0,0,0,0,0,0,0,0,0,0,0,0,0,0,0,0,0,0,915,0,0,0,915,0,0,0,0,0,0,0,0,0,0,0,0,0,0,0,0,0,0,0,915,0,0,915,0,1.02,JOHNSON CONTROLS INC,006092860
2005,90749RCPRD1801E,BP WEST COAST PRODUCTS LLC CARSON,BP CARSON ONE 2350 E 223RD ST,CARSON,LOS ANGELES,CA,90810,33.813611,-118.241389,2911,5171,2821,,,,324110,,,,,,1305203470885,"1,2,4-TRIMETHYLBENZENE",000095636,NO,NON-PBT,NO,0,NO,R,Pounds,24,1,0,0,0,0,0,0,0,0,0,0,25,0,0,0,0,0,0,0,0,0,0,0,0,0,0,0,0,0,0,0,0,0,34,0,0,0,0,34,0,0,0,0,0,0,0,0,0,0,25,0,0,25,0,0,0,0,273,34,0,0,332,0,.86,BP PRODUCTS NORTH AMERICA INC,039596507
2005,90749RCPRD1801E,BP WEST COAST PRODUCTS LLC CARSON,BP CARSON ONE 2350 E 223RD ST,CARSON,LOS ANGELES,CA,90810,33.813611,-118.241389,2911,5171,2821,,,,324110,,,,,,1305203470950,NAPHTHALENE,000091203,YES,NON-PBT,NO,0,NO,R,Pounds,2,0,0,0,0,0,0,0,0,0,0,0,2,0,0,0,0,0,0,0,0,0,0,0,0,0,0,0,0,0,0,0,0,0,2,0,0,0,0,2,0,0,0,0,0,0,0,0,0,0,2,0,0,2,0,0,0,0,3,2,0,0,7,0,.86,BP PRODUCTS NORTH AMERICA INC,039596507
2005,92356MTSBS5808S,MITSUBISHI CEMENT CORP,5808 STATE HWY 18,LUCERNE VALLEY,SAN BERNARDINO,CA,92356,34.354593,-116.858866,3241,,,,,,327310,,,,,,1305203474301,LEAD,007439921,YES,PBT,YES,1,YES,R,Pounds,25,64,0,0,0,0,0,0,0,0,0,0,89,0,0,0,0,0,0,0,0,0,0,0,0,0,0,0,0,0,0,0,0,0,0,0,0,0,0,0,0,0,0,0,0,0,0,0,0,0,89,0,0,89,0,0,0,0,0,0,0,0,89,0,.96,MITSUBISHI MATERIALS CORP,NA
2005,95054RMCPC1555R,CEMEX SANTA CLARA,1555 RUSSELL AVE,SANTA CLARA,SANTA CLARA,CA,95054,37.387326,-121.956931,3273,,,,,,327320,,,,,,1305203559481,LEAD COMPOUNDS,N420,YES,PBT,YES,1,NO,R,Pounds,0,0,0,0,0,0,0,0,0,0,0,0,0,0,0,0,0,36,0,0,0,0,0,0,0,0,0,0,0,0,0,0,0,36,0,0,0,0,0,0,0,0,0,0,0,0,0,0,0,0,36,0,0,0,0,36,0,0,0,0,0,0,36,0,1.26,CEMEX INC,189840945
2005,95361BTRCH300GI,BALL METAL FOOD CONTAINER CORP,300 W GREGER RD,OAKDALE,STANISLAUS,CA,95361,37.754535,-120.846976,3411,,,,,,332431,,,,,,1305203506819,"1,2,4-TRIMETHYLBENZENE",000095636,NO,NON-PBT,NO,0,NO,R,Pounds,34,1200,0,0,0,0,0,0,0,0,0,0,1234,0,0,0,0,0,0,0,0,0,0,0,0,0,0,0,0,0,0,0,0,0,0,0,0,0,0,0,0,1900,1900,0,0,0,0,0,0,0,1234,0,0,1234,0,0,0,1900,0,0,80000,0,83134,0,.98,BALL CORP,006419147
2005,95361BTRCH300GI,BALL METAL FOOD CONTAINER CORP,300 W GREGER RD,OAKDALE,STANISLAUS,CA,95361,37.754535,-120.846976,3411,,,,,,332431,,,,,,1305203506858,N-BUTYL ALCOHOL,000071363,NO,NON-PBT,NO,0,NO,R,Pounds,225,3200,0,0,0,0,0,0,0,0,0,0,3425,0,0,0,0,0,0,0,0,0,0,0,0,0,0,0,0,0,0,0,0,0,0,0,0,0,0,0,0,1600,1600,0,0,0,0,0,0,0,3425,0,0,3425,0,0,0,1600,0,0,64000,0,69025,0,.98,BALL CORP,006419147
2005,94565DWCHMFOOTO,DOW CHEMICAL CO,901 LOVERIDGE RD,PITTSBURG,CONTRA COSTA,CA,94565,38.03,-121.851944,2879,2869,2865,2821,,,325199,,,,,,1305203571144,"SULFURIC ACID (1994 AND AFTER ""ACID AEROSOLS"" ONLY)",007664939,NO,NON-PBT,NO,0,NO,R,Pounds,3,0,0,0,0,0,0,0,0,0,0,0,3,0,0,0,0,0,0,0,0,0,0,0,0,0,0,0,0,0,0,0,0,0,0,0,0,0,0,0,0,0,0,0,0,0,0,0,0,0,3,0,0,3,0,0,0,0,0,0,84021,0,84024,0,.8,THE DOW CHEMICAL CO,001381581
2005,94565DWCHMFOOTO,DOW CHEMICAL CO,901 LOVERIDGE RD,PITTSBURG,CONTRA COSTA,CA,94565,38.03,-121.851944,2879,2869,2865,2821,,,325199,,,,,,1305203571195,XYLENE (MIXED ISOMERS),001330207,YES,NON-PBT,NO,0,NO,R,Pounds,614,293,0,0,0,0,0,0,0,0,0,0,907,0,0,0,0,0,0,0,0,0,0,0,0,0,0,0,0,0,0,0,0,0,0,0,0,0,0,0,0,0,0,0,12,0,0,0,0,12,907,0,0,907,0,0,0,0,0,0,0,12,919,0,.89,THE DOW CHEMICAL CO,001381581
2005,95125RMCPC25STN,CEMEX SAN JOSE,2005 STONE AVE,SAN JOSE,SANTA CLARA,CA,95125,37.301595,-121.87227,3273,,,,,,327320,,,,,,1305203559671,LEAD COMPOUNDS,N420,YES,PBT,YES,1,NO,R,Pounds,0,0,0,0,0,0,0,0,0,0,0,0,0,4,0,4,0,30,0,0,0,0,0,0,0,0,0,0,0,0,0,0,0,30,0,0,0,0,0,0,0,0,0,0,0,0,0,0,0,0,34,0,0,0,0,34,0,0,0,0,0,0,34,0,.98,CEMEX,189840945
2005,90023PCFCN3305E,AIR PRODUCTS & CHEMICALS INC,3305 E 26TH ST,LOS ANGELES,LOS ANGELES,CA,90058,34.013333,-118.212778,2899,,,,,,325199,,,,,,1305203526025,PHENOL,000108952,YES,NON-PBT,NO,0,NO,A,Pounds,0,0,0,0,0,0,0,0,0,0,0,0,0,0,0,0,0,0,0,0,0,0,0,0,0,0,0,0,0,0,0,0,0,0,0,0,0,0,0,0,0,0,0,0,0,0,0,0,0,0,0,0,0,0,0,0,0,0,0,0,0,0,0,0,,AIR PRODUCTS & CHEMICALS INC,003001070
2005,95827RMCPC9751K,CEMEX BRADSHAW,9751 KEIFER BLVD,SACRAMENTO,SACRAMENTO,CA,958273828,38.543492,-121.332618,3273,,,,,,327320,,,,,,1305203554567,LEAD COMPOUNDS,N420,YES,PBT,YES,1,NO,R,Pounds,0,0,0,0,0,0,0,0,0,0,0,0,0,0,0,0,0,63,0,0,0,0,0,0,0,0,0,0,0,0,0,0,0,63,0,0,0,0,0,0,0,0,0,0,0,0,0,0,0,0,63,0,0,0,0,63,0,0,0,0,0,0,63,0,.99,CEMEX INC,189840945
2005,93311VLCNM8577P,VULCAN MATERIALS CO,8517 PANAMA LN,BAKERSFIELD,KERN,CA,93311,35.29616,-119.096817,3273,2951,,,,,327310,,,,,,1305203478007,LEAD,007439921,YES,PBT,YES,1,YES,R,Pounds,.226,.231,0,0,0,0,0,0,0,0,0,0,.457,0,0,0,0,0,0,0,0,0,0,0,0,0,0,0,0,0,0,0,0,0,0,0,0,0,0,0,0,0,0,0,0,0,0,0,0,0,.457,0,0,.457,0,0,0,0,0,0,0,0,.457,0,1.02,NA,NA
2005,92660NWPRT4321J,NEWPORT FAB LLC (DBA JAZZ SEMICONDUCTOR),4321 JAMBOREE RD,NEWPORT BEACH,ORANGE,CA,926603007,33.6603,-117.860113,3674,,,,,,334413,,,,,,1305203536166,AMMONIA,007664417,NO,NON-PBT,NO,0,NO,R,Pounds,186,1018,0,0,0,0,0,0,0,0,0,0,1204,0,55818,55818,0,0,0,0,0,0,0,0,0,0,0,0,0,0,0,0,0,0,0,0,0,0,0,0,0,0,0,0,0,0,0,0,0,0,1204,0,0,1204,0,0,0,0,0,0,488055,56410,545669,0,1.46,NEWPORT FAB LLC (DBA JAZZ SEMICONDUCTOR),110573743
2005,94533MRCNN2433C,REXAM BEVERAGE CAN CO RE: FAIRFIELD PLANT,2433 CROCKER CIR,FAIRFIELD,SOLANO,CA,94533,38.273324,-121.986514,3411,,,,,,332431,,,,,,1305203523915,HYDROGEN FLUORIDE,007664393,YES,NON-PBT,NO,0,NO,R,Pounds,2.5,10.1,0,0,0,0,0,0,0,0,0,0,12.6,0,0,0,0,0,0,0,0,0,0,0,0,0,0,0,0,0,0,0,0,0,0,0,0,0,0,0,0,0,0,0,0,0,0,0,0,0,12.6,0,0,12.7,0,0,0,0,0,0,12670,0,12682.7,0,1.04,REXAM BEVERAGE CAN CO,005105366
2005,93638CNNDG22004,CONSTELLATION WINES U.S. INC PAUL MASSON CELLARS,22004 RD 24,MADERA,MADERA,CA,93638,37.077621,-120.123222,2084,,,,,,312130,,,,,,1305203573136,NITRATE COMPOUNDS,N511,NO,NON-PBT,NO,0,NO,R,Pounds,0,0,0,0,0,0,0,12000,0,0,0,0,12000,0,0,0,0,0,0,0,0,0,0,0,0,0,0,0,0,0,0,0,0,0,0,0,0,0,0,0,0,0,0,0,0,0,0,0,0,0,12000,0,0,12000,0,0,0,0,0,0,0,0,12000,0,1.13,CONSTELLATION BRANDS INC,059651117
2005,90801LNZNC20851,MARCHEM TECHNOLOGIES LLC,20851 S SANTA FE AVE,LONG BEACH,LOS ANGELES,CA,90810,33.843611,-118.216389,2843,,,,,,325613,,,,,,1305203554910,ACRYLIC ACID,000079107,YES,NON-PBT,NO,0,NO,A,Pounds,0,0,0,0,0,0,0,0,0,0,0,0,0,0,0,0,0,0,0,0,0,0,0,0,0,0,0,0,0,0,0,0,0,0,0,0,0,0,0,0,0,0,0,0,0,0,0,0,0,0,0,0,0,0,0,0,0,0,0,0,0,0,0,0,,NA,NA
2005,90503RYNLD500CR,BALL METAL BEVERAGE CONTAINER CORP,500 CRENSHAW BLVD,TORRANCE,LOS ANGELES,CA,905033129,33.84235,-118.328735,3411,,,,,,332431,,,,,,1305203474871,CERTAIN GLYCOL ETHERS,N230,YES,NON-PBT,NO,0,NO,R,Pounds,69000,8500,0,0,0,0,0,0,0,0,0,0,77500,0,0,0,0,0,0,0,0,0,0,0,0,0,0,0,0,0,0,0,0,0,0,0,0,0,0,0,0,12,12,0,0,0,0,0,0,0,77500,0,0,77500,0,0,0,12,0,0,105900,0,183412,0,.64,BALL CORP,006419147
2005,91719VLCNM1709S,VULCAN MATERIALS CO CORONA,1709 SHERBORN ST,CORONA,RIVERSIDE,CA,92879,33.860306,-117.52438,2951,,,,,,324121,,,,,,1305203500448,POLYCYCLIC AROMATIC COMPOUNDS,N590,YES,PBT,NO,0,YES,R,Pounds,.832,.165,0,0,0,0,0,0,0,0,0,0,.997,0,0,0,0,0,0,0,0,0,0,0,0,0,0,0,0,0,0,0,0,0,0,0,0,0,0,0,0,0,0,0,0,0,0,0,0,0,.997,0,0,.998,0,0,0,0,0,0,0,0,.998,0,1.49,VULCAN MATERIALS CO,003396025
2005,90280RCPRD8601S,ARCO VINVALE TERMINAL,8601 S GARFIELD AVE,SOUTH GATE,LOS ANGELES,CA,90280,33.95304,-118.164,5171,,,,,,424710,,,,,,1305203469580,CYCLOHEXANE,000110827,NO,NON-PBT,NO,0,NO,R,Pounds,0,0,0,0,0,0,0,0,0,0,0,0,0,0,0,0,0,0,0,0,0,0,0,0,0,0,0,0,0,0,0,0,0,0,155,0,0,0,0,155,0,0,0,0,0,0,0,0,0,0,0,0,0,0,0,0,0,0,24784,154,0,0,24938,1,1.05,BP PRODUCTS NA INC,039596507
2005,92113RCSND2295E,ARCO SAN DIEGO TERMINAL,2295 HARBOR DR,SAN DIEGO,SAN DIEGO,CA,92113,32.693647,-117.140859,5171,,,,,,424710,,,,,,1305203473107,NAPHTHALENE,000091203,YES,NON-PBT,NO,0,NO,R,Pounds,2,0,0,0,0,0,0,0,0,0,0,0,2,0,0,0,0,0,0,0,0,0,0,0,0,0,0,0,0,0,0,0,0,0,0,0,0,0,0,0,0,0,0,0,0,0,0,0,0,0,2,0,0,2,0,0,0,0,42,0,0,0,44,1,.98,BP PRODUCTS NA INC,039596507
2005,90063GRGND4116W,GEORGE INDUSTRIES,4116 WHITESIDE ST,LOS ANGELES,LOS ANGELES,CA,900631692,34.059497,-118.1786,3479,3471,,,,,332812,,,,,,1305203548197,NITRIC ACID,007697372,NO,NON-PBT,NO,0,NO,R,Pounds,0,710,0,0,0,0,0,0,0,0,0,0,710,0,32,32,0,0,0,0,0,0,0,0,0,0,0,0,0,0,0,0,0,0,0,0,0,0,0,0,0,0,0,0,0,0,400,0,0,400,710,0,0,710,0,0,0,0,0,0,480000,430,481140,0,.96,VALMONT INDUSTRIES INC,007267214
2005,90801LNZNC20851,MARCHEM TECHNOLOGIES LLC,20851 S SANTA FE AVE,LONG BEACH,LOS ANGELES,CA,90810,33.843611,-118.216389,2843,,,,,,325613,,,,,,1305203554959,PHTHALIC ANHYDRIDE,000085449,YES,NON-PBT,NO,0,NO,A,Pounds,0,0,0,0,0,0,0,0,0,0,0,0,0,0,0,0,0,0,0,0,0,0,0,0,0,0,0,0,0,0,0,0,0,0,0,0,0,0,0,0,0,0,0,0,0,0,0,0,0,0,0,0,0,0,0,0,0,0,0,0,0,0,0,0,,NA,NA
2005,90503RYNLD500CR,BALL METAL BEVERAGE CONTAINER CORP,500 CRENSHAW BLVD,TORRANCE,LOS ANGELES,CA,905033129,33.84235,-118.328735,3411,,,,,,332431,,,,,,1305203474907,N-BUTYL ALCOHOL,000071363,NO,NON-PBT,NO,0,NO,R,Pounds,64000,7900,0,0,0,0,0,0,0,0,0,0,71900,0,0,0,0,0,0,0,0,0,0,0,0,0,0,0,0,0,0,0,0,0,0,0,0,0,0,0,0,12,12,0,0,0,0,0,0,0,71900,0,0,71900,0,0,0,12,0,0,98100,0,170012,0,.64,BALL CORP,006419147
2005,90503RYNLD500CR,BALL METAL BEVERAGE CONTAINER CORP,500 CRENSHAW BLVD,TORRANCE,LOS ANGELES,CA,905033129,33.84235,-118.328735,3411,,,,,,332431,,,,,,1305203474919,"SULFURIC ACID (1994 AND AFTER ""ACID AEROSOLS"" ONLY)",007664939,NO,NON-PBT,NO,0,NO,A,Pounds,0,0,0,0,0,0,0,0,0,0,0,0,0,0,0,0,0,0,0,0,0,0,0,0,0,0,0,0,0,0,0,0,0,0,0,0,0,0,0,0,0,0,0,0,0,0,0,0,0,0,0,0,0,0,0,0,0,0,0,0,0,0,0,0,,BALL CORP,006419147
2005,92508RVRSD1500R,TXI RIVERSIDE CEMENT CO CRESTMORE PLANT,1500 RUBIDOUX BLVD,RIVERSIDE,RIVERSIDE,CA,92509,34.025579,-117.389977,3241,,,,,,327310,,,,,,1305203526381,MERCURY COMPOUNDS,N458,YES,PBT,YES,1,NO,R,Pounds,.15,14.67,0,0,0,0,0,0,0,0,0,0,14.82,0,0,0,0,0,0,0,0,0,0,0,0,0,0,0,0,0,0,0,0,0,0,0,0,0,0,0,0,0,0,0,0,0,0,0,0,0,14.82,0,0,14.82,0,0,0,0,0,0,0,0,14.82,0,1.01,NA,NA
2005,90058SFTYK5756A,CLEAN HARBORS LOS ANGELES LLC,5756 ALBA ST,LOS ANGELES,LOS ANGELES,CA,90058,33.98991,-118.238602,4953,,,,,,562211,,,,,,1305203558287,MERCURY,007439976,YES,PBT,YES,1,NO,R,Pounds,0,0,0,0,0,0,0,0,0,0,0,0,0,0,0,0,0,.3,0,0,0,0,0,0,0,0,0,.1,0,0,115.1,0,0,115.5,0,6.9,0,0,0,6.9,0,0,0,0,0,0,0,0,0,0,115.5,0,0,0,.13,115.3,0,0,0,6.9,0,0,122.33,0,.03,CLEAN HARBORS ENVIRONMENTAL SERVICES,157793639
2005,94802CHVRN576ST,CHEVRON RICHMOND TECHNOLOGY CENTER,100 CHEVRON WAY,RICHMOND,CONTRA COSTA,CA,94802,37.929643,-122.386782,8733,,,,,,541710,,,,,,1305203558388,"SULFURIC ACID (1994 AND AFTER ""ACID AEROSOLS"" ONLY)",007664939,NO,NON-PBT,NO,0,NO,R,Pounds,0,1,0,0,0,0,0,0,0,0,0,0,1,0,0,0,0,0,0,0,0,0,0,0,0,0,0,0,0,0,0,0,0,0,0,0,0,0,0,0,0,0,0,0,0,0,0,0,0,0,1,0,0,1,0,0,0,0,0,0,71,0,72,0,0,CHEVRON CORP,001382555
2005,94802CHVRN576ST,CHEVRON RICHMOND TECHNOLOGY CENTER,100 CHEVRON WAY,RICHMOND,CONTRA COSTA,CA,94802,37.929643,-122.386782,8733,,,,,,541710,,,,,,1305203558438,"BENZO(G,H,I)PERYLENE",000191242,YES,PBT,NO,0,YES,R,Pounds,.1,.1,0,0,0,0,0,0,0,0,0,0,.2,0,0,0,0,0,0,0,0,0,0,0,0,0,0,0,0,0,0,0,0,0,0,0,0,0,0,0,0,0,0,0,0,0,0,0,0,0,.2,0,0,.2,0,0,0,0,0,0,0,0,.2,0,0,CHEVRON CORP,001382555
2005,95695LRWST1686E,TRUCK ACCESSORIES GROUP DBA LEER WEST,1686 E BEAMER ST,WOODLAND,YOLO,CA,957766219,38.684495,-121.742811,3792,,,,,,326130,,,,,,1305203561663,P-XYLENE,000106423,YES,NON-PBT,NO,0,NO,R,Pounds,483,9174,0,0,0,0,0,0,0,0,0,0,9657,0,0,0,0,0,0,0,0,0,0,0,0,0,0,0,0,0,0,0,0,0,0,0,0,0,0,0,0,0,0,0,689,0,0,0,0,689,9657,0,0,9657,0,0,0,0,0,0,0,689,10346,0,1.18,TRUCK ACCESSORIES GROUP LLC,178974549
2005,90509MBLLC3700W,EXXONMOBIL OIL CORP - TORRANCE REFINERY,3700 W 190TH ST,TORRANCE,LOS ANGELES,CA,905092929,33.851944,-118.331389,2911,,,,,,,,,,,,1305206136879,LEAD COMPOUNDS,N420,YES,PBT,YES,1,NO,R,Pounds,1.9,112.2,44.8,0,0,0,43.4,0,0,0,0,0,202.3,124.2,0,124.2,0,0,0,0,0,0,0,0,0,0,0,739.8,0,0,13.8,0,0,753.6,0,3.4,0,0,0,3.4,0,0,0,0,0,0,0,0,0,0,1080.1,0,43.4,158.9,864,13.8,0,0,0,3.4,0,0,1083.5,0,1.08,EXXON MOBIL CORP,001213214
2005,92665KZCTN434WE,AKZO NOBEL COATINGS INC,434 W MEATS AVE,ORANGE,ORANGE,CA,92865,33.822883,-117.856107,2851,,,,,,325510,,,,,,1305204090359,METHANOL,000067561,YES,NON-PBT,NO,0,NO,R,Pounds,845,8,0,0,0,0,0,0,0,0,0,0,853,0,0,0,0,0,0,0,0,0,0,0,0,0,9,0,0,0,0,0,0,9,0,0,0,0,0,0,3141,0,3141,0,233,0,0,0,0,233,862,0,0,852,9,0,0,3140,0,0,92,233,4326,0,.89,AKZO NOBEL COATINGS INC,021973748
2005,93640SPRCK29400,SPRECKELS SUGAR CO INC.,29400 WHITESBRIDGE RD,MENDOTA,FRESNO,CA,93640,36.734357,-120.321856,2063,,,,,,311313,,,,,,1305204117523,AMMONIA,007664417,NO,NON-PBT,NO,0,NO,R,Pounds,22906,226514,0,0,0,0,0,0,509,0,509,0,249929,0,0,0,0,0,0,0,0,0,0,0,0,0,0,0,0,0,0,0,0,0,0,0,0,0,0,0,0,0,0,0,0,0,0,0,0,0,249929,0,0,249929,0,0,0,0,0,0,0,0,249929,0,1.05,SOUTHERN MINNESOTA BEET SUGAR COOPERATIVE,062859814
2005,90749RCPRD1801E,BP WEST COAST PRODUCTS LLC CARSON,BP CARSON ONE 2350 E 223RD ST,CARSON,LOS ANGELES,CA,90810,33.813611,-118.241389,2911,5171,2821,,,,324110,,,,,,1305204124996,"1,3-BUTADIENE",000106990,YES,NON-PBT,NO,0,YES,R,Pounds,79,26,0,0,0,0,0,0,0,0,0,0,105,0,0,0,0,0,0,0,0,0,0,0,0,0,0,0,0,0,0,0,0,0,0,0,0,0,0,0,0,0,0,0,0,0,0,0,0,0,105,0,0,110,0,0,0,0,0,0,16000,0,16110,0,1.03,BP PRODUCTS NORTH AMERICA INC,039596507
2005,91761DNHMB4850E,THERMAL DYNAMICS CORP,4850 E AIRPORT DR,ONTARIO,SAN BERNARDINO,CA,91761,34.0627,-117.546826,3714,,,,,,336399,,,,,,1305204035202,COPPER,007440508,NO,NON-PBT,YES,1,NO,R,Pounds,0,0,0,0,0,0,0,0,0,0,0,0,0,0,0,0,0,0,0,0,0,0,0,0,0,0,0,0,0,0,0,0,0,0,0,0,0,0,7853,7853,0,0,0,0,0,0,0,0,0,0,0,0,0,0,0,0,0,0,0,7853,0,0,7853,0,1.03,THMX HOLDINGS LLC,160105235
2005,93501PRDCT11601,PRC-DESOTO INTERNATIONAL INC,11601 UNITED ST,MOJAVE,KERN,CA,93501,34.989932,-118.15004,2891,2851,,,,,325520,,,,,,1305205043553,CERTAIN GLYCOL ETHERS,N230,YES,NON-PBT,NO,0,NO,R,Pounds,20,15,0,0,0,0,0,0,0,0,0,0,35,0,0,0,0,0,0,0,0,0,0,0,0,0,0,0,0,0,0,0,0,0,0,0,0,0,0,0,2350,0,2350,0,0,0,0,0,0,0,35,0,0,35,0,0,0,2350,0,0,0,0,2385,0,5.27,PPG INDUSTRIES INC,001344803
2005,90058GBSNH2457E,GARDNER GIBSON INC,2457 E 30 TH ST,VERNON,LOS ANGELES,CA,90058,34.00996,-118.229672,2891,,,,,,324122,,,,,,1305203607268,NITRATE COMPOUNDS,N511,NO,NON-PBT,NO,0,NO,A,Pounds,0,0,0,0,0,0,0,0,0,0,0,0,0,0,0,0,0,0,0,0,0,0,0,0,0,0,0,0,0,0,0,0,0,0,0,0,0,0,0,0,0,0,0,0,0,0,0,0,0,0,0,0,0,0,0,0,0,0,0,0,0,0,0,0,,GARDNER INDUSTRIES INC,041495490
2005,93274DRYMN400SO,LAND O LAKES TULARE DCCA,400 S M ST,TULARE,TULARE,CA,93274,36.205424,-119.342823,2021,,,,,,311512,,,,,,1305203607306,NITRATE COMPOUNDS,N511,NO,NON-PBT,NO,0,NO,R,Pounds,0,0,0,0,0,0,0,0,0,0,0,0,0,0,66783,66783,0,0,0,0,0,0,0,0,0,0,0,0,0,0,0,0,0,0,0,0,543,0,0,543,0,0,0,0,0,0,0,0,0,0,0,0,0,0,0,0,0,0,0,543,151894,66783,219220,0,29.58,LAND O LAKES INC,996253835
2005,90810TXCRF23208,TESORO SULFUR RECOVERY PLANT,23208 S ALAMEDA STEET,CARSON,LOS ANGELES,CA,90810,33.812354,-118.232923,2819,,,,,,325188,,,,,,1305204097861,DIETHANOLAMINE,000111422,YES,NON-PBT,NO,0,NO,R,Pounds,72,13,0,0,0,0,0,0,0,0,0,0,85,0,0,0,0,0,0,0,0,0,0,0,0,0,0,0,0,0,0,0,0,0,0,0,0,0,0,0,0,0,0,0,0,0,0,0,0,0,85,0,0,86,0,0,0,0,0,0,0,0,86,0,1,TESORO CORP,008133480
2005,92064KTBCR134KI,K-TUBE CORP,13400 KIRKHAM WAY,POWAY,SAN DIEGO,CA,920647166,32.934829,-117.040956,3841,,,,,,339112,,,,,,1305204065231,CHROMIUM COMPOUNDS(EXCEPT CHROMITE ORE MINED IN THE TRANSVAAL REGION),N090,YES,NON-PBT,YES,1,NO,R,Pounds,0,0,0,0,0,0,0,0,0,0,0,0,0,.5,0,.5,0,0,0,0,0,0,0,0,0,0,0,0,0,0,0,0,383,383,0,6987,0,0,0,6987,0,0,0,0,0,0,0,0,0,0,383.5,0,0,0,0,383.5,0,0,0,6987,0,0,7370.5,0,.96,COOK GROUP INC,NA
2005,94802CHVRN841ST,CHEVRON PRODUCTS CO RICHMOND REFINERY,841 CHEVRON WAY,RICHMOND,CONTRA COSTA,CA,948010627,37.933831,-122.3929,2911,5171,,,,,324110,,,,,,1305204128211,"HYDROCHLORIC ACID (1995 AND AFTER ""ACID AEROSOLS"" ONLY)",007647010,YES,NON-PBT,NO,0,NO,R,Pounds,0,0,0,0,0,0,0,0,0,0,0,0,0,0,0,0,0,0,0,0,0,0,0,0,0,0,0,0,0,0,0,0,0,0,0,0,0,0,0,0,0,0,0,0,0,0,0,0,0,0,0,0,0,0,0,0,0,0,0,0,380000,0,380000,0,.89,CHEVRON CORP,001382555
2005,94070RMCPC126BR,CEMEX SAN CARLOS,1026 BRANSTON RD,SAN CARLOS,SAN MATEO,CA,94070,37.505723,-122.25339,3273,,,,,,327320,,,,,,1305203555608,LEAD COMPOUNDS,N420,YES,PBT,YES,1,NO,R,Pounds,0,0,0,0,0,0,0,0,0,0,0,0,0,0,0,0,0,11,0,0,0,0,0,0,0,0,0,0,0,0,0,0,0,11,0,0,0,0,0,0,0,0,0,0,0,0,0,0,0,0,11,0,0,0,0,11,0,0,0,0,0,0,11,0,1.26,CEMEX,189840945
2005,94566PPLDB655SU,APPLIED BIOSYSTEMS,6055 SUNOL BLVD,PLEASANTON,ALAMEDA,CA,94566,37.644576,-121.881461,2869,,,,,,325199,,,,,,1305203594217,DICHLOROMETHANE,000075092,YES,NON-PBT,NO,0,YES,R,Pounds,1.06,15.8,0,0,0,0,0,0,0,0,0,0,16.86,0,0,0,0,0,0,0,0,0,0,0,0,0,247,0,0,0,0,0,0,247,0,0,0,0,0,0,20309,0,20309,0,378,0,0,0,0,378,263.86,0,0,16.9,247,0,0,20309,0,0,0,378,20950.9,0,.87,LIFE TECHNOLOGIES INC,182158873
2005,95131HLLBR410CH,HILL BROTHERS CHEMICAL CO,410 CHARCOT AVE,SAN JOSE,SANTA CLARA,CA,951311105,37.382662,-121.914649,2819,,,,,,325998,,,,,,1305203600782,AMMONIA,007664417,NO,NON-PBT,NO,0,NO,R,Pounds,5,0,0,0,0,0,0,0,0,0,0,0,5,0,0,0,0,0,0,0,0,0,0,0,0,0,0,0,0,0,0,0,0,0,0,0,0,0,0,0,0,0,0,0,0,0,0,0,0,0,5,0,0,1,0,0,0,0,0,0,0,0,1,21,0,HILL BROTHERS CHEMICAL CO,056599178
2005,92126SKSNC927DW,SKS INC. DOWDY,9270 DOWDY DR,SAN DIEGO,SAN DIEGO,CA,92126,32.890166,-117.146793,5171,,,,,,424710,,,,,,1305203607534,ETHYLBENZENE,000100414,YES,NON-PBT,NO,0,NO,A,Pounds,0,0,0,0,0,0,0,0,0,0,0,0,0,0,0,0,0,0,0,0,0,0,0,0,0,0,0,0,0,0,0,0,0,0,0,0,0,0,0,0,0,0,0,0,0,0,0,0,0,0,0,0,0,0,0,0,0,0,0,0,0,0,0,0,,NA,NA
2005,93239CHMCL35251,CHEMICAL WASTE MANAGEMENT INC,35251 OLD SKYLINE RD,KETTLEMAN CITY,KINGS,CA,932390471,35.96864,-120.024597,4953,,,,,,562211,,,,,,1305204024006,SILVER,007440224,NO,NON-PBT,YES,1,NO,R,Pounds,0,0,0,0,0,13330,0,0,21,21,0,0,13351,0,0,0,0,0,0,0,0,0,0,0,0,0,0,0,0,0,22,0,0,22,0,0,0,0,0,0,0,0,0,0,0,0,0,0,0,0,13373,0,13330,21,0,22,0,0,0,0,0,0,13373,0,1.3,WASTE MANAGEMENT INC,047577416
2005,93239CHMCL35251,CHEMICAL WASTE MANAGEMENT INC,35251 OLD SKYLINE RD,KETTLEMAN CITY,KINGS,CA,932390471,35.96864,-120.024597,4953,,,,,,562000,,,,,,1305204024044,TRIFLURALIN,001582098,YES,PBT,NO,0,NO,R,Pounds,0,0,0,0,0,235,0,0,0,0,0,0,235,0,0,0,0,0,0,0,0,0,0,0,0,0,0,0,0,0,0,0,0,0,0,0,0,0,0,0,0,0,0,0,0,0,0,0,0,0,235,0,235,0,0,0,0,0,0,0,0,0,235,0,0,WASTE MANAGEMENT INC,047577416
2005,94544BLLCT31033,SIGMATRON INTERNATIONAL INC.,31033 HUNTWOOD AVE,HAYWARD,ALAMEDA,CA,94544,37.610373,-122.05483,3672,,,,,,334418,,,,,,1305204114781,LEAD COMPOUNDS,N420,YES,PBT,YES,1,NO,R,Pounds,0,0,0,0,0,0,0,0,0,0,0,0,0,0,0,0,0,0,0,0,0,0,0,0,0,0,0,0,0,0,0,0,0,0,0,6448,0,0,0,6448,0,0,0,0,0,0,0,0,0,0,0,0,0,0,0,0,0,0,0,6448,0,0,6448,0,1.16,NA,NA
2005,92627MCGRG1631P,MACGREGOR YACHT CORP,1631 PLACENTIA,COSTA MESA,ORANGE,CA,92627,33.633593,-117.931873,3732,,,,,,336612,,,,,,1305204063770,STYRENE,000100425,YES,NON-PBT,NO,0,YES,R,Pounds,0,45500,0,0,0,0,0,0,0,0,0,0,45500,0,0,0,0,0,0,0,0,0,0,0,0,0,0,0,0,0,0,0,0,0,0,0,0,0,0,0,0,0,0,0,0,0,0,0,0,0,45500,0,0,0,0,0,0,0,0,0,0,0,0,0,1002,NA,NA
2005,94802CHVRN841ST,CHEVRON PRODUCTS CO RICHMOND REFINERY,841 CHEVRON WAY,RICHMOND,CONTRA COSTA,CA,948010627,37.933831,-122.3929,2911,5171,,,,,324110,,,,,,1305204128324,TETRACHLOROETHYLENE,000127184,YES,NON-PBT,NO,0,YES,R,Pounds,3100,0,0,0,0,0,0,0,0,0,0,0,3100,0,0,0,0,0,0,0,0,0,0,0,0,0,0,0,0,0,0,0,0,0,0,0,0,0,0,0,0,0,0,0,46,0,0,0,0,46,3100,0,0,3100,0,0,0,0,0,0,0,46,3146,0,.89,CHEVRON CORP,001382555
2005,91311HFFMN20701,FADAL MACHINING CENTERS LLC,20701 PLUMMER ST,CHATSWORTH,LOS ANGELES,CA,91311,34.24271,-118.58418,3541,,,,,,333512,,,,,,1305204128413,COPPER COMPOUNDS,N100,NO,NON-PBT,YES,1,NO,R,Pounds,0,0,0,0,0,0,0,0,0,0,0,0,0,0,0,0,0,0,0,0,0,0,0,0,0,0,0,0,0,0,0,0,0,0,0,0,0,0,7195,7195,0,0,0,0,0,0,0,0,0,0,0,0,0,0,0,0,0,0,0,7195,0,0,7195,0,.08,MAG DOMESTIC HOLDINGS,NA
2005,95206VLMTN431SP,VALIMET INC,431 SPERRY RD,STOCKTON,SAN JOAQUIN,CA,952063907,37.897994,-121.270017,3399,,,,,,331314,,,,,,1305204162109,ALUMINUM (FUME OR DUST),007429905,NO,NON-PBT,YES,4,NO,R,Pounds,0,0,0,0,0,0,0,0,0,0,0,750,750,0,0,0,0,0,0,0,0,0,0,0,0,0,0,0,0,0,0,0,0,0,0,0,113700,0,0,113700,0,0,0,0,0,0,0,0,0,0,750,0,0,750,0,0,0,0,0,113700,0,0,114450,0,.7,NA,NA
2005,90058MBLLV2619E,EXXONMOBIL OIL CORP,2709 E 37TH ST,VERNON,LOS ANGELES,CA,90058,34.008933,-118.222513,5171,2992,,,,,,,,,,,1305205889470,"BENZO(G,H,I)PERYLENE",000191242,YES,PBT,NO,0,YES,R,Pounds,0,0,0,0,0,0,0,0,0,0,0,0,0,0,0,0,0,0,0,0,0,0,0,0,0,0,0,0,0,0,0,0,0,0,0,0,0,0,0,0,0,0,0,0,0,0,0,0,0,0,0,0,0,0,0,0,0,0,0,0,0,0,0,0,,EXXONMOBIL CORP,001213214
2005,90262CRGLL2801L,MOMENTIVE SPECIALTY CHEMICALS INC,2801 LYNWOOD RD,LYNWOOD,LOS ANGELES,CA,90262,33.926111,-118.222833,2821,,,,,,325211,,,,,,1305203622840,DICYCLOPENTADIENE,000077736,NO,NON-PBT,NO,0,NO,R,Pounds,1,9,0,0,0,0,0,0,0,0,0,0,10,0,0,0,0,0,0,0,0,0,0,0,0,0,0,0,0,0,0,0,0,0,0,0,0,0,0,0,0,0,0,0,0,0,0,0,0,0,10,0,0,10,0,0,66,0,0,0,0,0,76,0,1.27,MOMENTIVE SPECIALTY CHEMICALS INC,001338797
2005,90262CRGLL2801L,MOMENTIVE SPECIALTY CHEMICALS INC,2801 LYNWOOD RD,LYNWOOD,LOS ANGELES,CA,90262,33.926111,-118.222833,2821,,,,,,325211,,,,,,1305203622903,PHTHALIC ANHYDRIDE,000085449,YES,NON-PBT,NO,0,NO,R,Pounds,549,4905,0,0,0,0,0,0,0,0,0,0,5454,0,0,0,0,0,0,0,0,0,0,0,0,0,0,0,0,0,0,0,0,0,0,0,0,0,0,0,0,0,0,0,25306,0,9624,0,0,34930,5454,0,0,5454,0,0,35992,0,0,0,0,34930,76376,0,1.57,MOMENTIVE SPECIALTY CHEMICALS INC,001338797
2005,93902CHMCL11771,CHEMICAL LIME NATIVADAD PLANT,11771 OLD STAGE RD,SALINAS,MONTEREY,CA,93902,36.744352,-121.603852,3274,3299,,,,,327410,,,,,,1305204077630,POLYCYCLIC AROMATIC COMPOUNDS,N590,YES,PBT,NO,0,YES,R,Pounds,0,.1,0,0,0,0,0,0,0,0,0,0,.1,0,0,0,0,0,0,0,0,0,0,0,0,0,0,0,0,0,0,0,0,0,0,0,0,0,0,0,0,0,0,0,0,0,0,0,0,0,.1,0,0,.1,0,0,0,0,0,0,0,0,.1,0,.99,NA,NA
2005,94107STHWSFOOTO,BAE SYSTEMS SAN FRANCISCO SHIP REPAIR,FOOT OF 20TH ST,SAN FRANCISCO,SAN FRANCISCO,CA,94107,37.761111,-122.37916,3731,3732,,,,,336611,,,,,,1305204026936,COPPER COMPOUNDS,N100,NO,NON-PBT,YES,1,NO,R,Pounds,356,0,2.3,0,0,0,0,0,0,0,0,0,358.3,20,0,20,0,6295,0,0,0,0,0,0,0,0,0,0,0,0,0,0,0,6295,0,0,7528,0,0,7528,0,0,0,0,0,0,0,0,0,0,6673.3,0,0,356,22,6295,0,0,0,7580,0,0,14253,0,0,BAE SYSTEMS INC,043554364
2005,95376LGGTT215NM,LEGGETT & PLATT URETHANE DIV BRANCH 6014,2015 N MACARTHUR DR,TRACY,SAN JOAQUIN,CA,95376,37.749575,-121.413259,3086,,,,,,326150,,,,,,1305204086615,DIISOCYANATES,N120,YES,NON-PBT,NO,0,NO,R,Pounds,3.068,0,0,0,0,0,0,0,0,0,0,0,3.068,0,0,0,0,0,0,0,0,0,0,0,0,0,0,0,0,0,0,0,0,0,0,0,0,0,0,0,0,0,0,0,0,0,0,0,0,0,3.068,0,0,3.068,0,0,0,0,0,0,0,0,3.068,0,2.05,LEGGETT & PLATT INC,071400064
2005,90058MBLLV2619E,EXXONMOBIL OIL CORP,2709 E 37TH ST,VERNON,LOS ANGELES,CA,90058,34.008933,-118.222513,5171,2992,,,,,,,,,,,1305205889544,XYLENE (MIXED ISOMERS),001330207,YES,NON-PBT,NO,0,NO,R,Pounds,0,0,0,0,0,0,0,0,0,0,0,0,0,0,0,0,0,0,0,0,0,0,0,0,0,0,0,0,0,0,0,0,0,0,0,0,0,0,0,0,0,0,0,0,0,0,0,0,0,0,0,0,0,0,0,0,0,0,0,0,0,0,0,0,,EXXONMOBIL CORP,001213214
2005,94545GLLNG25800,GILLIG,25800 CLAWITER RD,HAYWARD,ALAMEDA,CA,945453213,37.63213,-122.11972,3711,,,,,,336211,,,,,,1305204122941,NICKEL,007440020,YES,NON-PBT,YES,1,YES,R,Pounds,0,0,0,0,0,0,0,0,0,0,0,0,0,0,0,0,0,0,0,0,0,0,0,0,0,0,0,0,0,0,0,0,0,0,0,0,1719,0,0,1719,0,0,0,0,0,0,0,0,0,0,0,0,0,0,0,0,0,0,0,1719,0,0,1719,0,.86,NA,NA
2005,94553VNTRM611SO,CHEVRON PRODUCTS CO AVON TERMINAL,611 SOLANO WAY,MARTINEZ,CONTRA COSTA,CA,94553,38.02825,-122.069694,5171,,,,,,424710,,,,,,1305204123196,ETHYLBENZENE,000100414,YES,NON-PBT,NO,0,NO,R,Pounds,4,7,0,0,0,0,0,0,0,0,0,0,11,0,0,0,0,0,0,0,0,0,0,0,0,0,0,0,0,0,0,0,0,0,0,0,0,0,0,0,0,0,0,0,0,0,0,0,0,0,11,0,0,12,0,0,0,0,0,0,0,0,12,0,.95,CHEVRON CORP,001382555
2005,91732VLLYB3141N,CHAMPION IRRIGATIOPN LLC,3141 MAXON RD,EL MONTE,LOS ANGELES,CA,91732,34.061454,-118.015059,3999,,,,,,339999,,,,,,1305204132839,LEAD,007439921,YES,PBT,YES,1,YES,R,Pounds,0,0,0,0,0,0,0,0,0,0,0,0,0,0,0,0,0,0,0,0,0,0,0,0,0,0,0,0,0,0,0,0,0,0,0,7400,0,0,0,7400,0,0,0,0,0,0,0,0,0,0,0,0,0,0,0,0,0,0,0,7400,0,0,7400,0,.6,NA,NA
2005,92121RHNLN9151R,RHINO LININGS USA INC,9151 REHCO RD,SAN DIEGO,SAN DIEGO,CA,92121,32.889596,-117.172511,5169,,,,,,424690,,,,,,1305204128654,XYLENE (MIXED ISOMERS),001330207,YES,NON-PBT,NO,0,NO,R,Pounds,5,0,0,0,0,0,0,0,0,0,0,0,5,0,0,0,0,0,0,0,0,0,0,0,0,0,0,0,0,0,0,0,0,0,0,0,0,0,0,0,0,0,0,0,0,0,0,0,0,0,5,0,0,5,0,0,0,0,0,0,0,0,5,0,0,NA,NA
2005,95330CBCST17ELU,CBC STEEL BUILDINGS LLC,1700 E LOUISE AVE,LATHROP,SAN JOAQUIN,CA,95330,37.81184,-121.273237,3448,,,,,,,,,,,,1305205913419,NICKEL,007440020,YES,NON-PBT,YES,1,YES,R,Pounds,2,0,0,0,0,0,0,0,0,0,0,0,2,0,0,0,0,0,0,0,0,0,0,0,0,0,7,0,0,0,0,0,0,7,0,743,0,0,0,743,0,0,0,0,0,0,0,0,0,0,9,0,0,2,7,0,0,0,0,740,0,0,749,0,.93,NUCOR CORP,003446796
2005,90245LCTRP139IL,ELECTROPLY INC,140 WASHINGTON ST,EL SEGUNDO,LOS ANGELES,CA,90245,33.916681,-118.398344,2821,,,,,,326130,,,,,,1305204089484,"N,N-DIMETHYLFORMAMIDE",000068122,YES,NON-PBT,NO,0,YES,R,Pounds,0,0,0,0,0,0,0,0,0,0,0,0,0,0,0,0,0,0,0,0,0,0,0,0,0,0,0,0,0,0,0,0,0,0,0,0,0,0,0,0,2513,0,2513,0,0,0,0,0,0,0,0,0,0,0,0,0,0,2513,0,0,0,0,2513,0,0,NA,NA
2005,94802CHVRN841ST,CHEVRON PRODUCTS CO RICHMOND REFINERY,841 CHEVRON WAY,RICHMOND,CONTRA COSTA,CA,948010627,37.933831,-122.3929,2911,5171,,,,,,,,,,,1305205140662,NITRATE COMPOUNDS,N511,NO,NON-PBT,NO,0,NO,R,Pounds,0,0,570000,0,0,0,0,0,0,0,0,0,570000,0,0,0,0,0,0,0,0,0,0,0,0,0,0,0,0,0,0,0,0,0,0,0,0,0,0,0,0,0,0,0,0,0,0,0,0,0,570000,0,0,570000,0,0,0,0,0,0,0,0,570000,0,.99,CHEVRON CORP,001382555
2005,94802CHVRN841ST,CHEVRON PRODUCTS CO RICHMOND REFINERY,841 CHEVRON WAY,RICHMOND,CONTRA COSTA,CA,948010627,37.933831,-122.3929,2911,5171,,,,,,,,,,,1305205140700,VANADIUM COMPOUNDS,N770,NO,NON-PBT,YES,1,NO,R,Pounds,0,110,0,0,0,0,0,0,0,0,0,0,110,0,0,0,0,115,0,0,0,0,0,0,0,0,371,109255,0,0,324,0,0,110065,0,2,72,0,0,74,0,0,0,0,0,0,0,0,0,0,110175,0,0,110,109626,439,0,0,0,74,0,0,110249,0,.99,CHEVRON CORP,001382555
2005,94802CHVRN841ST,CHEVRON PRODUCTS CO RICHMOND REFINERY,841 CHEVRON WAY,RICHMOND,CONTRA COSTA,CA,948010627,37.933831,-122.3929,2911,5171,,,,,,,,,,,1305205140751,ETHYLBENZENE,000100414,YES,NON-PBT,NO,0,NO,R,Pounds,2000,1600,6,0,0,0,0,0,0,0,0,0,3606,0,0,0,0,0,0,0,0,0,0,0,0,0,0,45,0,0,0,0,0,45,9,0,1,0,0,10,0,0,0,0,210,0,0,0,0,210,3651,0,0,3606,45,0,0,0,0,10,410,210,4281,0,.89,CHEVRON CORP,001382555
2005,90503NNCRB19206,ARKEMA EMULSION SYSTEMS PLANT,19206 HAWTHORNE BLVD,TORRANCE,LOS ANGELES,CA,90503,33.855583,-118.34908,2821,,,,,,325211,,,,,,1305204099143,VINYL ACETATE,000108054,YES,NON-PBT,NO,0,YES,R,Pounds,250,1041,0,0,0,0,0,0,0,0,0,0,1291,0,1758,1758,0,0,0,0,0,0,0,0,0,0,0,250,0,0,0,0,0,250,0,0,0,0,0,0,250,0,250,0,0,0,0,0,0,0,1541,0,0,1291,250,5,0,19,0,0,25561,2134,29260,0,1.05,ARKEMA DELAWARE INC,001381581
2005,90608ZMNMN12425,ZIEMAN MANUFACTURING WHITTIER PLANT 104,12425 E WHITTIER BLVD,WHITTIER,LOS ANGELES,CA,90608,33.973,-118.04517,3715,3795,3441,,,,333999,,,,,,1305203602949,LEAD,007439921,YES,PBT,YES,1,YES,R,Pounds,0,0,0,0,0,0,0,0,0,0,0,0,0,0,0,0,0,0,0,0,0,0,0,0,0,0,.62,0,0,0,0,0,0,.62,0,0,0,0,61.14,61.14,0,0,0,0,0,0,0,0,0,0,.62,0,0,0,.62,0,0,0,0,61.14,0,0,61.76,0,1.98,LIPPERT COMPONENTS INC,043222470
2005,90262CRGLL2801L,MOMENTIVE SPECIALTY CHEMICALS INC,2801 LYNWOOD RD,LYNWOOD,LOS ANGELES,CA,90262,33.926111,-118.222833,2821,,,,,,325211,,,,,,1305203622941,XYLENE (MIXED ISOMERS),001330207,YES,NON-PBT,NO,0,NO,R,Pounds,52,597,0,0,0,0,0,0,0,0,0,0,649,0,0,0,0,0,0,0,0,0,0,0,0,0,0,0,0,0,0,0,0,0,0,0,0,0,0,0,0,0,0,0,22961,0,1939,0,0,24900,649,0,0,649,0,0,4388,0,10450,0,0,24900,40387,50,.95,MOMENTIVE SPECIALTY CHEMICALS INC,001338797
2005,90023BRGLC3150E,PACIFIC RESOURCE RECOVERY,3150 E PICO BLVD,LOS ANGELES,LOS ANGELES,CA,90023,34.018006,-118.211303,7389,,,,,,562211,,,,,,1305203626395,TETRACHLOROETHYLENE,000127184,YES,NON-PBT,NO,0,YES,R,Pounds,1.92,.08,0,0,0,0,0,0,0,0,0,41744,41746,0,0,0,0,0,0,0,0,0,0,0,0,0,0,0,0,0,0,0,0,0,0,0,0,0,0,0,35964,0,35964,0,5780,0,0,0,0,5780,41746,0,0,1.92,0,0,0,35964,0,0,0,5780,41745.92,0,0,BERG LACQUER CO,NA
2005,91719SBTTR1675S,U.S. BATTERY MFG CO,1675 SAMPSON AVE,CORONA,RIVERSIDE,CA,92879,33.879085,-117.53301,3691,,,,,,335911,,,,,,1305204059327,LEAD COMPOUNDS,N420,YES,PBT,YES,1,NO,R,Pounds,0,5.44,0,0,0,0,0,0,0,0,0,0,5.44,0,0,0,0,0,0,0,0,0,0,0,0,0,0,0,0,0,0,0,0,0,0,908000,0,0,0,908000,0,0,0,0,0,0,0,0,0,0,5.44,0,0,0,0,0,0,0,0,908000,0,0,908000,.6,.8,PALOS VERDES BLDG CORP,047432877
2005,94539SMTNL47650,SIGMATRON INTERNATIONAL INC FREMONT,47650 WESTINGHOUSE DR,FREMONT,ALAMEDA,CA,94539,37.478995,-121.925674,3672,,,,,,334412,,,,,,1305204119301,LEAD COMPOUNDS,N420,YES,PBT,YES,1,NO,R,Pounds,0,0,0,0,0,0,0,0,0,0,0,0,0,0,0,0,0,0,0,0,0,0,0,0,0,0,0,0,0,0,0,0,0,0,0,7551,0,0,0,7551,0,0,0,0,0,0,0,0,0,0,0,0,0,0,0,0,0,0,0,7551,0,0,7551,0,0,SIGMATRON INTERNATIONAL INC,825622327
2005,90710PRMWH24000,PRIME WHEEL CORP,24000 S VERMONT AVE,HARBOR CITY,LOS ANGELES,CA,90710,33.808,-118.2903,3471,,,,,,332813,,,,,,1305204126508,NICKEL COMPOUNDS,N495,YES,NON-PBT,YES,1,NO,R,Pounds,0,.1,0,0,0,0,0,0,0,0,0,0,.1,15.14,0,15.14,0,0,0,0,0,0,0,0,0,0,0,0,0,0,0,0,0,0,0,100200.03,0,0,0,100200.03,0,0,0,0,0,0,0,0,0,0,15.24,0,0,.1,0,15.14,0,0,0,100200.03,0,0,100215.27,0,0,NA,NA
2005,95023LTHRB111HI,GAF LEATHERBACK CORP,111 HILLCREST RD,HOLLISTER,SAN BENITO,CA,95023,36.84627,-121.39586,2952,,,,,,324122,,,,,,1305204170815,"BENZO(G,H,I)PERYLENE",000191242,YES,PBT,NO,0,YES,R,Pounds,0,0,0,0,0,0,0,0,0,0,0,0,0,0,0,0,0,0,0,0,0,0,0,0,0,0,5.1,0,0,0,0,0,0,5.1,0,0,0,0,0,0,0,0,0,0,0,0,0,0,0,0,5.1,0,0,0,5.1,0,0,0,0,0,0,0,5.1,0,.9,BUILDING MATERIALS CORP OF AMERICA,001294172
2005,91761LGGTT1050S,LEGGETT & PLATT INC,1050 S DUPONT AVE,ONTARIO,SAN BERNARDINO,CA,917611578,34.053204,-117.561976,3086,,,,,,326150,,,,,,1305204089825,DIISOCYANATES,N120,YES,NON-PBT,NO,0,NO,R,Pounds,5,5,0,0,0,0,0,0,0,0,0,0,10,0,0,0,0,0,0,0,0,0,0,0,0,0,0,0,0,0,0,0,0,0,0,0,0,0,0,0,0,0,0,0,0,0,0,0,0,0,10,0,0,1,0,0,0,0,0,0,0,0,1,0,1.16,LEGGETT & PLATT INC,007140064
2005,90744TXCRF2101E,TESORO LOS ANGELES REFINERY,2101 E PACIFIC COAST HWY,WILMINGTON,LOS ANGELES,CA,90744,33.791667,-118.234722,2911,,,,,,325110,,,,,,1305204027332,PHENANTHRENE,000085018,YES,NON-PBT,NO,0,NO,R,Pounds,2,3,0,0,0,0,0,0,0,0,0,2,7,0,0,0,0,0,0,0,0,0,0,0,0,0,0,0,0,0,0,0,0,0,0,0,0,0,0,0,0,0,0,0,0,0,0,0,0,0,7,0,0,7,0,0,0,0,0,0,0,0,7,0,1.09,TESORO CORP,008133480
2005,90039CBGGY5121S,HUNTSMAN ADVANCED MATERIALS AMERICAS INC- LA SITE,5121 SAN FERNANDO RD  W,LOS ANGELES,LOS ANGELES,CA,90039,34.14521,-118.271546,2821,,,,,,,,,,,,1305205146879,MERCURY COMPOUNDS,N458,YES,PBT,YES,1,NO,R,Pounds,0,0,0,0,0,0,0,0,0,0,0,0,0,0,0,0,0,38,0,0,0,0,0,0,0,0,0,0,0,0,0,0,0,38,0,0,0,0,0,0,0,0,0,0,0,0,0,0,0,0,38,0,0,0,0,38,0,0,0,0,0,0,38,0,1.1,HUNTSMAN INC,NA
2005,93308TXCRF3663G,ALON BAKERSFIELD REFINERY AREA 3,3663 GIBSON ST,BAKERSFIELD,KERN,CA,93308,35.393611,-119.0525,2911,,,,,,,,,,,,1305205147263,PROPYLENE,000115071,NO,NON-PBT,NO,0,NO,R,Pounds,175,250,0,0,0,0,0,0,0,0,0,0,425,0,0,0,0,0,0,0,0,0,0,0,0,0,0,0,0,0,0,0,0,0,0,0,0,0,0,0,0,0,0,0,0,0,0,0,0,0,425,0,0,570,0,0,0,0,0,0,21000,0,21570,0,.83,ALON USA ENERGY INC,876661062
2005,94534RNKRM4132C,RINKER MATERIALS CORDELIA PLANT 1827,4132 CORDELIA RD,FAIRFIELD,SOLANO,CA,94534,38.214616,-122.120323,3273,,,,,,327320,,,,,,1305204096275,NITRATE COMPOUNDS,N511,NO,NON-PBT,NO,0,NO,A,Pounds,0,0,0,0,0,0,0,0,0,0,0,0,0,0,0,0,0,0,0,0,0,0,0,0,0,0,0,0,0,0,0,0,0,0,0,0,0,0,0,0,0,0,0,0,0,0,0,0,0,0,0,0,0,0,0,0,0,0,0,0,0,0,0,0,,NA,NA
2005,94589FRFLD8001R,SUPER STORE INDUSTRIES FAIRFIELD DAIRY DIV,199 RED TOP RD,FAIRFIELD,SOLANO,CA,945349500,38.207,-122.15662,2026,,,,,,,,,,,,1305206216501,NITRATE COMPOUNDS,N511,NO,NON-PBT,NO,0,NO,R,Pounds,0,0,0,0,0,0,0,0,0,0,0,0,0,0,21547,21547,0,0,0,0,0,0,0,0,0,0,0,0,0,0,0,0,0,0,0,0,0,0,0,0,0,0,0,0,0,0,0,0,0,0,0,0,0,0,0,0,0,0,0,0,0,21547,21547,0,.83,SUPER STORE INDUSTRIES,621596345
2005,91761LNHNT1496E,HENKEL ONTARIO,1496 E FRANCIS ST,ONTARIO,SAN BERNARDINO,CA,917618301,34.041254,-117.620645,2893,2899,,,,,325910,,,,,,1305203626700,SILVER,007440224,NO,NON-PBT,YES,1,NO,R,Pounds,1.27,0,0,0,0,0,0,0,0,0,0,0,1.27,0,0,0,0,0,0,0,0,0,0,0,0,0,0,0,0,0,0,0,0,0,0,561,0,0,0,561,0,0,0,0,0,0,0,0,0,0,1.27,0,0,1.27,0,0,0,0,0,561,0,0,562.27,0,1.27,HENKEL CORP,054744784
2005,92806DTLSN1231S,DYNAMIC DETAILS INC,1231 SIMON CIRCLE,ANAHEIM,ORANGE,CA,92806,33.854199,-117.861612,3672,,,,,,334412,,,,,,1305204034413,FORMALDEHYDE,000050000,YES,NON-PBT,NO,0,YES,A,Pounds,0,0,0,0,0,0,0,0,0,0,0,0,0,0,0,0,0,0,0,0,0,0,0,0,0,0,0,0,0,0,0,0,0,0,0,0,0,0,0,0,0,0,0,0,0,0,0,0,0,0,0,0,0,0,0,0,0,0,0,0,0,0,0,0,,DDI CORP,125125448
2005,90749RCPRD1801E,BP WEST COAST PRODUCTS LLC CARSON,BP CARSON ONE 2350 E 223RD ST,CARSON,LOS ANGELES,CA,90810,33.813611,-118.241389,2911,5171,2821,,,,324110,,,,,,1305204038119,ETHYLBENZENE,000100414,YES,NON-PBT,NO,0,NO,R,Pounds,10,27,0,0,0,0,0,0,0,0,0,0,37,0,0,0,0,0,0,0,0,0,0,0,0,0,0,0,0,0,0,0,0,0,1,0,1,0,0,2,0,0,0,0,0,0,0,0,0,0,37,0,0,37,0,0,0,0,0,2,0,0,39,0,.98,BP PRODUCTS NORTH AMERICA INC,039596507
2005,90749RCPRD1801E,BP WEST COAST PRODUCTS LLC CARSON,BP CARSON ONE 2350 E 223RD ST,CARSON,LOS ANGELES,CA,90810,33.813611,-118.241389,2911,5171,2821,,,,324110,,,,,,1305204038234,TOLUENE,000108883,YES,NON-PBT,NO,0,NO,R,Pounds,23,210,0,0,0,0,0,0,0,0,0,0,233,0,0,0,0,0,0,0,0,0,0,0,0,0,0,0,0,0,0,0,0,0,5,0,4,0,0,9,0,0,0,0,0,0,0,0,0,0,233,0,0,240,0,0,0,0,0,9,4,0,253,0,.98,BP PRODUCTS NORTH AMERICA INC,039596507
2005,90813PTRDM1920L,PETRODIAMOND TERMINAL CO,1920 LUGGER WAY,LONG BEACH,LOS ANGELES,CA,90813,33.776528,-118.219417,5171,,,,,,424710,,,,,,1305204050660,ETHYLENE GLYCOL,000107211,YES,NON-PBT,NO,0,NO,R,Pounds,0,0,0,0,0,0,0,0,0,0,0,0,0,0,0,0,0,0,0,0,0,0,0,0,0,0,0,0,0,0,0,0,0,0,2558,0,0,0,0,2558,0,0,0,0,0,0,0,0,0,0,0,0,0,0,0,0,0,0,0,2558,0,0,2558,0,.58,NA,NA
2005,92801KNSBR1314N,KINSBURSKY BROTHERS SUPPLY INC,1314 N ANAHEIM BLVD,ANAHEIM,ORANGE,CA,92801,33.849882,-117.923606,4953,,,,,,562211,,,,,,1305204148542,ANTIMONY,007440360,YES,NON-PBT,YES,1,NO,R,Pounds,0,0,0,0,0,0,0,0,0,0,0,0,0,0,0,0,0,0,0,0,0,0,0,0,0,0,0,0,0,0,0,0,0,0,0,436750,0,0,0,436750,0,0,0,0,0,0,0,0,0,0,0,0,0,0,0,0,0,0,0,436700,0,0,436700,0,1.12,NA,NA
2005,95691RCPRD1601S,BP WEST SACRAMENTO TERMINAL,1601 S RIVER RD,WEST SACRAMENTO,YOLO,CA,95691,38.570218,-121.521556,5171,,,,,,424710,,,,,,1305203626938,BENZENE,000071432,YES,NON-PBT,NO,0,YES,R,Pounds,35,56,0,0,0,0,0,0,0,0,0,0,91,0,0,0,0,0,0,0,0,0,0,0,0,0,0,0,0,0,0,0,0,0,0,0,232,0,0,232,0,0,0,0,0,0,0,0,2,2,91,0,0,90,0,0,0,0,232,232,5986,2,6542,1,1,BP PRODUCTS NA INC,039596507
2005,90810WSTRN2001E,WESTERN TUBE & CONDUIT CORP,2001 E DOMINGUEZ ST,LONG BEACH,LOS ANGELES,CA,90810,33.839215,-118.234452,3317,,,,,,331210,,,,,,1305204083923,LEAD,007439921,YES,PBT,YES,1,YES,R,Pounds,0,0,1,0,0,0,0,0,0,0,0,0,1,19,0,19,0,0,0,0,0,0,0,0,0,0,0,0,0,0,0,0,3,3,0,0,0,0,0,0,0,0,0,0,0,0,0,0,0,0,23,0,0,2,0,22,0,0,0,0,0,0,24,0,.96,NA,NA
2005,91411VNNYS15359,CHEVRON VAN NUYS TERMINAL,15359 OXNARD ST,VAN NUYS,LOS ANGELES,CA,91411,34.179374,-118.468002,5171,,,,,,424710,,,,,,1305204090005,TOLUENE,000108883,YES,NON-PBT,NO,0,NO,R,Pounds,100,120,2,0,0,0,0,0,0,0,0,0,222,0,0,0,0,0,0,0,0,0,0,0,0,0,0,0,0,0,0,0,0,0,0,0,0,0,0,0,0,0,0,0,0,0,0,0,0,0,222,0,0,220,0,0,0,0,0,0,0,0,220,0,.95,CHEVRON CORP,001382555
2005,90813TXCRF2050E,TESORO LONG BEACH TERMINAL,820 CARRACK AVE,LONG BEACH,LOS ANGELES,CA,90813,33.774704,-118.219697,4491,,,,,,424690,,,,,,1305204027546,N-HEXANE,000110543,YES,NON-PBT,NO,0,NO,R,Pounds,72,62,0,0,0,0,0,0,0,0,0,0,134,0,0,0,0,0,0,0,0,0,0,0,0,0,0,0,0,0,0,0,0,0,0,0,0,0,0,0,0,0,0,0,0,0,0,0,0,0,134,0,0,135,0,0,0,0,0,0,436,0,571,0,1,TESORO CORP,008133480
2005,92647HNTNG17881,CHEVRON HUNTINGTON BEACH TERMI NAL,17881 GOTHARD ST,HUNTINGTON BEACH,ORANGE,CA,92647,33.703267,-117.999916,5171,,,,,,424710,,,,,,1305204123994,LEAD COMPOUNDS,N420,YES,PBT,YES,1,NO,R,Pounds,0,0,0,0,0,0,0,0,0,0,0,0,0,0,0,0,0,0,0,0,0,0,0,0,0,0,0,.1,0,0,0,0,0,.1,0,0,0,0,0,0,0,0,0,0,0,0,0,0,0,0,.1,0,0,0,.1,0,0,0,0,0,0,0,.1,0,1,CHEVRON CORP,001382555
2005,92676CTLNP5305S,CATALINIA PACIFIC CONCRETE CO ORANGE PLANT,5305 SANTIAGO CANYON RD,SILVERADO,ORANGE,CA,92676,33.810988,-117.796528,3273,,,,,,327320,,,,,,1305203599992,LEAD COMPOUNDS,N420,YES,PBT,YES,1,NO,R,Pounds,0,.001,0,0,0,0,0,0,0,0,0,0,.001,0,0,0,0,0,0,0,0,0,0,0,0,0,0,0,0,0,0,0,0,0,0,0,17.91,0,0,17.91,0,0,0,0,0,0,0,0,0,0,.001,0,0,.001,0,0,0,0,0,17.91,0,0,17.911,0,.95,CALIFORNIA PORTLAND CEMENT CO,621961929
2005,92407CHPRR2400W,CALPORTLAND CO SAN BERNARDINO PLANT,2400 W HIGHLAND AVE,SAN BERNARDINO,SAN BERNARDINO,CA,92407,34.136029,-117.350817,3273,,,,,,327320,,,,,,1305203606544,LEAD COMPOUNDS,N420,YES,PBT,YES,1,NO,R,Pounds,0,.001,0,0,0,0,0,0,0,0,0,0,.001,0,0,0,0,0,0,0,0,0,0,0,0,0,0,0,0,.58,0,0,0,.58,0,0,0,0,0,0,0,0,0,0,0,0,0,0,0,0,.581,0,0,.001,0,.58,0,0,0,0,0,0,.581,0,1.19,TAIHEIYO CEMENT USA INC,175418052
2005,90813PTRDM1920L,PETRODIAMOND TERMINAL CO,1920 LUGGER WAY,LONG BEACH,LOS ANGELES,CA,90813,33.776528,-118.219417,5171,,,,,,424710,,,,,,1305204050761,TOLUENE,000108883,YES,NON-PBT,NO,0,NO,A,Pounds,0,0,0,0,0,0,0,0,0,0,0,0,0,0,0,0,0,0,0,0,0,0,0,0,0,0,0,0,0,0,0,0,0,0,0,0,0,0,0,0,0,0,0,0,0,0,0,0,0,0,0,0,0,0,0,0,0,0,0,0,0,0,0,0,,NA,NA
2005,90748RCCQC1175C,BP WILMINGTON CALCINER,1175 CARRACK AVE,WILMINGTON,LOS ANGELES,CA,90748,33.77726,-118.22671,2999,,,,,,324199,,,,,,1305204050975,"BENZO(G,H,I)PERYLENE",000191242,YES,PBT,NO,0,YES,R,Pounds,0,0,0,0,0,0,0,0,0,0,0,0,0,0,0,0,0,0,0,0,0,0,0,0,0,0,0,0,0,0,0,0,0,0,0,0,0,0,0,0,0,0,0,0,0,0,0,0,0,0,0,0,0,0,0,0,0,0,0,0,0,0,0,0,1.2,BP PRODUCTS NA INC,039596507
2005,95376MRNCN10100,AMERON PIPE GROUP,10100 W LINNE RD,TRACY,SAN JOAQUIN,CA,95376,37.696006,-121.430492,3272,,,,,,327000,,,,,,1305204113157,NICKEL,007440020,YES,NON-PBT,YES,1,YES,R,Pounds,64,0,0,0,0,0,0,0,0,0,0,0,64,0,0,0,0,0,0,0,0,0,0,0,0,0,0,0,0,0,0,0,0,0,0,8541,0,0,0,8541,0,0,0,0,0,0,0,0,0,0,64,0,0,64,0,0,0,0,0,8541,0,0,8605,0,0,NA,NA
2005,93239CHMCL35251,CHEMICAL WASTE MANAGEMENT INC,35251 OLD SKYLINE RD,KETTLEMAN CITY,KINGS,CA,932390471,35.96864,-120.024597,4953,,,,,,562211,,,,,,1305204023790,CADMIUM,007440439,YES,NON-PBT,YES,1,YES,R,Pounds,0,1,0,0,0,13893,0,0,0,0,0,0,13894,0,0,0,0,0,0,0,0,0,0,0,0,0,0,0,0,0,21,0,0,21,0,4,0,0,0,4,0,0,0,0,0,0,0,0,0,0,13915,0,13893,1,0,21,0,0,0,4,0,0,13919,0,.6,WASTE MANAGEMENT INC,047577416
2005,93239CHMCL35251,CHEMICAL WASTE MANAGEMENT INC,35251 OLD SKYLINE RD,KETTLEMAN CITY,KINGS,CA,932390471,35.96864,-120.024597,4953,,,,,,562000,,,,,,1305204023889,LEAD COMPOUNDS,N420,YES,PBT,YES,1,NO,R,Pounds,98.5,.6,0,0,0,1357029.5,0,0,2.6,2.6,0,0,1357131.2,0,0,0,0,0,0,0,0,0,0,0,0,0,0,0,0,0,424406.7,0,0,424406.7,0,1.7,0,0,0,1.7,0,0,0,0,0,0,0,0,0,0,1781537.9,0,1357029.5,101.7,0,424540.8,0,0,0,1.7,0,0,1781673.7,1.3,.5,WASTE MANAGEMENT INC,047577416
2005,90509LLDSG2525W,HONEYWELL AEROSPACE,2525 W 190TH ST,TORRANCE,LOS ANGELES,CA,90504,33.85831,-118.320949,3724,,,,,,336412,,,,,,1305205103346,CHROMIUM COMPOUNDS(EXCEPT CHROMITE ORE MINED IN THE TRANSVAAL REGION),N090,YES,NON-PBT,YES,1,NO,R,Pounds,5,5,5,0,0,0,0,0,0,0,0,250,265,5,0,5,0,1255,0,0,0,0,0,0,0,0,0,0,0,250,0,0,0,1505,0,8200,0,0,0,8200,0,0,0,0,0,0,0,0,0,0,1775,0,0,40,0,1100,0,0,0,8000,0,0,9140,0,.99,HONEYWELL INTERNATIONAL INC,139691877
2005,90023ZLTNP3411E,SURFACE PROTECTION INDUSTRIES INC.,3411 E.15TH ST,LOS ANGELES,LOS ANGELES,CA,90023,34.015785,-118.20576,2851,,,,,,325510,,,,,,1305205104084,CERTAIN GLYCOL ETHERS,N230,YES,NON-PBT,NO,0,NO,A,Pounds,0,0,0,0,0,0,0,0,0,0,0,0,0,0,0,0,0,0,0,0,0,0,0,0,0,0,0,0,0,0,0,0,0,0,0,0,0,0,0,0,0,0,0,0,0,0,0,0,0,0,0,0,0,0,0,0,0,0,0,0,0,0,0,0,,NA,NA
2005,92621BRSTL630EL,BRISTOL INDUSTRIES,630 E LAMBERT RD,BREA,ORANGE,CA,92821,33.925097,-117.88675,3452,,,,,,332722,,,,,,1305204096832,CHROMIUM,007440473,YES,NON-PBT,YES,1,YES,R,Pounds,2,0,0,0,0,0,0,0,0,0,0,0,2,16,0,16,0,0,0,0,0,0,0,0,0,0,0,0,0,0,0,0,0,0,0,11678,0,0,0,11678,0,0,0,0,0,0,0,0,0,0,18,0,0,2,0,16,0,0,0,11678,0,0,11696,0,1.1,NA,NA
2005,94538SPRQT5079B,SPARQTRON CORP,5079 BRANDIN CT,FREMONT,ALAMEDA,CA,94538,37.502799,-121.965647,3672,,,,,,334412,,,,,,1305204097149,LEAD,007439921,YES,PBT,YES,1,YES,R,Pounds,5,0,0,0,0,0,0,0,0,0,0,0,5,0,0,0,0,0,0,0,0,0,0,0,0,0,0,0,0,0,0,2272,0,2272,0,0,0,0,0,0,0,0,0,0,0,0,0,0,0,0,2277,0,0,0,0,0,0,0,0,2272,0,0,2272,0,.82,NA,NA
2005,92806BSFST1440N,CYTEC ENGINEERED MATERIALS ANAHEIM,1440 N KRAEMER BLVD,ANAHEIM,ORANGE,CA,928061404,33.862016,-117.86126,2891,,,,,,325520,,,,,,1305204031417,PHENOL,000108952,YES,NON-PBT,NO,0,NO,R,Pounds,0,350,0,0,0,0,0,0,0,0,0,0,350,0,0,0,0,0,0,0,0,0,0,0,0,0,0,0,0,0,0,0,0,0,0,0,0,0,0,0,0,0,0,0,0,0,0,0,0,0,350,0,0,350,0,0,0,0,0,0,35400,0,35750,0,1.4,CYTEC INDUSTRIES INC,809984230
2005,92227NWMNT6502E,MESQUITE MINE,6502 E HWY 78,BRAWLEY,IMPERIAL,CA,92227,33.001686,-115.030205,1041,,,,,,212221,,,,,,1305204047056,CYANIDE COMPOUNDS,N106,YES,NON-PBT,NO,0,NO,R,Pounds,10000,0,0,0,0,0,0,0,0,0,0,0,10000,0,0,0,0,0,0,0,0,0,0,0,0,0,0,0,0,0,0,0,0,0,0,0,0,0,0,0,0,0,0,0,0,0,0,0,0,0,10000,0,0,10000,0,0,0,0,0,0,0,0,10000,0,1.2,NEWGOLD INC,604184908
2005,92806CLSSC2985E,CLASSIC PLATING INC,2985 E MIRALOMA AVE SUITE U,ANAHEIM,ORANGE,CA,92806,33.8569,-117.86446,3471,,,,,,332813,,,,,,1305204069696,COPPER,007440508,NO,NON-PBT,YES,1,NO,R,Pounds,5,5,0,0,0,0,0,0,0,0,0,0,10,250,0,250,0,0,0,0,0,0,0,0,0,0,0,0,0,0,0,0,0,0,0,750,0,0,0,750,0,0,0,0,0,0,0,0,0,0,260,0,0,0,0,0,0,0,0,0,85,0,85,0,,NA,NA
2005,91730PRCSN11155,PRECISION AEROSPACE CORP,11155 JERSEY BLVD SUITE A,RANCHO CUCAMONGA,SAN BERNARDINO,CA,917305148,34.094603,-117.559903,3728,3499,,,,,336413,,,,,,1305204069924,NITRIC ACID,007697372,NO,NON-PBT,NO,0,NO,A,Pounds,0,0,0,0,0,0,0,0,0,0,0,0,0,0,0,0,0,0,0,0,0,0,0,0,0,0,0,0,0,0,0,0,0,0,0,0,0,0,0,0,0,0,0,0,0,0,0,0,0,0,0,0,0,0,0,0,0,0,0,0,0,0,0,0,,NA,NA
2005,90023PCFCN3305E,AIR PRODUCTS & CHEMICALS INC,3305 E 26TH ST,LOS ANGELES,LOS ANGELES,CA,90058,34.013333,-118.212778,2899,,,,,,325199,,,,,,1305204106823,METHYL ISOBUTYL KETONE,000108101,YES,NON-PBT,NO,0,NO,R,Pounds,84,134,0,0,0,0,0,0,0,0,0,0,218,0,1669,1669,0,0,0,0,0,0,0,0,0,0,0,0,0,0,0,0,0,0,0,0,0,0,0,0,0,5475,5475,0,0,0,0,0,0,0,218,0,0,218,0,0,0,5475,0,0,0,1669,7362,0,1.2,AIR PRODUCTS & CHEMICALS INC,003001070
2005,93313CRNTN7301D,DREYER'S GRAND ICE CREAM INC,7301 DISTRICT BLVD,BAKERSFIELD,KERN,CA,93313,35.311389,-119.084722,2024,,,,,,311520,,,,,,1305204297093,METHANOL,000067561,YES,NON-PBT,NO,0,NO,R,Pounds,10624,0,0,0,0,0,0,0,0,0,0,0,10624,0,0,0,0,0,0,0,0,0,0,0,0,0,0,0,0,0,0,0,0,0,0,0,0,0,0,0,750,0,750,0,0,0,0,0,0,0,10624,0,0,10624,0,0,0,762,0,0,0,0,11386,0,1.67,DREYER'S GRAND ICE CREAM,133509237
2005,93033CTLYT1641F,CATALYTIC SOLUTIONS INC,1641 FISKE PL,OXNARD,VENTURA,CA,93033,34.18087,-119.163014,3714,,,,,,336399,,,,,,1305205105202,NITRATE COMPOUNDS,N511,NO,NON-PBT,NO,0,NO,R,Pounds,0,0,0,0,0,0,0,0,0,0,0,0,0,0,0,0,0,0,0,0,0,0,0,0,0,0,1554.11,1667.68,0,0,0,0,0,3221.79,0,0,179.32,0,0,179.32,0,0,0,0,0,0,629.13,29.89,0,659.02,3221.79,0,0,0,3221.79,0,0,0,0,179.32,0,629.13,4030.24,0,2.33,CLEAN DIESEL TECHNOLOGIES,939742318
2005,90810CSTMF1711H,CUSTOM FIBREGLASS MANUFACTURING CO,1711 HARBOR AVE,LONG BEACH,LOS ANGELES,CA,90813,33.788327,-118.210488,3792,,,,,,336214,,,,,,1305203639897,STYRENE,000100425,YES,NON-PBT,NO,0,YES,R,Pounds,8257,108250,0,0,0,0,0,0,0,0,0,0,116507,0,310,310,0,0,0,0,0,0,0,0,0,0,0,0,0,0,0,0,0,0,0,0,0,0,0,0,1140,0,1140,0,0,0,0,0,0,0,116507,0,0,116507,0,310,0,1140,0,0,0,0,117957,0,.96,NA,NA
2005,90040WTHRW5511D,CASTROL INDUSTRIAL NORTH AMERICA INC,5511 DISTRICT BLVD,VERNON,LOS ANGELES,CA,90058,33.990923,-118.17708,2992,,,,,,311225,,,,,,1305203643390,DIETHANOLAMINE,000111422,YES,NON-PBT,NO,0,NO,R,Pounds,0,0,0,0,0,0,0,0,0,0,0,0,0,0,0,0,0,0,0,0,0,0,0,0,0,0,0,0,0,0,0,0,0,0,0,0,0,1215,0,1215,0,0,0,0,0,0,0,0,250,250,0,0,0,0,0,0,0,0,0,300,0,1015,1315,0,1,BP PRODUCTS NORTH AMERICA INC,039596507
2005,92335WSTRN8395S,CALIFORNIA CASCADE IND,8395 SULTANA AVE,FONTANA,SAN BERNARDINO,CA,92335,34.10158,-117.468989,2491,,,,,,321114,,,,,,1305203598040,COPPER COMPOUNDS,N100,NO,NON-PBT,YES,1,NO,A,Pounds,0,0,0,0,0,0,0,0,0,0,0,0,0,0,0,0,0,0,0,0,0,0,0,0,0,0,0,0,0,0,0,0,0,0,0,0,0,0,0,0,0,0,0,0,0,0,0,0,0,0,0,0,0,0,0,0,0,0,0,0,0,0,0,0,,NA,NA
2005,93502CLFRN9350O,CALPORTLAND CO MOJAVE PLANT,9350 OAK CREEK RD,MOJAVE,KERN,CA,93501,35.03837,-118.2977,3241,,,,,,327310,,,,,,1305203598115,DIOXIN AND DIOXIN-LIKE COMPOUNDS,N150,YES,DIOXIN,NO,0,NO,R,Grams,0,.2871,0,0,0,0,0,0,0,0,0,0,.2871,0,0,0,0,0,0,0,0,0,0,0,0,0,0,0,0,0,0,0,0,0,0,0,0,0,0,0,0,0,0,0,0,0,0,0,0,0,.2871,0,0,.2871,0,0,0,0,0,0,0,0,.2871,0,.99,TAIHEIYO CEMENT USA INC,175418052
2005,91010PTRSN2350E,PETERSON SYSTEMS INTERNATIONAL,2350 E CENTRAL AVE,DUARTE,LOS ANGELES,CA,91010,34.13613,-117.953644,3089,,,,,,325211,,,,,,1305203608068,DIISOCYANATES,N120,YES,NON-PBT,NO,0,NO,R,Pounds,0,0,0,0,0,0,0,0,0,0,0,0,0,0,0,0,0,0,0,0,0,0,0,0,0,0,0,0,0,0,0,0,33,33,0,0,672,0,0,672,0,0,0,0,0,0,0,1700,0,1700,33,0,0,0,0,33,0,0,0,670,0,1700,2403,0,1.29,NA,NA
2005,90745BFGDR2104E,POLYONE CORP,2104 E 223RD ST,CARSON,LOS ANGELES,CA,90810,33.824282,-118.237629,3087,,,,,,325991,,,,,,1305203638162,BARIUM COMPOUNDS,N040,NO,NON-PBT,YES,3,NO,A,Pounds,0,0,0,0,0,0,0,0,0,0,0,0,0,0,0,0,0,0,0,0,0,0,0,0,0,0,0,0,0,0,0,0,0,0,0,0,0,0,0,0,0,0,0,0,0,0,0,0,0,0,0,0,0,0,0,0,0,0,0,0,0,0,0,0,,POLYONE CORP,NA
2005,92335CMXFN1322S,CEMEX FONTANA PLANT,13220 SANTA ANA AVE,FONTANA,SAN BERNARDINO,CA,92335,34.055368,-117.51866,3273,,,,,,327320,,,,,,1305203621634,LEAD COMPOUNDS,N420,YES,PBT,YES,1,NO,R,Pounds,.1,0,0,0,0,0,0,0,0,0,0,0,.1,0,0,0,0,0,0,0,0,0,0,0,0,0,0,0,0,0,0,0,0,0,0,0,0,0,0,0,0,0,0,0,0,0,0,0,0,0,.1,0,0,.1,0,0,0,0,0,0,0,0,.1,0,1.4,CEMEX INC,049084403
2005,90038HGHLN1001N,HIGHLAND PLATING,1001 N ORANGE DR,LOS ANGELES,LOS ANGELES,CA,90038,34.08889,-118.34163,3471,,,,,,332813,,,,,,1305203601568,NICKEL COMPOUNDS,N495,YES,NON-PBT,YES,1,NO,R,Pounds,.01,0,0,0,0,0,0,0,0,0,0,0,.01,5,0,5,0,0,0,0,0,0,0,0,0,0,0,0,0,0,0,0,0,0,0,750,0,0,0,750,0,0,0,0,0,0,0,0,0,0,5.01,0,0,.01,0,5,0,0,0,750,0,0,755.01,0,1.1,HIGHLAND PLATING CO,NA
2005,92083FRRLC1395A,FERRO ELECTRONIC MATERIAL SYSTEMS,1395 ASPEN WAY,VISTA,SAN DIEGO,CA,92081,33.136641,-117.244333,2819,,,,,,325998,,,,,,1305203604994,SILVER,007440224,NO,NON-PBT,YES,1,NO,R,Pounds,0,0,0,0,0,0,0,0,0,0,0,0,0,0,0,0,0,0,0,0,0,0,0,0,0,0,0,0,0,0,0,0,0,0,0,2800,0,0,0,2800,0,0,0,0,0,0,0,0,0,0,0,0,0,0,0,0,0,0,0,2800,0,0,2800,0,1.2,FERRO CORP,004161477
2005,94804RCPRD1306C,BP RICHMOND TERMINAL,1306 CANAL BLVD,RICHMOND,CONTRA COSTA,CA,948040000,37.912823,-122.368412,5171,,,,,,,,,,,,1305206158533,POLYCYCLIC AROMATIC COMPOUNDS,N590,YES,PBT,NO,0,YES,R,Pounds,0,0,0,0,0,0,0,0,0,0,0,0,0,0,0,0,0,0,0,0,0,0,0,0,0,0,0,0,0,0,0,0,0,0,0,0,5.2,0,0,5.2,0,0,0,0,0,0,0,0,0,0,0,0,0,0,0,0,0,0,5.2,5.1,0,0,10.3,0,1.01,BP PRODUCTS NA INC,039596507
2005,91605MRCHC13222,AMERICH CORP,13212 SATICOY ST,NORTH HOLLYWOOD,LOS ANGELES,CA,91605,34.20793,-118.42103,3088,,,,,,326191,,,,,,1305204105136,STYRENE,000100425,YES,NON-PBT,NO,0,YES,R,Pounds,0,4756.44,0,0,0,0,0,0,0,0,0,0,4756.44,0,0,0,0,0,0,0,0,0,0,0,0,0,0,0,0,0,0,0,0,0,0,0,0,0,0,0,0,0,0,0,0,0,0,0,0,0,4756.44,0,0,4756.44,0,0,0,0,0,0,0,0,4756.44,0,.89,AMERICH CORP,NA
2005,91730SPRCT11200,STEELSCAPE INC RANCHO,11200 ARROW RT,RANCHO CUCAMONGA,SAN BERNARDINO,CA,917300000,34.099171,-117.561099,3479,,,,,,332812,,,,,,1305204118119,COPPER COMPOUNDS,N100,NO,NON-PBT,YES,1,NO,R,Pounds,0,0,0,0,0,0,0,0,0,0,0,0,0,0,0,0,0,0,0,0,0,0,0,0,0,0,0,0,0,0,0,0,0,0,0,0,3379,0,0,3379,0,0,0,0,0,0,0,0,0,0,0,0,0,0,0,0,0,0,0,3379,0,0,3379,0,1.2,STEELSCAPE INC,NA
2005,91730SPRCT11200,STEELSCAPE INC RANCHO,11200 ARROW RT,RANCHO CUCAMONGA,SAN BERNARDINO,CA,917300000,34.099171,-117.561099,3479,,,,,,332812,,,,,,1305204118208,N-BUTYL ALCOHOL,000071363,NO,NON-PBT,NO,0,NO,R,Pounds,9,828,0,0,0,0,0,0,0,0,0,0,837,0,0,0,0,0,0,0,0,0,0,0,0,0,0,0,0,0,0,0,0,0,0,0,0,0,0,0,11214,0,11214,0,0,0,0,0,0,0,837,0,0,837,0,0,81925,11214,0,0,0,0,93976,0,1.12,STEELSCAPE INC,NA
2005,92029SKSNC1726W,SKS INC ESCONDIDO,1726 & 1730 W MISSION AVE,ESCONDIDO,SAN DIEGO,CA,92029,33.141821,-117.060749,5171,,,,,,424710,,,,,,1305203618640,BENZENE,000071432,YES,NON-PBT,NO,0,YES,A,Pounds,0,0,0,0,0,0,0,0,0,0,0,0,0,0,0,0,0,0,0,0,0,0,0,0,0,0,0,0,0,0,0,0,0,0,0,0,0,0,0,0,0,0,0,0,0,0,0,0,0,0,0,0,0,0,0,0,0,0,0,0,0,0,0,0,,NA,NA
2005,92029SKSNC1726W,SKS INC ESCONDIDO,1726 & 1730 W MISSION AVE,ESCONDIDO,SAN DIEGO,CA,92029,33.141821,-117.060749,5171,,,,,,424710,,,,,,1305203618703,ZINC COMPOUNDS,N982,NO,NON-PBT,YES,1,NO,A,Pounds,0,0,0,0,0,0,0,0,0,0,0,0,0,0,0,0,0,0,0,0,0,0,0,0,0,0,0,0,0,0,0,0,0,0,0,0,0,0,0,0,0,0,0,0,0,0,0,0,0,0,0,0,0,0,0,0,0,0,0,0,0,0,0,0,,NA,NA
2005,92301HWNFB1731M,CONTINENTAL FIBERGLASS INC,17031 MUSKRAT AVE,ADELANTO,SAN BERNARDINO,CA,92301,34.558402,-117.449446,,,,,,,325991,,,,,,1305205132160,STYRENE,000100425,YES,NON-PBT,NO,0,YES,R,Pounds,0,44824,0,0,0,0,0,0,0,0,0,0,44824,0,0,0,0,0,0,0,0,0,0,0,0,0,0,0,0,0,0,0,0,0,0,0,0,0,0,0,0,0,0,0,0,0,0,0,0,0,44824,0,0,44824,0,0,0,0,0,0,0,0,44824,0,.8,NA,NA
2005,95133CHVRN1020B,CHEVRON SAN JOSE TERMINAL,1020 BERRYESSA RD,SAN JOSE,SANTA CLARA,CA,95133,37.364619,-121.884946,5171,,,,,,,,,,,,1305206166098,NAPHTHALENE,000091203,YES,NON-PBT,NO,0,NO,R,Pounds,4,2,0,0,0,0,0,0,0,0,0,0,6,0,0,0,0,0,0,0,0,0,0,0,0,0,0,0,0,0,0,0,0,0,0,0,0,0,0,0,0,0,0,0,0,0,0,0,0,0,6,0,0,6,0,0,0,0,0,0,0,0,6,0,.96,CHEVRON CORP,001382555
2005,95376BNTTR22888,BANTA TERMINAL CHEVRON PRODUCTS CO,22888 S KASSON RD,TRACY,SAN JOAQUIN,CA,95304,37.751441,-121.348923,5171,,,,,,,,,,,,1305206166617,NAPHTHALENE,000091203,YES,NON-PBT,NO,0,NO,R,Pounds,4,1,0,0,0,0,0,0,0,0,0,0,5,0,0,0,0,0,0,0,0,0,0,0,0,0,1,0,0,0,0,0,0,1,0,0,0,0,0,0,2,0,2,0,0,0,0,0,0,0,6,0,0,5,1,0,0,2,0,0,0,0,8,0,.99,CHEVRON CORP,001382555
2005,95376WNSLL14700,OWENS-BROCKWAY GLASS CONTAINER INC PLANT #22,14700 W SCHULTE RD,TRACY,SAN JOAQUIN,CA,95376,37.721631,-121.49092,3221,,,,,,327213,,,,,,1305203592326,AMMONIA,007664417,NO,NON-PBT,NO,0,NO,R,Pounds,220,14319,0,0,0,0,0,0,0,0,0,0,14539,0,0,0,0,0,0,0,0,0,0,0,0,0,0,0,0,0,0,0,0,0,0,0,0,0,0,0,0,0,0,0,0,0,0,0,0,0,14539,0,0,14539,0,0,0,0,0,0,0,0,14539,0,1.11,OWENS-ILLINOIS INC,005034566
2005,95330FRSMP16777,J R SIMPLOT CO LATHROP,16777 HOWLAND RD,LATHROP,SAN JOAQUIN,CA,953300198,37.805832,-121.276115,2874,2873,,,,,,,,,,,1305207076668,MANGANESE COMPOUNDS,N450,YES,NON-PBT,YES,1,NO,R,Pounds,10,6,0,0,0,0,0,0,0,0,0,0,16,0,0,0,0,0,0,0,0,0,0,0,0,0,0,0,0,0,0,0,0,0,0,0,0,0,0,0,0,0,0,0,0,0,0,0,0,0,16,0,0,16,0,0,0,0,0,0,0,0,16,0,1,J R SIMPLOT CO,009073503
2005,92815SKSNC50155,SKS INC ANAHEIM,501 & 551 S OLIVE ST,ANAHEIM,ORANGE,CA,92805,33.83196,-117.90872,5171,,,,,,424710,,,,,,1305203605480,N-HEXANE,000110543,YES,NON-PBT,NO,0,NO,A,Pounds,0,0,0,0,0,0,0,0,0,0,0,0,0,0,0,0,0,0,0,0,0,0,0,0,0,0,0,0,0,0,0,0,0,0,0,0,0,0,0,0,0,0,0,0,0,0,0,0,0,0,0,0,0,0,0,0,0,0,0,0,0,0,0,0,,NA,NA
2005,90023BRGLC3150E,PACIFIC RESOURCE RECOVERY,3150 E PICO BLVD,LOS ANGELES,LOS ANGELES,CA,90023,34.018006,-118.211303,7389,,,,,,562112,,,,,,1305203630583,TOLUENE,000108883,YES,NON-PBT,NO,0,NO,R,Pounds,.3,3,0,0,0,0,0,0,0,0,0,0,3.3,0,0,0,0,0,0,0,0,0,0,0,0,0,0,0,0,0,0,0,0,0,0,0,0,0,0,0,0,0,0,0,0,0,0,0,0,0,3.3,0,0,3.3,0,0,0,0,0,0,0,0,3.3,0,0,BERG LACQUER CO,NA
2005,90701NTRNT13929,INTERNATIONAL COATINGS CO INC,13929 E 166TH ST,CERRITOS,LOS ANGELES,CA,90703,33.880625,-118.035631,3087,2891,2821,,,,325991,,,,,,1305203637576,LEAD,007439921,YES,PBT,YES,1,YES,R,Pounds,0,.15,0,0,0,0,0,0,0,0,0,0,.15,0,0,0,0,0,0,0,0,0,0,0,0,0,0,0,0,0,0,0,0,0,0,0,0,0,0,0,0,0,0,0,0,0,0,0,0,0,.15,0,0,.15,0,0,0,0,0,0,0,0,.15,0,.4,NA,NA
2005,90701NTRNT13929,INTERNATIONAL COATINGS CO INC,13929 E 166TH ST,CERRITOS,LOS ANGELES,CA,90703,33.880625,-118.035631,3087,2891,2821,,,,325991,,,,,,1305203637640,ETHYLBENZENE,000100414,YES,NON-PBT,NO,0,NO,R,Pounds,0,1,0,0,0,0,0,0,0,0,0,0,1,0,0,0,0,0,0,0,0,0,0,0,0,0,0,0,0,0,0,0,0,0,0,0,0,0,0,0,0,0,0,0,0,0,0,0,0,0,1,0,0,1,0,0,0,0,0,0,0,0,1,0,0,NA,NA
2005,94710PCFCS1333S,PACIFIC STEEL CASTING CO,1333 SECOND ST,BERKELEY,ALAMEDA,CA,94710,37.877899,-122.30559,3325,,,,,,,,,,,,1305206806515,NAPHTHALENE,000091203,YES,NON-PBT,NO,0,NO,R,Pounds,1949,5,0,0,0,0,0,0,0,0,0,0,1954,0,0,0,0,0,0,0,0,0,0,0,0,0,0,0,0,0,0,0,0,0,0,0,2,0,0,2,0,0,0,0,0,0,0,0,0,0,1954,0,0,1954,0,0,0,0,10,2,0,0,1966,0,1.6,PACIFIC STEEL CASTING CO,009129461
2005,92131PFLDS10054,KOCH MEMBRANE SYSTEMS,10054 OLD GROVE RD,SAN DIEGO,SAN DIEGO,CA,92131,32.898875,-117.111075,3089,,,,,,,,,,,,1305205856228,XYLENE (MIXED ISOMERS),001330207,YES,NON-PBT,NO,0,NO,R,Pounds,250,250,0,0,0,0,0,0,0,0,0,0,500,0,0,0,0,0,0,0,0,0,0,0,0,0,0,0,0,0,0,0,0,0,0,0,0,0,0,0,7757,0,7757,0,0,0,0,0,0,0,500,0,0,500,0,0,0,7757,0,0,16482,0,24739,0,1.2,KOCH CHEMICAL TECHNOLOGY CO LLC,103326216
2005,93291KWNRC7200D,KAWNEER CO INC,7200 DOE AVE,VISALIA,TULARE,CA,93291,36.346,-119.369387,3442,,,,,,332321,,,,,,1305203677517,METHYL ISOBUTYL KETONE,000108101,YES,NON-PBT,NO,0,NO,R,Pounds,1281,571,0,0,0,0,0,0,0,0,0,0,1852,0,0,0,0,0,0,0,0,0,0,0,0,0,0,0,0,0,0,0,0,0,0,0,0,0,0,0,0,2691,2691,0,0,0,0,0,0,0,1852,0,0,1839,0,0,0,2691,0,0,11413,0,15943,0,.92,ALCOA INC,001339472
2005,93010MMGNT30035,IMATION CORP CAMARILLO,350 LEWIS RD,CAMARILLO,VENTURA,CA,93012,34.204753,-119.03438,3695,,,,,,334613,,,,,,1305203611114,METHYL ISOBUTYL KETONE,000108101,YES,NON-PBT,NO,0,NO,R,Pounds,119,2,0,0,0,0,0,0,0,0,0,0,121,0,0,0,0,0,0,0,0,0,0,0,0,0,0,0,0,0,0,0,0,0,0,0,0,0,0,0,215320,0,215320,0,695,0,0,0,0,695,121,0,0,121,0,0,0,215320,0,0,0,695,216136,0,.91,IMATION CORP,933588691
2005,95203RCPRD2700W,BP STOCKTON TERMINAL,2700 W WASHINGTON,STOCKTON,SAN JOAQUIN,CA,95203,37.9444,-121.3321,5171,,,,,,424710,,,,,,1305203627892,ETHYLBENZENE,000100414,YES,NON-PBT,NO,0,NO,R,Pounds,21,4,0,0,0,0,0,0,0,0,0,0,25,0,0,0,0,0,0,0,0,0,0,0,0,0,0,0,0,0,0,0,0,0,0,0,0,0,0,0,396,0,396,0,0,0,0,0,0,0,25,0,0,25,0,0,0,0,0,0,395,0,420,396,1.02,BP AMERICA INC,039596507
2005,95203RCPRD2700W,BP STOCKTON TERMINAL,2700 W WASHINGTON,STOCKTON,SAN JOAQUIN,CA,95203,37.9444,-121.3321,5171,,,,,,424710,,,,,,1305203627942,NAPHTHALENE,000091203,YES,NON-PBT,NO,0,NO,R,Pounds,2,0,0,0,0,0,0,0,0,0,0,0,2,0,0,0,0,0,0,0,0,0,0,0,0,0,0,0,0,0,0,0,0,0,0,0,0,0,0,0,0,0,0,0,0,0,0,0,0,0,2,0,0,2,0,0,0,0,0,0,1,0,3,0,1.02,BP AMERICA INC,039596507
2005,90039GLYNN4578B,AG LAYNE INC,4578 BRAZIL ST,LOS ANGELES,LOS ANGELES,CA,90039,34.146828,-118.275065,5169,,,,,,424690,,,,,,1305203769524,ETHYLENE GLYCOL,000107211,YES,NON-PBT,NO,0,NO,A,Pounds,0,0,0,0,0,0,0,0,0,0,0,0,0,0,0,0,0,0,0,0,0,0,0,0,0,0,0,0,0,0,0,0,0,0,0,0,0,0,0,0,0,0,0,0,0,0,0,0,0,0,0,0,0,0,0,0,0,0,0,0,0,0,0,0,,NA,NA
2005,91355NVCP 25111,NOVACAP INC,25111 ANZA DR,VALENCIA,LOS ANGELES,CA,913553416,34.431719,-118.573625,3675,,,,,,334414,,,,,,1305203715331,BARIUM COMPOUNDS,N040,NO,NON-PBT,YES,3,NO,R,Pounds,0,0,0,0,0,0,0,0,0,0,0,0,0,0,0,0,0,0,0,0,0,0,0,0,0,0,9152,0,0,0,0,0,0,9152,0,0,0,0,0,0,0,0,0,0,0,0,0,0,0,0,9152,0,0,0,9152,0,0,0,0,0,0,0,9152,0,.91,DOVER CORP,003245271
2005,93275LSRCH10800,KRAFT FOODS GLOBAL INC,10800 AVE 184,TULARE,TULARE,CA,93274,36.123684,-119.328705,2022,,,,,,311513,,,,,,1305203733682,NITRIC ACID,007697372,NO,NON-PBT,NO,0,NO,R,Pounds,0,0,0,0,0,0,0,0,0,0,0,0,0,0,377204,377204,0,0,0,0,0,0,0,0,0,0,0,0,0,0,0,0,0,0,0,0,0,0,0,0,0,0,0,0,0,0,0,0,0,0,0,0,0,0,0,0,0,0,0,0,384902,548,385450,377204,1.08,KRAFT FOODS INC,191446921
2005,90040JRSYM3361S,JERSEYMAID MILK PRODUCTS VONS CO INC,3361 S BOXFORD AVE,COMMERCE,LOS ANGELES,CA,900403001,33.987606,-118.150611,2026,2051,,,,,311511,,,,,,1305203733872,NITRIC ACID,007697372,NO,NON-PBT,NO,0,NO,R,Pounds,0,0,0,0,0,0,0,0,0,0,0,0,0,0,0,0,0,0,0,0,0,0,0,0,0,0,0,0,0,0,0,0,0,0,0,0,0,0,0,0,0,0,0,0,0,0,0,0,0,0,0,0,0,0,0,0,0,0,0,0,38226,0,38226,0,1,SAFEWAY INC,009137209
2005,92408DNLRD1390S,VISTA-PRO AUTOMOTIVE LLC,1390 S TIPPECANOE AVE SUITE B,SAN BERNARDINO,SAN BERNARDINO,CA,92408,34.07584,-117.25975,3714,,,,,,336399,,,,,,1305203737147,LEAD,007439921,YES,PBT,YES,1,YES,R,Pounds,0,.1,0,0,0,0,0,0,0,0,0,0,.1,0,0,0,0,0,0,0,0,0,0,0,0,0,0,0,0,0,0,0,0,0,0,0,0,0,2846,2846,0,0,0,0,0,0,0,0,0,0,.1,0,0,.1,0,0,0,0,0,2846,0,0,2846.1,0,.87,VISTA-PRO AUTOMOTIVE LLC,831678649
2005,90670CLFRN11525,ITW CIP STAMPINGS,11525 S SHOEMAKER AVE,SANTA FE SPRINGS,LOS ANGELES,CA,906704612,33.926952,-118.055236,3465,,,,,,336370,,,,,,1305203727072,ZINC COMPOUNDS,N982,NO,NON-PBT,YES,1,NO,R,Pounds,0,0,7,0,0,0,0,0,0,0,0,0,7,17,0,17,0,0,0,0,0,0,0,0,0,0,0,22800,0,0,0,0,0,22800,0,0,0,0,0,0,0,0,0,0,0,0,0,0,0,0,22824,0,0,7,22800,0,0,0,0,0,0,0,22807,0,.79,ILLINOIS TOOL WORKS,005146428
2005,94565GNRLCNICHO,GENERAL CHEMICAL WEST BAY POINT WORKS,501 NICHOLS RD,PITTSBURG,CONTRA COSTA,CA,94565,38.047589,-121.9841,2819,,,,,,325188,,,,,,1305203734088,NITRIC ACID,007697372,NO,NON-PBT,NO,0,NO,R,Pounds,236,61,0,0,0,0,0,0,0,0,0,0,297,0,0,0,0,0,0,0,0,0,0,0,0,0,0,0,0,0,0,0,0,0,0,0,0,0,0,0,0,0,0,0,0,0,33254,0,0,33254,297,0,0,297,0,0,0,0,0,0,0,33254,33551,0,1.08,GENTEK INC,072064418
2005,90280LSNGL4545A,BRENNTAG PACIFIC INC,4545 ARDINE ST,SOUTH GATE,LOS ANGELES,CA,90280,33.957429,-118.188645,5169,,,,,,425120,,,,,,1305203722208,CERTAIN GLYCOL ETHERS,N230,YES,NON-PBT,NO,0,NO,A,Pounds,0,0,0,0,0,0,0,0,0,0,0,0,0,0,0,0,0,0,0,0,0,0,0,0,0,0,0,0,0,0,0,0,0,0,0,0,0,0,0,0,0,0,0,0,0,0,0,0,0,0,0,0,0,0,0,0,0,0,0,0,0,0,0,0,,BRENNTAG NA INC,092963644
2005,94303RMCNV2081B,ROMIC ENVIRONMENTAL TECHNOLOGI ES CORP,2081 BAY RD,EAST PALO ALTO,SAN MATEO,CA,943031316,37.476121,-122.129303,7389,,,,,,562211,,,,,,1305203725445,XYLENE (MIXED ISOMERS),001330207,YES,NON-PBT,NO,0,NO,R,Pounds,84.64,35.88,0,0,0,0,0,0,0,0,0,0,120.52,0,0,0,0,0,0,0,0,0,0,0,0,0,0,0,0,0,0,0,0,0,0,0,0,0,0,0,165666,0,165666,0,2413,0,0,0,0,2413,120.52,0,0,121,0,0,0,165666,236796,0,419,2413,405415,0,0,PARALLEL ENVIRONMENTAL SERVICES CORP,135727795
2005,92101SLRTR2200P,SOLAR TURBINES INC HARBOR DRIVE,2200 PACIFIC HWY MZ T-2,SAN DIEGO,SAN DIEGO,CA,92101,32.7269,-117.17267,3511,,,,,,333611,,,,,,1305203725561,CHROMIUM,007440473,YES,NON-PBT,YES,1,YES,R,Pounds,0,.05,.8,0,0,0,0,0,0,0,0,0,.85,1.3,0,1.3,0,0,0,0,0,0,0,0,0,0,0,0,0,0,146,0,0,146,0,97547,0,0,18,97565,0,0,0,0,0,0,0,0,0,0,148.15,0,0,.85,0,147.3,0,0,0,97565,0,0,97713.15,0,1.03,CATERPILLAR INC,005070479
2005,91744SMCNT475SW,SEMCO ENTERPRISES INC,475 S WILSON WAY,CITY OF INDUSTRY,LOS ANGELES,CA,91744,34.01641,-117.956565,3341,,,,,,331492,,,,,,1305203775299,COPPER,007440508,NO,NON-PBT,YES,1,NO,A,Pounds,0,0,0,0,0,0,0,0,0,0,0,0,0,0,0,0,0,0,0,0,0,0,0,0,0,0,0,0,0,0,0,0,0,0,0,0,0,0,0,0,0,0,0,0,0,0,0,0,0,0,0,0,0,0,0,0,0,0,0,0,0,0,0,0,,SEMCO INC,NA
2005,91744SMCNT475SW,SEMCO ENTERPRISES INC,475 S WILSON WAY,CITY OF INDUSTRY,LOS ANGELES,CA,91744,34.01641,-117.956565,3341,,,,,,331492,,,,,,1305203775313,ZINC (FUME OR DUST),007440666,NO,NON-PBT,YES,4,NO,R,Pounds,0,2853,0,0,0,0,0,0,0,0,0,0,2853,0,0,0,0,0,0,0,0,0,0,0,0,0,0,0,0,0,0,0,0,0,0,0,72152,0,0,72152,0,0,0,0,0,0,0,0,0,0,2853,0,0,2853,0,0,0,0,0,72152,0,0,75005,0,.84,SEMCO INC,NA
2005,93270SRRFR9000R,SIERRA FOREST PRODUCTS,9000 RD 234,TERRA BELLA,TULARE,CA,93270,35.953318,-119.049452,2421,4931,,,,,321113,,,,,,1305203773496,AMMONIA,007664417,NO,NON-PBT,NO,0,NO,R,Pounds,0,15000,0,0,0,0,0,0,0,0,0,0,15000,0,0,0,0,0,0,0,0,0,0,0,0,0,0,0,0,0,0,0,0,0,0,0,0,0,0,0,0,0,0,0,0,0,0,0,0,0,15000,0,0,15000,0,0,0,0,0,0,0,0,15000,0,,NA,NA
2005,93272SNKST11407,SUNKIST GROWERS INC.,11407 AVE 144,TIPTON,TULARE,CA,93272,36.050833,-119.314167,2037,,,,,,311411,,,,,,1305203784804,AMMONIA,007664417,NO,NON-PBT,NO,0,NO,A,Pounds,0,0,0,0,0,0,0,0,0,0,0,0,0,0,0,0,0,0,0,0,0,0,0,0,0,0,0,0,0,0,0,0,0,0,0,0,0,0,0,0,0,0,0,0,0,0,0,0,0,0,0,0,0,0,0,0,0,0,0,0,0,0,0,0,,SUNKIST GROWERS INC,008237018
2005,94608SHRWN1450S,SHERWIN-WILLIAMS CO.,1450 SHERWIN AVE,EMERYVILLE,ALAMEDA,CA,94608,37.831822,-122.288931,2851,,,,,,325510,,,,,,1305203688357,BARIUM COMPOUNDS,N040,NO,NON-PBT,YES,3,NO,R,Pounds,0,2,0,0,0,0,0,0,0,0,0,0,2,0,0,0,0,0,0,0,0,0,0,0,0,0,103,0,0,0,0,0,0,103,0,0,0,0,0,0,0,0,0,0,0,0,0,0,0,0,105,0,0,2,103,0,0,0,818,0,0,0,923,0,1.02,SHERWIN-WILLIAMS CO,004206397
2005,94560BYMRR6792C,ARCH MIRROR WEST,6792 CENTRAL AVE,NEWARK,ALAMEDA,CA,94560,37.526053,-122.027938,3231,,,,,,327215,,,,,,1305203631344,LEAD COMPOUNDS,N420,YES,PBT,YES,1,NO,R,Pounds,0,0,0,0,0,0,0,0,0,0,0,0,0,0,0,0,0,0,0,0,0,0,0,0,0,0,64,0,0,0,0,0,0,64,0,0,0,0,0,0,0,0,0,0,0,0,0,0,0,0,64,0,0,0,64,0,0,0,0,0,0,0,64,0,0,ARCH ALUMINUM & GLASS LLC,091463414
2005,92335GRFBR8250A,GREIF INDUSTRIAL PACKAGING & SERVICES LLC,8250 ALMERIA AVE,FONTANA,SAN BERNARDINO,CA,923353279,34.103805,-117.460259,3412,,,,,,332439,,,,,,1305203691769,CERTAIN GLYCOL ETHERS,N230,YES,NON-PBT,NO,0,NO,R,Pounds,2683,2439,0,0,0,0,0,0,0,0,0,0,5122,0,0,0,0,0,0,0,0,0,0,0,0,0,0,0,0,0,0,0,0,0,0,0,0,0,0,0,3447,1037,4484,0,0,0,0,0,0,0,5122,0,0,5122,0,0,0,4484,0,0,14614,0,24220,0,.88,GREIF INC,004282661
2005,94063RYCHM2555B,TYCO THERMAL CONTROLS,2555 BAY RD,REDWOOD CITY,SAN MATEO,CA,94063,37.484459,-122.208931,3357,,,,,,335000,,,,,,1305203712120,ANTIMONY COMPOUNDS,N010,YES,NON-PBT,YES,1,NO,R,Pounds,2.5,2.5,0,0,0,0,0,0,0,0,0,0,5,0,0,0,0,0,0,0,0,0,0,0,0,0,14000,250,0,0,0,0,0,14250,0,0,0,0,0,0,0,0,0,0,0,0,0,0,0,0,14255,0,0,2.5,250,0,0,0,0,0,0,0,252.5,0,1.1,TYCO INTERNATIONAL LTD,NA
2005,90250DTSNS12525,OSI OPTOELECTRONICS INC,12525 CHADRON AVE,HAWTHORNE,LOS ANGELES,CA,902504807,33.919078,-118.329539,3674,,,,,,334413,,,,,,1305203779549,LEAD COMPOUNDS,N420,YES,PBT,YES,1,NO,R,Pounds,0,1,0,0,0,0,0,0,0,0,0,0,1,0,0,0,0,0,0,0,0,0,0,0,0,0,0,0,0,0,0,0,0,0,0,776,0,0,0,776,0,0,0,0,0,0,0,0,0,0,1,0,0,1,0,0,0,0,0,776,0,0,777,0,0,OSI-SYSTEMS INC,178295812
2005,91761PMNDC1218E,POMONA DIE CASTING CORP,1218 E AIRPORT DR,ONTARIO,SAN BERNARDINO,CA,91761,34.06005,-117.62736,3363,3364,,,,,331521,,,,,,1305203790744,COPPER,007440508,NO,NON-PBT,YES,1,NO,R,Pounds,1029,0,0,0,0,0,0,0,0,0,0,0,1029,0,0,0,0,0,0,0,0,0,0,0,0,0,0,0,0,0,0,0,0,0,0,0,0,0,0,0,0,0,0,0,0,0,0,0,0,0,1029,0,0,1029,0,0,0,0,0,0,0,0,1029,0,.63,PRIME POMONA,NA
2005,94538NWNTD45500,NEW UNITED MOTOR MANUFACTURING INC,45500 FREMONT BLVD MAIL STOP 165,FREMONT,ALAMEDA,CA,94538,37.495568,-121.948177,3711,,,,,,336111,,,,,,1305203737693,METHANOL,000067561,YES,NON-PBT,NO,0,NO,R,Pounds,5,11103,0,0,0,0,0,0,0,0,0,0,11108,0,1200,1200,0,0,0,0,0,0,0,0,0,0,0,0,0,0,0,0,0,0,103595,0,0,0,0,103595,48865,0,48865,0,0,0,0,0,0,0,11108,0,0,11108,152460,0,0,48865,0,212,11103,1200,224948,0,1.12,NA,NA
2005,94538NWNTD45500,NEW UNITED MOTOR MANUFACTURING INC,45500 FREMONT BLVD MAIL STOP 165,FREMONT,ALAMEDA,CA,94538,37.495568,-121.948177,3711,,,,,,336111,,,,,,1305203737782,ZINC COMPOUNDS,N982,NO,NON-PBT,YES,1,NO,R,Pounds,0,250,0,0,0,0,0,0,0,0,0,0,250,250,0,250,0,0,0,0,0,0,0,0,0,0,0,0,0,0,0,0,0,0,0,0,6297,0,0,6297,0,0,0,0,0,0,0,0,0,0,500,0,0,217,0,0,0,0,0,6314,0,0,6531,0,0,NA,NA
2005,95640SPGRN19STA,ISP GRANULE PRODUCTS LLC,1900 STATE HWY 104,IONE,AMADOR,CA,95640,38.369722,-120.99972,3295,,,,,,327992,,,,,,1305203732779,CHROMIUM COMPOUNDS(EXCEPT CHROMITE ORE MINED IN THE TRANSVAAL REGION),N090,YES,NON-PBT,YES,1,NO,A,Pounds,0,0,0,0,0,0,0,0,0,0,0,0,0,0,0,0,0,0,0,0,0,0,0,0,0,0,0,0,0,0,0,0,0,0,0,0,0,0,0,0,0,0,0,0,0,0,0,0,0,0,0,0,0,0,0,0,0,0,0,0,0,0,0,0,,INTERNATIONAL SPECIALTY PRODUCTS INC,964378459
2005,91746LGHTM13329,LIGHT METALS INC,13329 ECTOR ST,CITY OF INDUSTRY,LOS ANGELES,CA,91746,34.057,-117.988,3341,,,,,,331314,,,,,,1305203717653,DIOXIN AND DIOXIN-LIKE COMPOUNDS,N150,YES,DIOXIN,NO,0,NO,R,Grams,0,.15,0,0,0,0,0,0,0,0,0,0,.15,0,0,0,0,0,0,0,0,0,0,0,0,0,59.7,0,0,0,0,0,0,59.7,0,0,0,0,0,0,0,0,0,0,0,0,0,0,0,0,59.85,0,0,.1504,59.73,0,0,0,0,0,19.8,0,79.6804,0,.88,CUSTOM ALLOY SALES INC,063832455
2005,91730WSTRN8875I,WESTERN METAL DECORATING CO,8875 INDUSTRIAL AVE,RANCHO CUCAMONGA,SAN BERNARDINO,CA,91730,34.092604,-117.596548,3444,,,,,,332439,,,,,,1305203721117,XYLENE (MIXED ISOMERS),001330207,YES,NON-PBT,NO,0,NO,R,Pounds,2000,1000,0,0,0,0,0,0,0,0,0,0,3000,0,0,0,0,0,0,0,0,0,0,0,0,0,0,0,0,0,0,0,0,0,0,0,0,0,0,0,3500,0,3500,0,0,0,0,0,0,0,3000,0,0,3000,0,0,0,3500,19000,0,29000,0,54500,0,.6,NA,NA
2005,93030PRCTR800NO,THE PROCTER & GAMBLE PAPER PRODUCT CO,800 N RICE AVE,OXNARD,VENTURA,CA,93030,34.209052,-119.14208,2621,,,,,,322291,,,,,,1305203731221,DIOXIN AND DIOXIN-LIKE COMPOUNDS,N150,YES,DIOXIN,NO,0,NO,R,Grams,0,0,0,0,0,0,0,0,0,0,0,0,0,0,.0001256,.0001256,0,0,0,0,0,0,0,0,0,0,0,0,0,0,0,0,0,0,0,0,0,0,0,0,0,0,0,0,0,0,0,0,0,0,0,0,0,0,0,.0001256,0,0,0,0,0,0,.0001256,0,2.01,THE PROCTER & GAMBLE CO,001316827
2005,90262CSTML2805L,CUSTOM ALLOY SALES INC,2605 LOS FLORES BLVD,LYNWOOD,LOS ANGELES,CA,90262,33.932763,-118.222353,3341,,,,,,331314,,,,,,1305203712652,COPPER,007440508,NO,NON-PBT,YES,1,NO,R,Pounds,0,.0189,.776,0,0,0,0,0,0,0,0,0,.7949,0,0,0,0,0,0,0,0,0,0,0,0,0,1.9,0,0,0,0,0,0,1.9,0,759.8,0,0,0,759.8,0,0,0,0,0,0,0,0,0,0,2.6949,0,0,.795,1.9,0,0,0,0,760,0,0,762.695,0,.91,NA,NA
2005,95050CSRFN705RE,ECS REFINING,705 REED ST,SANTA CLARA,SANTA CLARA,CA,950503942,37.359431,-121.944773,3341,5093,,,,,331492,,,,,,1305203772140,LEAD COMPOUNDS,N420,YES,PBT,YES,1,NO,R,Pounds,1,17,0,0,0,0,0,0,0,0,0,0,18,0,0,0,0,0,0,0,0,0,0,0,0,0,0,0,0,0,0,0,0,0,0,343460,0,0,0,343460,0,0,0,0,0,0,0,0,0,0,18,0,0,18,0,0,0,0,14000,340000,0,0,354018,0,7.93,ECS REFINING TEXAS LLC,NA
2005,90033BRCTN1021N,TMT-PATHWAY LLC,1021 N MISSION RD,LOS ANGELES,LOS ANGELES,CA,90033,34.059454,-118.215856,2851,,,,,,325510,,,,,,1305203737503,CERTAIN GLYCOL ETHERS,N230,YES,NON-PBT,NO,0,NO,R,Pounds,6188,0,0,0,0,0,0,0,0,0,0,0,6188,0,0,0,0,0,0,0,0,0,0,0,0,0,0,0,0,0,0,0,0,0,0,0,0,0,0,0,0,0,0,0,0,0,0,0,0,0,6188,0,0,6188,0,0,0,0,0,0,0,0,6188,0,.5,JACKSON PRODUCTS INC,119271674
2005,92113PRLNP2646M,SHERWIN-WILLIAMS CO,2646 MAIN ST,SAN DIEGO,SAN DIEGO,CA,921133697,32.692755,-117.137097,2851,,,,,,325510,,,,,,1305203690425,COPPER COMPOUNDS,N100,NO,NON-PBT,YES,1,NO,R,Pounds,0,10,0,0,0,0,0,0,0,0,0,0,10,0,0,0,0,0,0,0,0,0,0,0,0,0,248,0,0,0,0,0,1293,1541,0,0,0,0,0,0,0,0,0,0,0,0,0,0,0,0,1551,0,0,10,248,1293,0,0,1852,0,0,0,3403,0,1.04,SHERWIN-WILLIAMS CO,004206397
2005,92113PRLNP2646M,SHERWIN-WILLIAMS CO,2646 MAIN ST,SAN DIEGO,SAN DIEGO,CA,921133697,32.692755,-117.137097,2851,,,,,,325510,,,,,,1305203690464,XYLENE (MIXED ISOMERS),001330207,YES,NON-PBT,NO,0,NO,R,Pounds,2931,30,0,0,0,0,0,0,0,0,0,0,2961,0,0,0,0,0,0,0,0,0,0,0,0,0,0,0,0,0,0,0,0,0,0,0,0,0,0,0,154,0,154,0,0,0,0,518,0,518,2961,0,0,2961,0,0,0,154,47,0,0,518,3680,0,1.42,SHERWIN-WILLIAMS CO,004206397
2005,92703CHRMT2310W,CHROME TECH INC,2310  CAPE COD WAY,SANTA ANA,ORANGE,CA,92705,33.747623,-117.899866,3471,,,,,,332813,,,,,,1305203697228,NICKEL COMPOUNDS,N495,YES,NON-PBT,YES,1,NO,R,Pounds,0,5,1,0,0,0,0,0,0,0,0,0,6,250,0,250,0,0,0,0,0,0,0,0,0,0,1105,0,0,0,0,0,0,1105,0,17100,0,0,0,17100,0,0,0,0,0,0,0,0,0,0,1361,0,0,10,1100,11,0,0,0,17000,0,0,18121,0,1.05,NA,NA
2005,90801CRTFD3245C,CERTIFIED ALLOY PRODUCTS INC,3245 CHERRY AVE,LONG BEACH,LOS ANGELES,CA,90807,33.816069,-118.167634,3341,,,,,,331492,,,,,,1305203688799,NICKEL,007440020,YES,NON-PBT,YES,1,YES,R,Pounds,0,0,0,0,0,0,0,0,0,0,0,0,0,0,0,0,0,0,0,0,0,0,0,0,0,0,0,0,5,0,0,0,0,5,0,119319,0,0,0,119319,0,0,0,0,0,0,0,0,0,0,5,0,0,0,0,5,0,0,0,119319,0,0,119324,0,1.19,NA,NA
2005,90248SPCTR14422,SPECTRUM LABORATORY PRODUCTS I NC,14422 S SAN PEDRO ST,GARDENA,LOS ANGELES,CA,902482027,33.900033,-118.268565,2869,2899,2833,2819,,,424690,,,,,,1305203765262,NITRIC ACID,007697372,NO,NON-PBT,NO,0,NO,A,Pounds,0,0,0,0,0,0,0,0,0,0,0,0,0,0,0,0,0,0,0,0,0,0,0,0,0,0,0,0,0,0,0,0,0,0,0,0,0,0,0,0,0,0,0,0,0,0,0,0,0,0,0,0,0,0,0,0,0,0,0,0,0,0,0,0,,SPECTRUM LABORATORY PRODUCTS,NA
2005,90723RSPRC15712,R&S PROCESSING CO INC,15712 ILLINOIS AVE,PARAMOUNT,LOS ANGELES,CA,90723,33.890982,-118.165429,3069,,,,,,326299,,,,,,1305203772468,LEAD COMPOUNDS,N420,YES,PBT,YES,1,NO,R,Pounds,0,0,0,0,0,0,0,0,0,0,0,0,0,0,0,0,0,0,0,0,0,0,0,0,0,0,0,0,0,0,0,0,0,0,0,0,0,0,0,0,0,0,0,0,0,0,0,0,0,0,0,0,0,0,0,0,0,0,0,0,0,0,0,0,1,NA,NA
2005,90723RSPRC15712,R&S PROCESSING CO INC,15712 ILLINOIS AVE,PARAMOUNT,LOS ANGELES,CA,90723,33.890982,-118.165429,3069,,,,,,326299,,,,,,1305203772470,ZINC COMPOUNDS,N982,NO,NON-PBT,YES,1,NO,A,Pounds,0,0,0,0,0,0,0,0,0,0,0,0,0,0,0,0,0,0,0,0,0,0,0,0,0,0,0,0,0,0,0,0,0,0,0,0,0,0,0,0,0,0,0,0,0,0,0,0,0,0,0,0,0,0,0,0,0,0,0,0,0,0,0,0,,NA,NA
2005,92806RTSTC2821E,ARTISTIC PLATING & METAL FINISHING INC.,2821 E MIRALOMA AVE,ANAHEIM,ORANGE,CA,92806,33.855112,-117.871417,3471,,,,,,332813,,,,,,1305203638958,NITRIC ACID,007697372,NO,NON-PBT,NO,0,NO,R,Pounds,0,0,0,0,0,0,0,0,0,0,0,0,0,0,0,0,0,0,0,0,0,0,0,0,0,0,0,0,0,0,0,0,0,0,0,0,0,0,0,0,0,0,0,0,0,0,0,4800,0,4800,0,0,0,0,0,0,0,0,0,0,23200,4800,28000,0,.77,NA,NA
2005,94533NVRSL3530B,UNIVERSAL PROPULSION CO DBA AIRCRAFT INTERIOR PRODU,3530 BRANSCOMBE RD,FAIRFIELD,SOLANO,CA,945330659,38.210162,-121.944596,3728,3769,,,,,336413,,,,,,1305203687429,LEAD COMPOUNDS,N420,YES,PBT,YES,1,NO,R,Pounds,0,0,0,0,0,0,0,0,0,0,0,0,0,0,0,0,0,0,3.34,0,0,0,0,0,0,0,0,0,0,0,5634.73,0,0,5638.07,0,0,0,0,0,0,0,0,0,0,0,0,0,0,0,0,5638.07,0,0,0,0,5638,0,0,0,0,0,0,5638,0,1.19,GOODRICH CORP,004467452
2005,90745LDQKR21243,SHERWIN-WILLIAMS CO,12401 INDUSTRIAL BLVD,VICTORVILLE,SAN BERNARDINO,CA,92392,34.47662,-117.282965,2851,,,,,,325510,,,,,,1305203690742,ETHYLBENZENE,000100414,YES,NON-PBT,NO,0,NO,R,Pounds,81,126,0,0,0,0,0,0,0,0,0,0,207,0,0,0,0,0,0,0,0,0,0,0,0,0,0,0,0,0,0,0,0,0,0,0,0,0,0,0,1307,0,1307,0,0,0,0,113,0,113,207,0,0,207,0,0,0,1307,319,0,0,113,1946,0,.83,THE SHERWIN WILLIAMS CO,004206397
2005,95203PSDFP2526W,POSDEF POWER CO LP,2526 W WASHINGTON ST,STOCKTON,SAN JOAQUIN,CA,95203,37.943207,-121.329784,4931,4911,,,,,221112,,,,,,1305203741638,MANGANESE COMPOUNDS,N450,YES,NON-PBT,YES,1,NO,A,Pounds,0,0,0,0,0,0,0,0,0,0,0,0,0,0,0,0,0,0,0,0,0,0,0,0,0,0,0,0,0,0,0,0,0,0,0,0,0,0,0,0,0,0,0,0,0,0,0,0,0,0,0,0,0,0,0,0,0,0,0,0,0,0,0,0,,NEXTERA ENERGY RESOURCES,782659171
2005,95203PSDFP2526W,POSDEF POWER CO LP,2526 W WASHINGTON ST,STOCKTON,SAN JOAQUIN,CA,95203,37.943207,-121.329784,4931,4911,,,,,221112,,,,,,1305203741640,"HYDROCHLORIC ACID (1995 AND AFTER ""ACID AEROSOLS"" ONLY)",007647010,YES,NON-PBT,NO,0,NO,R,Pounds,0,197106,0,0,0,0,0,0,0,0,0,0,197106,0,0,0,0,0,0,0,0,0,0,0,0,0,0,0,0,0,0,0,0,0,0,0,0,0,0,0,0,0,0,0,0,0,0,0,0,0,197106,0,0,197106,0,0,0,0,0,0,0,0,197106,0,0,NEXTERA ENERGY RESOURCES,782659171
2005,90248SPCTR14422,SPECTRUM LABORATORY PRODUCTS I NC,14422 S SAN PEDRO ST,GARDENA,LOS ANGELES,CA,902482027,33.900033,-118.268565,2869,2899,2833,2819,,,424690,,,,,,1305203765300,COPPER COMPOUNDS,N100,NO,NON-PBT,YES,1,NO,A,Pounds,0,0,0,0,0,0,0,0,0,0,0,0,0,0,0,0,0,0,0,0,0,0,0,0,0,0,0,0,0,0,0,0,0,0,0,0,0,0,0,0,0,0,0,0,0,0,0,0,0,0,0,0,0,0,0,0,0,0,0,0,0,0,0,0,,SPECTRUM LABORATORY PRODUCTS,NA
2005,92370LPHRS19991,AOC LLC,19991 SEATON AVE,PERRIS,RIVERSIDE,CA,92570,33.830453,-117.261578,2821,,,,,,325211,,,,,,1305203787458,COBALT COMPOUNDS,N096,YES,NON-PBT,YES,1,YES,A,Pounds,0,0,0,0,0,0,0,0,0,0,0,0,0,0,0,0,0,0,0,0,0,0,0,0,0,0,0,0,0,0,0,0,0,0,0,0,0,0,0,0,0,0,0,0,0,0,0,0,0,0,0,0,0,0,0,0,0,0,0,0,0,0,0,0,,THE ALPHA CORP,007037765
2005,92368RVRSD19409,TXI RIVERSIDE CEMENT ORO GRANDE PLANT,19409 NATIONAL TRAILS HWY,ORO GRANDE,SAN BERNARDINO,CA,92368,34.603093,-117.339555,3241,,,,,,327310,,,,,,1305203694373,VANADIUM (EXCEPT WHEN CONTAINED IN AN ALLOY),007440622,NO,NON-PBT,YES,4,NO,R,Pounds,59,14,0,0,0,0,29271,0,0,0,0,0,29344,0,0,0,0,0,0,0,0,0,0,0,0,0,0,0,0,0,0,0,0,0,0,0,0,0,0,0,0,0,0,0,0,0,0,0,0,0,29344,0,29271,74,0,0,0,0,0,0,0,0,29345,0,1.03,TEXAS INDUSTRIES INC,NA
2005,95741RJTFNHWY5O,AMPAC FINE CHEMICALS LLC,HWY 50 & HAZEL RD,RANCHO CORDOVA,SACRAMENTO,CA,95670,38.60833,-121.2,2834,,,,,,325412,,,,,,1305203705963,SODIUM NITRITE,007632000,NO,NON-PBT,YES,2,NO,A,Pounds,0,0,0,0,0,0,0,0,0,0,0,0,0,0,0,0,0,0,0,0,0,0,0,0,0,0,0,0,0,0,0,0,0,0,0,0,0,0,0,0,0,0,0,0,0,0,0,0,0,0,0,0,0,0,0,0,0,0,0,0,0,0,0,0,,AMERICAN PACIFIC CORP,077585024
2005,95741RJTFNHWY5O,AMPAC FINE CHEMICALS LLC,HWY 50 & HAZEL RD,RANCHO CORDOVA,SACRAMENTO,CA,95670,38.60833,-121.2,2834,,,,,,325412,,,,,,1305203706039,TRIETHYLAMINE,000121448,YES,NON-PBT,NO,0,NO,R,Pounds,0,250,0,0,0,0,0,0,0,0,0,0,250,0,250,250,0,0,0,0,0,0,0,0,0,0,0,0,0,0,0,0,0,0,0,0,0,0,0,0,0,0,0,0,29085,30925,0,0,0,60010,250,0,0,98,0,0,0,0,0,0,19688,60010,79796,0,2.19,AMERICAN PACIFIC CORP,077585024
2005,93313CRNTN7301D,DREYER'S GRAND ICE CREAM INC,7301 DISTRICT BLVD,BAKERSFIELD,KERN,CA,93313,35.311389,-119.084722,2024,,,,,,311520,,,,,,1305203755273,NITRIC ACID,007697372,NO,NON-PBT,NO,0,NO,R,Pounds,0,0,0,0,0,0,0,0,0,0,0,0,0,0,0,0,0,0,0,0,0,0,0,0,0,0,0,0,0,0,0,0,0,0,0,0,0,0,0,0,0,0,0,0,0,0,0,5,0,5,0,0,0,0,0,0,0,0,0,0,14960,0,14960,0,.93,DREYER'S GRAND ICE CREAM,133509237
2005,91010DWTYR1700B,GE AVIATION SYSTEMS LLC - DUARTE,1700 BUSINESS CENTER DR,DUARTE,LOS ANGELES,CA,91010,34.134135,-117.967893,3728,,,,,,333995,,,,,,1305203706243,COPPER,007440508,NO,NON-PBT,YES,1,NO,R,Pounds,0,0,0,0,0,0,0,0,0,0,0,0,0,0,0,0,0,0,0,0,0,0,0,0,0,0,0,0,0,0,0,0,0,0,0,0,0,0,4892,4892,0,0,0,0,0,0,0,0,0,0,0,0,0,0,0,0,0,0,0,4892,0,0,4892,0,1,GENERAL ELECTRIC CO (GE CO),001367960
2005,90023RCDNC3225E,ARCADIA INC,3225 E WASHINGTON BLVD,VERNON,LOS ANGELES,CA,90058,34.014682,-118.209672,3479,3471,3442,,,,332812,,,,,,1305203726753,CERTAIN GLYCOL ETHERS,N230,YES,NON-PBT,NO,0,NO,R,Pounds,250,250,0,0,0,0,0,0,0,0,0,0,500,0,0,0,0,0,0,0,0,0,0,0,0,0,0,0,0,0,0,0,0,0,0,0,0,0,0,0,0,0,0,0,0,0,0,0,0,0,500,0,0,649,0,0,0,0,0,0,34456,0,35105,0,0,NA,NA
2005,90040SNCLR6100S,ICI PAINTS,6100 S GARFIELD AVE,LOS ANGELES,LOS ANGELES,CA,90040,33.978653,-118.143887,2851,,,,,,325510,,,,,,1305203738570,LEAD,007439921,YES,PBT,YES,1,YES,R,Pounds,0,0,0,0,0,0,0,0,0,0,0,0,0,0,0,0,0,0,1,0,0,0,0,0,0,0,0,0,0,0,0,0,0,1,0,0,0,0,0,0,0,0,0,0,0,0,0,0,0,0,1,0,0,0,0,1,0,0,17,0,0,0,18,0,1.09,THE GLIDDEN CO,151334422
2005,90248PSCRP17109,IPS CORP,17109 S MAIN ST,CARSON,LOS ANGELES,CA,902483127,33.87643,-118.275558,2891,,,,,,325520,,,,,,1305203728593,DICHLOROMETHANE,000075092,YES,NON-PBT,NO,0,YES,A,Pounds,0,0,0,0,0,0,0,0,0,0,0,0,0,0,0,0,0,0,0,0,0,0,0,0,0,0,0,0,0,0,0,0,0,0,0,0,0,0,0,0,0,0,0,0,0,0,0,0,0,0,0,0,0,0,0,0,0,0,0,0,0,0,0,0,,NA,NA
2005,95521LSNPCARLIN,HUMBOLDT FLAKEBOARD PANELS INC,4700 W END RD,ARCATA,HUMBOLDT,CA,95521,40.898692,-124.074896,2493,,,,,,321219,,,,,,1305203733454,LEAD,007439921,YES,PBT,YES,1,YES,R,Pounds,0,24.6,0,0,0,0,0,0,0,0,0,0,24.6,0,0,0,0,0,0,0,0,0,0,0,0,0,0,0,0,0,0,0,71.1,71.1,0,0,0,0,0,0,0,0,0,0,0,0,0,0,0,0,95.7,0,0,24.6,0,71.1,0,0,0,0,0,0,95.7,0,.96,HAMBRO FOREST PRODUCTS INC,009451014
2005,90058SFLTR5375S,SIEMENS WATER TECHNOLOGIES CORP,5375 S BOYLE AVE,VERNON,LOS ANGELES,CA,90058,33.994077,-118.21291,4953,,,,,,562211,,,,,,1305203733504,CYANIDE COMPOUNDS,N106,YES,NON-PBT,NO,0,NO,R,Pounds,0,0,0,0,0,0,0,0,0,0,0,0,0,0,22,22,0,0,0,0,0,0,0,0,0,0,0,112,0,0,16928,0,0,17040,0,0,0,0,0,0,0,0,0,0,0,0,0,0,0,0,17040,0,0,0,1,17062,0,0,0,0,0,0,17063,0,0,SIEMENS AG,187894373
2005,90064BRRYV2210B,BARRY AVENUE PLATING CO,2210 BARRY AVE,LOS ANGELES,LOS ANGELES,CA,90064,34.034656,-118.446745,3471,,,,,,332813,,,,,,1305203733643,NITRIC ACID,007697372,NO,NON-PBT,NO,0,NO,R,Pounds,0,0,0,0,0,0,0,0,0,0,0,0,0,0,0,0,0,0,0,0,0,0,0,0,0,0,0,0,0,0,0,0,0,0,0,0,0,0,0,0,0,0,0,0,0,0,0,0,0,0,0,0,0,0,0,0,0,0,0,0,0,0,0,0,.96,NA,NA
