REPORTING YEAR	TITLE OF CERTIFYING OFFICIAL	NAME OF CERTIFYING OFFICIAL	TRIFID	FACILITY NAME	FACILITY STREET	FACILITY CITY	FACILITY COUNTY	FACILITY STATE	FACILITY ZIP CODE	MAILING NAME	MAILING STREET	MAILING CITY	MAILING STATE	MAILING PROVINCE	MAILING ZIP CODE	ENTIRE FACILITY IND	PARTIAL FACILITY IND	FEDERAL FACILITY IND	GOCO FACILITY IND	PUBLIC CONTACT NAME	PUBLIC CONTACT PHONE	PRIMARY SIC CODE	SIC CODE 2	SIC CODE 3	SIC CODE 4	SIC CODE 5	SIC CODE 6	NAICS ORIGIN	PRIMARY NAICS CODE	NAICS CODE 2	NAICS CODE 3	NAICS CODE 4	NAICS CODE 5	NAICS CODE 6	LATITUDE	LONGITUDE	DB NR A	DB NR B	RCRA NR A	RCRA NR B	NPDES NR A	NPDES NR B	UIC NR A	UIC NR B	PARENT COMPANY NAME	PARENT COMPANY DB NR	ASSIGNED FED. FACILITY FLAG	PUBLIC CONTACT EMAIL	
2007	SITE MANAGER	JIM FINCHER	35602MCMPNSTATE	3M CO - DECATUR	1400 STATE DOCKS RD	DECATUR	MORGAN	AL	356092206	3M CO - DECATUR	1400 STATE DOCKS RD	DECATUR	AL		35609-2206	YES	NO	NO	NO	TODD HOGUE	2565526126	2821	2843	2899	3081				325211	326113	325998	325613			34.639583	-87.038306	848119926	964006597							3M CO	006173082	NO	TIHOGUE1@MMM.COM	
2007	PLANT MANAGER	ROD NORTHAM	35563M    HIGHW	3M CO - GUIN	6675 US HWY 43	GUIN	MARION	AL	35563	3M CO - GUIN	6675 US HWY 43	GUIN	AL		35563	YES	NO	NO	NO	ROD NORTHAM	2054683315	3081	3069	3229					326113	327212	326299				33.965833	-87.898611	004019691								3M CO	006173082	NO	NA	
1990	PERSONNEL MANAGER	JACK D. BLANKENSHIP	35234BFNDR2631H	A & B FOUNDRY INC	2631 SHUTTLESWORTH DR	BIRMINGHAM	JEFFERSON	AL	35234	A & B FOUNDRY INC	2631 SHUTTLESWORTH DR	BIRMINGHAM	AL		35234	YES	NO	NO		JACK BLANKENSHIP	2052527800	3321							331511						33.548427	-86.808025	087642682		ALD003398377		AL0003409						NO		
1990	PRESIDENT	FRANK W. CARROLL	36860BCRRLHWY51	A B CARROLL LUMBER CO INC	HWY 51 S	HURTSBORO	RUSSELL	AL	36860	A B CARROLL LUMBER CO INC	PO BOX 237	HURTSBORO	AL		36860	YES	NO	NO		FRANK W CARROLL	2056677617	2491							321114						32.24	-85.435	003326626		ALD982166498								NO		
1988	WORKS MANAGER	RAUL L. BAGUER	35020PGRNN2800A	A P GREEN INDUSTRIES INC BESSEMER PLANT	2800 ALABAMA AVE	BESSEMER	JEFFERSON	AL	35020	A P GREEN INDUSTRIES INC BESSEMER PLANT	2800 ALABAMA AVE	BESSEMER	AL		35020	YES	NO	NO		RON L BRAMBLETT	3144733204	3255	3297						327124						33.4125	-86.941667	120890124										NO		
2007	VP & C.O.O.	STEVE WERNER	35805NTDTC140SP	AAR SUMMA TECHNOLOGY	140 SPARKMAN DR	HUNTSVILLE	MADISON	AL	35805	AAR SUMMA TECHNOLOGY	140 SPARKMAN DR	HUNTSVILLE	AL		35805	YES	NO	NO	NO	STEVE WERNER	2568307005	3761	3499	3728					336413						34.717217	-86.644168	161388335										NO	WERNERS@SUMMA.COM	
2007	GENERAL MANAGER	MIKE QUICK	35055SMMTC24067	AAR SUMMA TECHNOLOGY	2406 7TH AVE SW	CULLMAN	CULLMAN	AL	35055	AAR SUMMA TECHNOLOGY	2406 7TH AVE SW	CULLMAN	AL		35055	YES	NO	NO	NO	MIKE QUICK	2567368804	3441	3449	3715	3799				332312						34.133038	-86.851801	161388335										NO	QUICKM@SUMMA.COM	
2007	SAWMILL MANAGER	WAYNE NYBERG	35072BWTRF495WO	ABITIBIBOWATER FOREST PRODUCTS DIV GOODWATER SAWMILL	495 WOODLANDS RD	GOODWATER	COOSA	AL	35072	ABITIBIBOWATER FOREST PRODUCTS DIV GOODWATER SAWMILL	495 WOODLANDS RD	GOODWATER	AL		35072	YES	NO	NO	NO	WAYNE NYBERG	2568396368	2421							321113						33.044167	-86.044167	001946011								ABITIBIBOWATER INC	001946011	NO	WAYNE.NYBERG@ABITIBIBOWATER.COM	
2007	MANAGER, MANUFACTURING SERVICES	M. ANDY EASLEY	35044SPLPNALABA	ABITIBIBOWATER INC COOSA PINES OPERATIONS	17589 PLANT RD	COOSA PINES	TALLADEGA	AL	350440555	ABITIBIBOWATER INC COOSA PINES OPERATIONS	17589 PLANT RD	COOSA PINES	AL		35044-0555	YES	NO	NO	NO	DANIEL DIEHL	2563782658	2611	2621						322122	322110					33.321722	-86.359306	098355360								ABITIBIBOWATER INC	001946011	NO	DANIEL.DIEHL@ABITIBIBOWATER.COM	
1993	SECRETARY-TREASURER	GEORGE A. SMITH	35811CNC  1085J	AC INC	1085 JORDAN RD	HUNTSVILLE	MADISON	AL	35811	AC INC	1085 JORDAN RD	HUNTSVILLE	AL		35811	YES	NO	NO		DWAYNE GRIFFIN	2058596390	3089	3444	3449	3489	3769			332313						34.784759	-86.514556	063685903		ALD982108748								NO		
2003	DIRECTOR - ENVIRONMENTAL SERVICES	DAVID J. HOLMBERG	35094CMSTLPOBOX	ACME PACKAGING  LEEDS FACILITY	1230 PKWY DR	LEEDS	JEFFERSON	AL	350941230	ACME PACKAGING	8201 W 183RD ST - I	TINLEY PARK	IL		60477-9248	YES	NO	NO	NO	DAVID J. HOLMBERG	7087689118	3499	3398	3479					332999						33.545054	-86.57236	140201984		ALD982097669		AL0070831				ILLINOIS TOOL WORKS	005146428	NO		
2001	VICE PRESIDENT, OPERATIONS	DAVID CHRISTIAN	36505CRTLDUSHIG	ACORDIS CELLULOSIC FIBERS INC.	U.S. HWY. 43 N.	AXIS	MOBILE	AL	36505	ACORDIS CELLULOSIC FIBERS INC.	P.O. BOX 141	AXIS	AL		36505-0141	YES	NO	NO	NO	JOHN M. STEWART	2516792356	2823	2819						325221						30.958889	-88.021111	008150617		ALD008150617		AL0003026				ACORDIS U.S. HOLDING INC.		NO		
2001	SENIOR VICE PRESIDENT OF OPERATIONS	PETER VOETSCH	35806DTRNN901EX	ADTRAN INC	901 EXPLORER BLVD	HUNTSVILLE	MADISON	AL	35806	ADTRAN INC	901 EXPLORER BLVD	HUNTSVILLE	AL		35806	YES	NO	NO	NO	BRAD W DUNKERLEY SR	2569638746	3661							334210						34.732426	-86.680062	147871412		ALD983191040								NO		
2007	GENERAL MANAGER	JOHN SZMAJDA	35125MLLCS1115D	AFCO ARCHITECTURAL PRODUCTS	1115 DOWZER AVE	PELL CITY	ST CLAIR	AL	35125	AFCO ARCHITECTURAL PRODUCTS	1115 DOWZER AVE	PELL CITY	AL		35125	YES	NO	NO	NO	JOHN SZMAJDA	2053382610	3089							326199						33.604208	-86.262769	062119721										NO	JSZMAJDA@AFCO-IND.COM	
2007	PLANT MANAGER	JEFF FULLER	35007GCTMT11TTA	AGC AUTOMOTIVE ALABAMA INC.	101 TOTAL SOLUTIONS WAY	ALABASTER	SHELBY	AL	35007	AGC AUTOMOTIVE ALABAMA INC.	101 TOTAL SOLUTIONS WAY	ALABASTER	AL		35007	YES	NO	NO	NO	DALE CROWE	2056851000	3714							327215						33.183889	-86.784722	034124359								AGC AUTOMOTIVE AMERICAS A DIV OF AFG NA	165270401	NO	DCROWE@US.AGC-AUTOMOTIVE.COM	
2007	VICE PRESIDENT	ARNOLD CLEGHORN	35150PRSLL66THI	AGRIUM ADVANCED TECHNOLOGIES INC	660 THIRD AVE	SYLACAUGA	TALLADEGA	AL	35150	AGRIUM ADVANCED TECHNOLOGIES INC	PO BOX 1187	SYLACAUGA	AL		35150	YES	NO	NO	NO	ALLEN SANDERS	2562496888	2875							325314						33.172294	-86.274749											NO	ASANDERS@AGRIUMAT.COM	
2007	VICE PRESIDENT	ARNOLD CLEGHORN	35150PRSLL1413W	AGRIUM ADVANCED TECHNOLOGIES INC	1413 W EDWARDS ST	SYLACAUGA	TALLADEGA	AL	35150	AGRIUM ADVANCED TECHNOLOGIES INC	1413 W EDWARDS ST	SYLACAUGA	AL		35150	YES	NO	NO	NO	ALLEN SANDERS	2562497407	2875							325314						33.170611	-86.2695											NO	ASANDERS@AGRIUMAT.COM	
2007	SUPERINTENDENT	DAVID COOK	35631MCFRTCORNE	AGRIUM US INC	1 COMMERCE ST	FLORENCE	LAUDERDALE	AL	35631	AGRIUM US INC	PO BOX 158	FLORENCE	AL		35631	YES	NO	NO	NO	DAVID W. COOK	2567647821	2875							325314						34.805748	-87.656305	808957229								AGRIUM INC	808957229	NO	DCOOK@AGRIUM.COM	
1997	PLT. MGR.	DENNIS H. STARK	35064BGTHRUSSTE	AIR LIQUIDE AMERICA CORP.	NEAR GATE 5 AT U.S. STEEL	FAIRFIELD	JEFFERSON	AL	35064	AIR LIQUIDE AMERICA CORP.	P.O. BOX 112	FAIRFIELD	AL		35064	YES	NO	NO		ART SLAUGHTER	7138680540	2813							325120						33.4744	-86.9193			ALD983169509						AIR LIQUIDE AMERICA CORP.	606067130	NO		
1993	PRODUCTION MANAGER	M. A. MCGRATH	35602RPRDCIPSCO	AIR PRODUCTS & CHEMICALS INC.	IPSCO ST. N.W.	DECATUR	MORGAN	AL	35601	AIR PRODS. & CHEMICALS INC.	RTE. 1 BOX 59A	DECATUR	AL		35601	YES	NO	NO		R. M. WATKINS	2053536310	2813							325120						34.608222	-87.036944	050985332		ALD050985332		AL0065323				AIR PRODUCTS & CHEMICALS INC	003001070	NO		
1997	MANAGER, GEG EH&S	J. L. HENNINGER	36523RPRDC5300A	AIR PRODUCTS & CHEMICALS INC. CODEN FACILITY	5300-A HWY. 188	CODEN	MOBILE	AL	36523	AIR PRODUCTS & CHEMICALS INC. CODEN FACILITY	5300-A HWY. 188	CODEN	AL		36523	YES	NO	NO				2813							325120						30.386111	-88.164444	008902210		ALTMP0001892		AL0070513				AIR PRODUCTS & CHEMICALS INC	003001070	NO		
1993	LEAD MGR.	PAUL HANCOCK	35021RCNC 26101	AIRCO INDUSTRIAL GASES	2610 18TH AVE. N.	BESSEMER	JEFFERSON	AL	35020	AIRCO INDUSTRIAL GASES	2610 18TH AVE. N.	BESSEMER	AL		35020	YES	NO	NO		PAUL HANCOCK	2054289111	2813							325120						33.419944	-86.965126	030238547		ALD983174103		AL0026841				BOC GROUP INC	173939828	NO		
2007	SAFETY DIRECTOR	MICHAEL K. DAVIS	36582RGSSP5480H	AIRGAS GULF STATES	5480 HAMILTON BLVD	THEODORE	MOBILE	AL	36582	AIRGAS GULF STATES	P.O BOX 190969	MOBILE	AL		36619	YES	NO	NO	NO	DAVID DUPUY	5042201166	5169	2813						424690						30.554751	-88.170904	106907900										NO	DAVE.DUPUY@AIRGAS.COM	
2007	PRESIDENT	TOM ILLENCIK	35957JXTCC156IN	AJAX TOCCO MAGNETHERMIC CORP.	1506 INDUSTRIAL BLVD	BOAZ	MARSHALL	AL	35957	AJAX TOCCO MAGNETHERMIC CORP.	1506 INDUSTRIAL BLVD	BOAZ	AL		35957	YES	NO	NO	NO	DOUG BOWSER	2565937770								333994						34.231319	-86.184565	004168001								PARK OHIO INDUSTRIES	041067752	NO	DBOWSER@AJAXTOCCO.COM	
2007	PLANT MANAGER	DAVID JACKSON	35234HNNCH1629V	AKZO NOBEL COATINGS INC.	1629 VANDERBILT RD	BIRMINGHAM	JEFFERSON	AL	35234	AKZO NOBEL COATINGS INC.	1629 VANDERBILT RD	BIRMINGHAM	AL		35234	YES	NO	NO	NO	DAVID JACKSON	2055815959	2851							325510						33.543301	-86.791943	004288890								AKZO NOBEL INC.	062999347	NO	NA	
2007	SITE MANAGER	JOHN NARON	36505KZCHMUSHIG	AKZO NOBEL FUNCTIONAL CHEMICAL S LLC	13440 HWY 43 N	AXIS	MOBILE	AL	36505	AKZO NOBEL FUNCTIONAL CHEMICAL S LLC	13440 HWY 43 N	AXIS	AL		36505	YES	NO	NO	NO	JOHN NARON	2516751310	2819	2869						325188						30.96943	-88.0175	134497259								AKZO NOBEL FUNCTIONAL CHEMICALS LLC	062999347	NO	JOHN.NARON@AKZONOBEL-CHEMCICALS.COM	
2007	OWNER	W.C. BRINSON III	36862LBMGRHGHY4	ALA-GA WOOD PRESERVING CO	15206 US HWY 431	LAFAYETTE	CHAMBERS	AL	36862	ALA-GA WOOD PRESERVING CO	PO DRAWER 9	LAFAYETTE	AL		36862	NO	NO	NO	NO	W.C. BRINSON III	3348649303	2491							321114						32.879361	-85.405	003276854										NO	ALGAWOOD@BELLSOUTH.NET	
2007	PRESIDENT, ALABAMA BULK TERMINAL COMPANY, LLC	JOE M. GIGLOTTO	36633LBMBLHWY90	ALABAMA BULK TERMINAL CO LLC	HWY 90/98 BLAKELY ISLAND	MOBILE	MOBILE	AL	36633	ALABAMA BULK TERMINAL CO LLC	PO BOX 2784	MOBILE	AL		366522784	YES	NO	NO	NO	DREW ALTEMARA	2053913503	5171							424710						30.696861	-88.031944	622481281								HUNT CRUDE OIL SUPPLY CO A CORP	175261817	NO	DALTEMARA@HUNTREFINING.COM	
2002	PLANT MANAGER	DAVID E. DREWRY	35442LCVLL1BAPT	ALABAMA CASTING CO	1185 INDUSTRIAL DR	ALICEVILLE	PICKENS	AL	35442	ALABAMA CASTING CO	PO BOX 465	ALICEVILLE	AL		35442	YES	NO	NO	NO	DAVID E DREWRY	2053738731	3321							331511						33.118456	-88.171033	019381503										NO		
2007	JOHN AVERETT, CHIEF FINANCIAL OFFICER	ALABAMA COAL RECOVERY, LLC	35118LBMCL8260B	ALABAMA COAL RECOVERY LLC / BIRMINGPORT PLANT	8260 BIRMINGPORT RD	MULGA	JEFFERSON	AL	35118	ALABAMA COAL RECOVERY LLC	4599 E LAKE BLVD	BIRMINGHAM	AL		35217	YES	NO	NO	NO	JOHN AVERETT	2057987766	2999							324199						33.578402	-87.113744	052918062										NO	JAVERETT@HOTMAIL.COM	
2002	T. BARR LINTON / GENERAL COUNSEL	ALABAMA COAL RECOVERY, LLC/OPERATING MGR BY	35186LBMCL31972	ALABAMA COAL RECOVERY LLC WILSONVILLE PLANT	31972 HWY 25	WILSONVILLE	SHELBY	AL	35186	ALABAMA COAL RECOVERY LLC	1329 FORESTDALE BLVD SUITE 303	BIRMINGHAM	AL		35214	YES	NO	NO	NO	T BARR LINTON	2057987766	2999							324199						31.245222	-86.462639	052918062										NO		
2007	PRESIDENT	JOHNNY AYCOCK, JR.	35215LBMCP1501R	ALABAMA COPPER & BRONZE CO INC.	1501 RED HOLLOW RD	BIRMINGHAM	JEFFERSON	AL	35215	ALABAMA COPPER & BRONZE CO INC.	1501 RED HOLLOW RD	BIRMINGHAM	AL		35215	YES	NO	NO	NO	ROBERT AYCOCK	2058563737	3366							331525						33.652472	-86.724923											NO	ALABAMACOPPER@BELLSOUTH.NET	
1999	CO-OWNER	LARRY COFIELD	35950LBMCS900ST	ALABAMA CUSTOM WOODWORK INC	900 STRICKLAND ST	ALBERTVILLE	MARSHALL	AL	35950	ALABAMA CUSTOM WOODWORK INC	PO BOX 1354	ALBERTVILLE	AL		35950	YES	NO	NO		LARRY COFIELD	2568912019	2511							337122						34.254909	-86.225921			ALD983174517		ALG060201						NO		
2007	PRESIDENT	J. DOUGLAS WINKLEBLACK	36027LBMNT210IN	ALABAMA INTER-FOREST CORP	210 INDUSTRIAL PARK RD	EUFAULA	BARBOUR	AL	36027	ALABAMA INTER-FOREST CORP	PO BOX 100	EUFAULA	AZ		36072-0100	YES	NO	NO	NO	DOUG WINKLEBLACK	3346878009	2599							321999						31.853567	-85.145838	049150030								PANEL PROCESSING INC.	054777891	NO	DWINKLEBLACK@PANEL.COM	
2007	GENERAL MANAGER	TODD ANDERSON	35208LBMMT3245F	ALABAMA METAL INDUSTRIES CORP	3245 FAYETTE AVE	BIRMINGHAM	JEFFERSON	AL	35208	ALABAMA METAL INDUSTRIES CORP	3245 FAYETTE AVE	BIRMINGHAM	AL		35208	YES	NO	NO	NO	KURT MARTIN	2057872611	3449							332323						33.49775	-86.866865	004003489										NO	KMARTIN@GIBRALTAR1.COM	
1994	PRESIDENT	JAMES MARVIN ROWE, JR.	35178LBMPLPODRA	ALABAMA PLATING CO INC	HWY 231 N	VINCENT	SHELBY	AL	35178	ALABAMA PLATING CO INC	PO DRAWER D	VINCENT	AL		35178	YES	NO	NO		JAMES MARVIN ROWE JR	2056722232	3471							332813						33.39972	-86.405	004022448		ALD004002448		ALG120278						NO		
2007	VICE-PRESIDENT, ENVIRONMENTAL AFFAIRS	WILLARD L. BOWERS	35130LBMPW4250P	ALABAMA POWER CO  MILLER STEAM PLANT	4250 PORTER RD	QUINTON	JEFFERSON	AL	35130	ALABAMA POWER CO  MILLER STEAM PLANT	4250 PORTER RD	QUINTON	AL		35130	YES	NO	NO	NO	CARRIE KURLANDER	2052574146	4911							221112						33.645632	-87.057069	006900120								SOUTHERN CO	006925341	NO	CKARLAND@SOUTHERNCO.COM	
2007	VICE-PRESIDENT, ENVIRONMENTAL AFFAIRS	WILLARD L. BOWERS	36732LBMPWHWY43	ALABAMA POWER CO GREENE COUNTY STEAM PLANT	HWY 43 & COUNTY RD 18	FORKLAND	GREENE	AL	36740	ALABAMA POWER CO GREENE COUNTY STEAM PLANT	PO BOX 440	DEMOPOLIS	AL		36732	YES	NO	NO	NO	CARRIE KURLANDER	2052574146	4911							221112						32.6045	-87.791917	006900120								SOUTHERN CO	006925341	NO	CKURLAND@SOUTHERNCO.COM	
2007	GENERAL MANAGER	SEBASTIEN KIDD	36470LBMRVCUNTY	ALABAMA RIVER NEWSPRINT CO	COUNTY RD 39 OFF US HWY 84	PERDUE HILL	MONROE	AL	36470	ALABAMA RIVER NEWSPRINT CO	POST OFFICE BOX 10	PERDUE HILL	AL		36470	YES	NO	NO	NO	JONATHAN BYRD	2517436467	2621							322122						31.581944	-87.48861	783663164								ABITIBIBOWATER	243478828	NO	JONATHAN.BYRD@ABITIBIBOWATER.COM	
2007	EXECUTIVE VICE PRESIDENT / GENERAL MANAGER	ROBERT A. BLACK, JR.	36470LBMRVOFFHI	ALABAMA RIVER PULP CO IN C.	2373 LENA LANDEGGER HWY	PERDUE HILL	MONROE	AL	36470	ALABAMA RIVER PULP CO INC.	POST OFFICE BOX 100	PERDUE HILL	AL		36470	YES	NO	NO	NO	LAURIE JOHNSON	2517438388	2611	2621						322110						31.581944	-87.48861	081381568										NO	LAURIEJ@ARIVER.COM	
2002	PRESIDENT	RON J MCALEAR	36602LBMSHDUNLA	ALABAMA SHIPYARD INC.	660 DUNLAP DR.	MOBILE	MOBILE	AL	36652	ALABAMA SHIPYARD INC.	660 DUNLAP DR.	MOBILE	AL		36652	YES	NO	NO	NO	TERESA PRESTON	2516904862	3731							336611						30.751545	-88.083296	199970039		ALD983194846		ALG030032				ATLANTIC MARINE HOLDING CO.	194634457	NO		
2003	PRESIDENT	BOBBY GIBSON	36784LBMTMHWY5N	ALABAMA TIMBER INDUSTRIES INC	HIGHWAY 5 NORTH	THOMASVILLE	CLARKE	AL	36784	ALABAMA TIMBER INDUSTRIES INC	PO BOX 8	THOMASVILLE	AL		36784	YES	NO	NO	NO	BOBBY GIBSON	3346362861	2421							321113						31.959444	-87.7					ALG060017						NO		
2007	REGULATORY COMPLIANCE MANAGER	ANNE COOK	36104LCLWN1500F	ALACO LAWN PRODUCTS	1500 FURNACE ST	MONTGOMERY	MONTGOMERY	AL	36104	THE ANDERSONS SAFETY DEPARTMENT	521 ILLINOIS AVE	MAUMEE	OH		43537	YES	NO	NO	NO	MR. STACY SCHMIDT	4198912957	3999							339999						32.403718	-86.314826	007903628								THE ANDERSOSNS INC.	007903628	NO	STACY_SCHMIDT@ANDERSONSINC.COM	
1993	GENERAL MGR.	DAVID SCARBROUGH	35950LBRTV600WA	ALBERTVILLE WATER PLANT	600 WATER PLANT RD	ALBERTVILLE	MARSHALL	AL	35950	ALBERTVILLE WATER PLANT	PO BOX 130	ALBERTVILLE	AL		35950	NO	YES	NO		DAVID SCARBROUGH	2058783761	4941							221310						34.363389	-86.22388									MUNICIPAL UTILITIES BOARD		NO		
1989		ROBERT S. SANFORD	36331LFBNCUSHIG	ALFAB INC	US HWY 167 BYPASS	ENTERPRISE	COFFEE	AL	36331	ALFAB INC	US HWY 167 BYPASS	ENTERPRISE	AL		36331	YES	NO	NO		OSCAR C SPEIGNER	2053479516	3441							332312						31.301667	-85.811111	054568373										NO		
1996	V.P GEN. MGR.	JAMES J. GIBBARD	36701LLLCKBURNS	ALL-LOCK CO. INC.	4555 WATER AVE.	SELMA	DALLAS	AL	36701	ALL-LOCK CO. INC.	P.O. BOX 1349	SELMA	AL		36701-1349	YES	NO	NO		BARBARA HOWARD	3348749001	3714							336000						32.418085	-86.973067	063680367		ALD063680367		ALG120032				GENERAL AUTOMOTIVE SPECIALTY CO.	064306798	NO		
2007	OPERATIONS MANAGER	DARRYL RODEN	35950WBBWH1279B	ALLOY RESOURCES	1279 BRASHERS CHAPEL RD	ALBERTVILLE	MARSHALL	AL	35951	ALLOY RESOURCES	1279 BRASHERS CHAPEL RD	ALBERTVILLE	AL		35951	YES	NO	NO	NO	DARRYL RODEN	2568947448	3325							331513						34.312599	-86.233502											NO	DARRYLR@ALLOYRESOURCES.COM	
1997		KEITH BULLINGTON	35653LLSTTHICKE	ALLSTATE TREATING & MANUFACTURING CO	HICKERSON ST	LITTLEVILLE	COLBERT	AL	35653	ALLSTATE TREATING & MANUFACTURING CO	RT 3 BOX 92	TUSCUMBIA	AL		35674	YES	NO	NO		KEITH BULLINGTON	2053320431	2491							321114						34.602639	-87.670639			ALD983173303		AL0065374						NO		
2007	FACILITY MANAGER	GAYLIA LEVKOFF	35217LLWRT500ME	ALLWORTH LLC	500 MEDCO RD	BIRMINGHAM	JEFFERSON	AL	35217	ALLWORTH LLC	500 MEDCO RD	BIRMINGHAM	AL		35217	YES	NO	NO	NO	TRACEY TAYLOR	2058411707	7389							562211						33.594083	-86.771944									PSC ENVIRONMENTAL SERVICES INC		NO	TLTAYLOR@PSCNOW.COM	
2001	VP- OPERATIONS	CHARLES D. CULP	35234LTCND1730V	ALTEC INDUSTRIES INC	1730 VANDERBILT RD.	BIRMINGHAM	JEFFERSON	AL	35234	ALTEC INDUSTRIES INC	1730 VANDERBILT RD.	BIRMINGHAM	AL		35234	YES	NO	NO	NO	KEVIN FORSTMANN	2053238751	3713							336211						33.545118	-86.791881	004001731		ALD004001731		ALG120139				ALTEC INDUSTRIES INC	005995220	NO		
2007	GENERAL MANAGER	MIKE PEEBLES	35769LMNMN7525R	ALUMINUM ONE OF ALABAMA	7525 ROY OWENS BLVD	SCOTTSBORO	JACKSON	AL	35769	ALUMINUM ONE OF ALABAMA	7525 ROY OWENS BLVD	SCOTTSBORO	AL		35769	YES	NO	NO	NO	MIKE PEEBLES	2562593650								331314						34.615908	-86.084021	796533417										NO	MPEEBLES@ALUMINUMSCRAP.COM	
2001		DAVID EISENBRANDT	35602LVNTL1101S	ALVENTIA L.L.C.	1101 STATE DOCKS RD.	DECATUR	MORGAN	AL	35602	ALVENTIA L.L.C.	P.O. BOX 1085	DECATUR	AL		35602-1085	YES	NO	NO		DAVID EISENBRANDT	2563402161	2869							325000						34.634555	-87.038593			ALR000010108		AL0072532				SOLVAY ADVANCED POLYMERS INC./DYNEON L.L.C.	147754084	NO		
2007	ENVIRONMENTAL MANAGER	CHUCK FREIND	35173MRXCR7595G	AMEREX CORP	7595 GADSDEN HWY	TRUSSVILLE	JEFFERSON	AL	35173	AMEREX CORP	7595 GADSDEN HWY	TRUSSVILLE	AL		35173	YES	NO	NO	NO	CHUCK FREIND	2056553271	3999							325998						33.649541	-86.565476	053364261										NO	CFREIND@AMEREX-FIRE.COM	
1991		JOSEPH H. SITKIN	36345MRCNBHIGHW	AMERICAN BRASS INC	HWY. 134 W.	HEADLAND	HENRY	AL	36345	AMERICAN BRASS INC	HWY. 134 W.	HEADLAND	AL		36345	YES	NO	NO		JOSEPH H. SITKIN	2059834592	3341							331000						31.325	-85.40416	091411454		ALD981868466						SUPERIOR TECHNOLOGY INC		NO		
2007	GENERAL MANAGER	JACK JORDAN	36027MRCNBSTATE	AMERICAN BUILDINGS CO -EUFAULA	1150 STATE DOCKS RD	EUFAULA	BARBOUR	AL	36027	AMERICAN BUILDINGS CO -EUFAULA	1150 STATE DOCKS RD	EUFAULA	AL		36027	YES	NO	NO	NO	JACK JORDAN	3346872032	3448							332311						31.857754	-85.149596	003446796								NUCOR CORP	003446796	NO	NA	
2007	VICE-PRESIDENT & CHIEF ENGINEER	JOHN  WOODS	35207MRCNC2930N	AMERICAN CAST IRON PIPE CO.	2930 N 16TH ST	BIRMINGHAM	JEFFERSON	AL	352072930	AMERICAN CAST IRON PIPE CO.	P. O. BOX 2727	BIRMINGHAM	AL		352022727	YES	NO	NO	NO	BEN THOMAS, JR.	2053258035	3321	3317	3325					331511	331513	331210				33.546591	-86.83198	003397569										NO	BTHOMAS@ACIPCO.COM	
2007	CONTROLLER	DON NEIDHARDT	35150SLLVN1215F	AMERICAN COLOR GRAPHICS INC.	1215 FAYETTEVILLE RD	SYLACAUGA	TALLADEGA	AL	35150	AMERICAN COLOR GRAPHICS INC.	1215 FAYETTEVILLE RD	SYLACAUGA	AL		35150	YES	NO	NO	NO	DON NEIDHART	2562493871	2752	2759	2796					323110	323112					33.164675	-86.273121	067537639								ACG HOLDINGS	067537639	NO	DON.NEIDHARDT@AMERICANCOLOR.COM	
1999	GENERAL MANAGER	CHUCK KNOPP	35575SHLHTGALLO	AMERICAN HOMESTAR	155 COUNTY RD. 351	LYNN	WINSTON	AL	35575	AMERICAN HOMESTAR	P.O. BOX 69	LYNN	AL		35575	YES	NO	NO				2451							321991						34.038333	-87.546389	789523636				ALG060315				AMERICAN HOMESTAR CORP.	877001438	NO		
1996	PRES.	WILLIAM F. HARRIS JR.	35233MRCNM25163	AMERICAN MARBLE CO INC	2516 3RD AVE S	BIRMINGHAM	JEFFERSON	AL	35233	AMERICAN MARBLE CO INC	2525 2ND AVE S	BIRMINGHAM	AL		35233	YES	NO	NO		JACKIE MARTIN	2053280384	3088							326191						33.514322	-86.796068											NO		
2005	PRESIDENT	GEORGE MATTISON IV	35233MRCNM25252	AMERICAN MARBLE CO INC	2525 2ND AVE S	BIRMINGHAM	JEFFERSON	AL	352332510	AMERICAN MARBLE CO INC	2525 2ND AVE S	BIRMINGHAM	AL		35233-2510	YES	NO	NO	NO	JACKIE MARTIN	2053280384	3087							325991						33.514322	-86.796068											NO		
2007	GROUP VICE PRESIDENT	FRED CESPEDES	35077LBMFDFARMR	AMERICAN PROTEINS INC./HANCEV ILLE DIV	1170 COUNTY RD 508	HANCEVILLE	CULLMAN	AL	35077	AMERICAN PROTEINS INC./HANCEVILLE DIV	PO BOX 429	HANCEVILLE	AL		35077	YES	NO	NO	NO	FRED CESPEDES	2563529821	2048	2077						311613						33.957056	-86.808944	098846785								AMERICAN PROTEINS INC.	194912952	NO	FRED.CESPEDES@AMPROT.COM	
2007	PRESIDENT	GERRY COFIELD	36278MRCNS14382	AMERICAN STEEPLES & BAPTISTRIES INC	14382 HWY 431	WEDOWEE	RANDOLPH	AL	36278	AMERICAN STEEPLES & BAPTISTRIES INC	PO BOX 186	WEDOWEE	AL		36278	YES	NO	NO	NO	JULIE THROWER	2563574148	3089							339999						33.261944	-85.455833											NO	JULIE@AMERICANSTEEPLES.COM	
2007	VP&CTO	RICKARD PFEIFER	35055CLLMN1909B	AMERICAN TRIM LLC	1909 BEECH AVE	CULLMAN	CULLMAN	AL	35056	AMERICAN TRIM LLC	PO BOX 490	CULLMAN	AL		350560490	YES	NO	NO	NO	VINCENT DEFAZIO	2567344921	3499							332116						34.150445	-86.830664									AMERICAN TRIM LLC	938695020	NO		
2001	DIRECTOR OF OPERATIONS	GEORGE HAMILTON	35055WCCMP23402	AMERICOLD COMPRESSOR CO.	2340 2ND AVE. N. W.	CULLMAN	CULLMAN	AL	350589816	AMERICOLD COMPRESSOR CO.	2340 2ND AVE. N. W.	CULLMAN	AL		35058-9816	YES	NO	NO	NO	GEORGE HAMILTON	2567361286	3585							333415						34.217074	-86.858873	059904839		ALD099843690						ELECTROLUX N.A.	004203642	NO		
1992	PRESIDENT	CONRAD SMITH	35232MXNTR38161	AMEX INTERNATIONAL CO INC	3816 1ST AVE S	BIRMINGHAM	JEFFERSON	AL	35232	AMEX INTERNATIONAL CO INC	PO BOX 101989	BIRMINGHAM	AL		35210	YES	NO	NO		CONRAD SMITH	2055911610	2490							339942						33.522886	-86.780741	031525728		ALD983180589								NO		
1998	PRESIDENT	CONRAD SMITH	35210MXNTR511VU	AMEX INTERNATIONAL CO INC	511 VULCAN DR	BIRMINGHAM	JEFFERSON	AL	35210	AMEX INTERNATIONAL CO INC	PO BOX 101989	BIRMINGHAM	AL		35210	YES	NO	NO		CONRAD SMITH	2059563120	2490							339942						33.53817	-86.698852			ALD988180589		ALG990010						NO		
1994	ENVIRONMENT, HEALTH, AND SAFETY MANAGER	JAMES T. MCDANIEL	36274MCFBROLDHW	AMOCO FABRICS & FIBERS CO. ROANOKE MILLS	OLD HWY. 431 S.	ROANOKE	RANDOLPH	AL	36274	AMOCO FABRICS & FIBERS CO., ROANOKE MILLS	P.O. BOX 729	ROANOKE	AL		36274	YES	NO	NO		SHELLEY PADDOCK	3348638911	2221							313210						33.134917	-85.36475	006656259		ALD038259933		AL0064661				AMOCO CORP.	001344258	NO		
2007	PLANT MANAGER	JOHN RIZZI	36505MVCCH12650	AMVAC CHEMICAL CO	12650 HWY 43 N	AXIS	MOBILE	AL	36505	AMVAC CHEMICAL CO	12650 HWY 43 N	AXIS	AL		36505	YES	NO	NO	NO	JOHN RIZZI	2516628860	2879	2869						325320						30.947778	-88.025278	056446388								AMERICAN VANGUARD CORP	049343924	NO	JOHNR@AMVAC-CHEMICAL.COM	
1988	VP & GENERAL MANAGER	GARY R. KENNEDY	35967RTHGRROUTE	ANHEUSER-BUSCH INC EARTH GRAINS DIV	RTE. 1 OLD VALLEY HEAD RD.	FORT PAYNE	DEKALB	AL	35967	ANHEUSER-BUSCH INC EARTH GRAINS DIV	RTE. 1 OLD VALLEY HEAD RD.	FORT PAYNE	AL		35967	YES	NO	NO		GARY L. KENNEDY	2058454850	2051							311812						34.492572	-85.67757	007320997								ANHEUSER-BUSCH COS INC	098630254	NO		
2002	GLOBAL ENVIRONMENTAL MANAGER	AARON GUSTKEY	36081NSLLN110HE	ANSELL HEALTHCARE	110 HENDERSON HWY.	TROY	PIKE	AL	36079	ANSELL PROTECTIVE PRODS.	1300 WALNUT ST.	COSHOCTON	OH		43812	YES	NO	NO	NO	AARON GUSTKEY	7406233586	3069							326199						31.78594	-85.981324	120522524				ALG200003				ANSELL LTD.	753172428	NO		
2000	CAPACITY PLANNING MANAGER	MIKE SPLITER	36303NSLLNINDUS	ANSELL HEALTHCARE PRODS.	1500 INDUSTRIAL RD.	DOTHAN	HOUSTON	AL	36303	ANSELL HEALTHCARE PRODS.	P.O. BOX 1252	DOTHAN	AL		36302	YES	NO	NO	NO	MIKE SPLITER	3347944231	3069							326299						31.25947	-85.401521	004191920		ALD983177437	ALD982168080	AL0001511	ALG200004			PACIFIC DUNLOP	102093309	NO		
1993	MANAGER OF SOUTHERN MANUFACTURING	G.D. CAZALET	36116PPLTN5655B	APPLETON WIRE	5655 BELL RD.	MONTGOMERY	MONTGOMERY	AL	36116	APPLETON WIRE	P.O. BOX 11066	MONTGOMERY	AL		36111-0066	YES	NO	NO		JERRY SOKARIS	5184476585	2221							313210						32.313747	-86.221302	067131656		AL0067131656		AL0053155				ALBANY INTERNATIONAL CORP	002075414	NO		
2007	VICE PRESIDENT OF MANUFACTURING	PAUL DILL	36081RCHTC806US	ARCHITECTURAL MASTERWORKS	806 US HWY 231	TROY	PIKE	AL	36081	HB&G BUILDING PRODUCTS INC.	PO BOX 589	TROY	AL		36081	YES	NO	NO	NO	DONNA LONG	3346706563	3086							326140						31.791667	-85.966667	003397734								GRAHAM PARTNERS		NO	NA	
2007	COO	MICHAEL ZIEGLER	36311SLSSNHIGHW	ARICHEM LLC	187 SLOSS INDUSTRIES RD	ARITON	DALE	AL	36311	ARICHEM LLC	PO BOX 747	ARITON	AL		36311	YES	NO	NO	NO	MIKE OWEN	6154817702	2869							325199						31.59275	-85.7205	789801078										NO	MIKEOWEN@ARICHEM.COM	
2007	PLANT MANAGER	DARYL ROBERTS	36505MTCHMHWY43	ARKEMA INC.	13755 U.S. HWY 43 N	AXIS	MOBILE	AL	365050099	ARKEMA INC.	13755 U.S. HWY 43 N	AXIS	AL		36505-0099	YES	NO	NO	NO	DARYL ROBERTS	2518294212	2819	2821	2869					325211	325199	325188				30.979167	-88.02883	016988222								ARKEMA DELAWARE INC	002290773	NO	DARYL.ROBERTS@ARKEMA.COM	
2007	PRESIDENT	MULK ARORA	35801RVXML2615M	ARORA TECHNOLOGIES INC	2615 MEMORIAL PKWY, SW	HUNTSVILLE	MADISON	AL	35801	ARORA TECHNOLOGIES INC	2615 MEMORIAL PKWY, SW	HUNTSVILLE	AL		35801	YES	NO	NO	NO	MULK ARORA	2565391751	3675							334414						34.711056	-86.588472	021257779		ALD004000998		AL0028959						NO	MARORA@ARORATECH.COM	
2007	PLANT MANAGER	MIKE OWENS	36025MCPNCHWY14	ARROWHEAD COMPOSITED & THERMOPLASTICS	1142 HWY 14	ELMORE	ELMORE	AL	36025	ARROWHEAD COMPOSITES & THERMOPLASTICS	PO BOX 260	ELMORE	AL		36025	YES	NO	NO	NO	MIKE OWENS	3342854213	3089							326199						32.5133	-86.314667									ARROWHEAD PLASTIC ENGINEERING	067886739	NO	MOWENS@ELMORE.RR.COM	
2002	SITE OPERATIONS MANAGER	J. TODD MORGAN	35555RVNNR800EA	ARVINMERITOR FAYETTE FACILITY	800 E. COLUMBUS ST.	FAYETTE	FAYETTE	AL	35555	ARVINMERITOR FAYETTE FACILITY	800 E. COLUMBUS ST.	FAYETTE	AL		35555	YES	NO	NO	NO	JERRY RUSH	2484357907	3714							336399						33.683959	-87.819842	041024894		ALD982115230						ARVINMERITOR INC.	788082092	NO		
2007	FACILITY MANAGER	BILL RAMIREZ	35234SHLND3300B	ASHLAND DISTRIBUTION	3300 BALL ST	BIRMINGHAM	JEFFERSON	AL	35234	ASHLAND INC	5200 BLAZER PARKWAYDS-4	DUBLIN	OH		43017	YES	NO	NO	NO	JIM VITAK	6147903715	5169							424690						33.553028	-86.784778	061149712								ASHLAND INC	005003264	NO	JEVITAK@ASHLAND.COM	
2007	PLANT MANAGER	DAN ICARDI	36607SHLND701WE	ASHLAND DISTRIBUTION CO	701 WESTERN DR	MOBILE	MOBILE	AL	36607	ASHLAND INC	5200 BLAZER PARKWAYDS-4	DUBLIN	OH		43017	YES	NO	NO	NO	JIM VITAK	6147903715	5169							424690						30.711472	-88.11475	059961454								ASHLAND INC	005003264	NO	JEVITAK@ASHLAND.COM	
2001	CEO	CHARLES B. SHAW	35072STRLNBROWN	ASTRAL INDUSTRIES INC	BROWNSVILLE RD	GOODWATER	COOSA	AL	35072	ASTRAL INDUSTRIES INC	BROWNSVILLE RD	GOODWATER	AL		35072	YES	NO	NO	NO	ROBERT W WARNER	7658742525	3995							339995						33.038889	-86.065833	790223275		IND062816293								NO		
2007	SAFETY DIRECTOR	MALCOLM RIKER	35217STRLLPOBOX	ASTRALLOY STEEL PRODUCTS INC	1550 RED HOLLOW RD.	BIRMINGHAM	JEFFERSON	AL	35215	ASTRALLOY STEEL PRODUCTS INC	PO BOX 170974	BIRMINGHAM	AL		35217-0974	YES	NO	NO	NO	MALCOLM RIKER	2058530300	3443							332313						33.654444	-86.724167	059876235				ALG120011						NO	RIKERM@ASTRALLOY.COM	
2007	VICE PRESIDENT	STEPHEN MEULER	35747TLDYN210E9	ATI FIRTH STERLING	481 FIRE TOWER RD	GRANT	MARSHALL	AL	35747	ATI FIRTH STERLING	481 FIRE TOWER RD	GRANT	AL		35747	YES	NO	NO	NO	DAN GREENFIELD	4123943004	3499							332117						34.519994	-86.246002	083525808								ALLEGHENY TECHNOLOGIES INC.	949262737	NO		
2007	VICE PRESIDENT	STEPHEN MEULER	35756TNGST1297C	ATI FIRTH STERLING - MADISON	1297 COUNTY LINE RD	MADISON	MADISON	AL	35756	ATI FIRTH STERLING - MADISON	1297 COUNTY LINE RD	MADISON	AL		35756	YES	NO	NO	NO	DAN GREENFIELD	4123943004	3399							332117						34.573491	-86.789388	079347154								ALLEGHENY TECHNOLOGIES INC	949262737	NO		
1987	V.P. OPERATIONS	DERRY HOBSON	36203TLNTC701HA	ATLANTA COCA-COLA BOTTLING CO OXFORD AL PLANT	701 HAMRIC DR	OXFORD	CALHOUN	AL	36203	ATLANTA COCA-COLA BOTTLING CO OXFORD AL PLANT	701 HAMRIC DR	OXFORD	AL		36203	YES	NO	NO		ANDY BOWMAN  DIRECTOR OF TECHNICAL SERVICES		2086													33.610233	-85.826764			ALD186114674						COCA-COLA CO INC	109261909	NO		
2007	VP OPERATIONS	VT WILLIAMS	36602TLNTCDUNLA	ATLANTIC MARINE ALABAMA LLC	GATE B, DUNLAP DR	MOBILE	MOBILE	AL	36652	ATLANTIC MARINE ALABAMA LLC	GATE B, DUNLAP DR	MOBILE	AL		36652	YES	NO	NO	NO	TERESA PRESTON	EHSDIRECTOR	3731							336611						30.68	-88.031944	199970039								ATLANTIC MARINE HOLDING CO	194634457	NO	TPRESTON@ATLANTICMARINE.COM	
1990	PLANT MANAGER	DENNY LAWRENCE	35602TLSCY1021B	ATLAS CYLINDER	1021 BROOK ST.	DECATUR	MORGAN	AL	35602	ATLAS CYLINDER	1021 BROOK ST.	DECATUR	AL		35602	YES	NO	NO		DENNY LAWRENCE	2053551812	3593							333995						34.562985	-86.976136	184586519		ALD982124422						PARKER HANNIFIN CORP.	004175550	NO		
2005	PRESIDENT	SCOTT HANSON	36830VRMNT155AL	AUBURN INVESTMENT CASTINGS	155 ALABAMA ST	AUBURN	LEE	AL	36832	AUBURN INVESTMENT CASTINGS	155 ALABAMA ST	AUBURN	AL		36832	YES	NO	NO	NO	SCOTT HANSON	3345027519	3324							331512						32.604956	-85.512289									AIC OPERATIONS INC.	163918118	NO		
1993	VICE PRESIDENT/MANUFACTURING	STEVE ABEKNAB	36109NTNLN2745G	AUGAT WIRING SYS. INC.	2745 GUNTER PARK DR. W.	MONTGOMERY	MONTGOMERY	AL	36109	AUGAT WIRING SYS. INC.	2745 GUNTER PARK DR. W.	MONTGOMERY	AL		36109	YES	NO	NO		JACK FOSTER	2052771551	3647							336321						32.408512	-86.237548	001191188		ALD33354069						AUGAT INC.	001191188	NO		
2006	OPERATIONS MANAGER/DIRECTOR OF MANUFACTURING	WM TERRY WRIGHT	35031STNPWSTARR	AUSTIN POWDER CO	3410 ROCKY HOLLOW RD	BLOUNTSVILLE	BLOUNT	AL	35031	AUSTIN POWDER CO	3410 ROCKY HOLLOW RD	BLOUNTSVILLE	AL		35031	YES	NO	NO	NO	PHILLIP ROBINSON	2565868198	2892							325920						34.133116	-86.483623	805269529								AUSTIN POWDER HOLDINGS CO	932641988	NO		
2007	PRESIDENT	WALTER A. SHAW, PH.D.	35007VNTPL700IN	AVANTI POLAR LIPIDS INC.	700 INDUSTRIAL PARK DR	ALABASTER	SHELBY	AL	35007	AVANTI POLAR LIPIDS INC.	700 INDUSTRIAL PARK DR	ALABASTER	AL		35007	YES	NO	NO	NO	STEPHEN W. BURGESS	2056632494	2834							325412						33.255389	-86.820994	075473496										NO	NA	
1992	PRESIDENT	V. BRUCE RAMSEY	35805NSYSC4906R	AVEX ELECTRONICS INC.	4906 RESEARCH DR.	HUNTSVILLE	MADISON	AL	35805	AVEX ELECTRONICS INC.	4906 RESEARCH DR.	HUNTSVILLE	AL		35805	YES	NO	NO		JOHN CHAPMAN	2057226312	3571							334111						34.730603	-86.655874	179119268		ALD983179078						J. M. HUBER CORP.	002554459	NO		
1992	PRESIDENT	V. BRUCE RAMSEY	35805VXLCT4950G	AVEX ELECTRONICS INC.	4950 GILMER DR.	HUNTSVILLE	MADISON	AL	35805	AVEX ELECTRONICS INC.	4807 BRADFORD DRIVE	HUNTSVILLE	AL		35805	YES	NO	NO		JOHN CHAPMAN	2057226312	3571							334111						34.724654	-86.659793	620202093		ALD981931199						J. M. HUBER CORP.	002554459	NO		
1987	GENERAL MANAGER	DAVID K. RICHIE	35222VNDLC4341P	AVONDALE CHEMICAL COATINGS CO INC	4341 POWELL AVE S	BIRMINGHAM	JEFFERSON	AL	352220116	AVONDALE CHEMICAL COATINGS CO INC	4341 POWELL AVE S	BIRMINGHAM	AL		35222-0116	YES	NO	NO		DAVID K RICHIE	2055926356	2851													33.528868	-86.769559			ALD004000402	ALD0040004D2							NO		
2004	SYLACAUGA SHOP MANAGER	GLENN BROWN	35150VNDLM900AV	AVONDALE MILLS INC SYLACAUGA COMPLEX	ALABAMA ST	SYLACAUGA	TALLADEGA	AL	35150	AVONDALE MILLS INC SYLACAUGA COMPLEX	900 AVONDALE AVE	SYLACAUGA	AL		35150	YES	NO	NO	NO	STEPHEN FELKER JR.	7702678711	2211	2261	2281					313210						33.179796	-86.263659	155299365		ALD983176546		AL0001627				AVONDALE MILLS INC	155299365	NO		
1988	V. P. MANUFACTURING SERVICES	T. WAYNE SPRAGGINS	35010VNDLMMAPLE	AVONDALE MILLS INC.	MAPLE ST.	ALEXANDER CITY	TALLAPOOSA	AL	35010	AVONDALE MILLS INC.	MAPLE ST.	ALEXANDER CITY	AL		35010	YES	NO	NO		WALLACE D. HUGHES	2052491404	2231							313111						32.936111	-85.95	155299365				DSN003				AM ACQUISITION	155299423	NO		
2007	VP & GENERAL MANAGER	ROBERT L. HOUSTON	36201FMCCR2101W	BAE SYSTEMS FORGE COMPLEX	2101 W 10TH ST	ANNISTON	CALHOUN	AL	36201	BAE SYSTEMS	PO BOX 1030	ANNISTON	AL		36202	YES	NO	NO	NO	WARREN BODILY	2562359710	3462							332111						33.656877	-85.861456	155156012										NO	WARREN.BODILY@BAESYSTEMS.COM	
1995	PRESIDENT	RICHARD HARRISON	36551BLDWN28801	BALDWIN DINETTES	28801 RAILROAD AVE	LOXLEY	BALDWIN	AL	36551	BALDWIN DINETTES	PO BOX 647	LOXLEY	AL		36551	YES	NO	NO		RICHARD HARRISON	3349646204	2511							337122						30.611114	-87.742631			ALD983186990								NO		
2007	PRESIDENT	THOMAS A. MCMILLAN	36507BLDWN1307A	BALDWIN POLE & PILING CO. INC	1307 ATMORE HWY	BAY MINETTE	BALDWIN	AL	36507	BALDWIN POLE & PILING CO. INC.	P. O. DRAWER 758	BAY MINETTE	AL		36507	YES	NO	NO	NO	THOMAS A. MCMILLAN	2519372141	2491							321114						30.890278	-87.755833	031490501										NO	NA	
2007	PRESIDENT	THOMAS A. MCMILLAN	36507BLDWNOLDPE	BALDWIN POLE & PILING CO. INC.	OLD PENSACOLA HWY	BAY MINETTE	BALDWIN	AL	36507	BALDWIN POLE & PILING CO. INC.	P. O. DRAWER 758	BAY MINETTE	AL		36507	YES	NO	NO	NO	THOMAS A. MCMILLAN	2519372141	2491							321114						30.890278	-87.755833	031490501										NO	NA	
1998	V.P. OPERATONS	RON SAPPINGTON	36108BRBRP845WF	BARBER DAIRIES INC.	845 W. FAIRVIEW AVE.	MONTGOMERY	MONTGOMERY	AL	36108	BARBER DAIRIES INC.	845 W. FAIRVIEW AVE.	MONTGOMERY	AL		36108	YES	NO	NO		RON SAPPINGTON	2059422351	2026							311511						32.351459	-86.323334	079107579		ALD983170564						DEAN FOODS CO.	005104815	NO		
2007	SR. OPERATIONS MANAGER	EDDIE ALLEN	35209BRBRP36BAR	BARBER MILK LLC	36 BARBER CT	BIRMINGHAM	JEFFERSON	AL	35209	BARBER MILK LLC	36 BARBER CT	BIRMINGHAM	AL		35209	YES	NO	NO	NO	VALERIE MEYERS	2059422351	2026							311511						33.459287	-86.839621	005104815								DEAN FOODS EAST II LLC		NO	NA	
1988	PLANT SUPERINTENDENT	MIKE FLAGG	36690BRBRP6501M	BARBER PURE MILK CO.	6501 MOFFAT RD.	MOBILE	MOBILE	AL	36690	BARBER PURE MILK CO.	6501 MOFFAT RD.	MOBILE	AL		36690	YES	NO	NO		GEORGE PILGRIM	2056490330								311511						30.742656	-88.179776									BARBER DAIRIES INC.		NO		
1998	CONTROLLER	DOUG ROSSER	36201BLMNT20BLU	BARBOUR THREADS INC.	20 BLUE MOUNTAIN AVE.	ANNISTON	CALHOUN	AL	36201	BARBOUR THREADS INC.	20 BLUE MOUNTAIN AVE.	ANNISTON	AL		36201	YES	NO	NO		DOUG ROSSER	2562379461	2282	2284	2298					313000						33.687715	-85.836253	929846509				ALG240003				HICKING PENTECOST PLC		NO		
1989	VICE PRESIDENT - HUMAN RESOURCES	BYRON L. TAYLOR,NYB	35210BRRNN10519	BARRON INDUSTRIES INC.	105 - 19TH ST.	IRONDALE	JEFFERSON	AL	35210	BARRON INDUSTRIES INC.	105 - 19TH ST.	IRONDALE	AL		35210	YES	NO	NO		TOM JUDD	2059563441	3325	3564						333410						33.538797	-86.708759	161383302	004003653	AL982079808	AL982123309					NEW YORK BLOWER CO.	005069414	NO		
2007	VICE-PRESIDENT, ENVIRONMENTAL AFFAIRS	WILLARD L. BOWERS	36512LBMPWUSHWY	BARRY STEAM PLANT	US HWY 43	BUCKS	MOBILE	AL	36512	BARRY STEAM PLANT	US HWY 43	BUCKS	AL		36512	YES	NO	NO	NO	BERNIE A. FOGARTY	2516942361	4911							221112						31.005908	-88.008383	006900120								SOUTHERN CO	006925341	NO	BAFOGART@SOUTHERNCO.COM	
2007	SITE MANAGER	JOHN O. BROCK	35806NGLHR9800K	BASF CATALYSTS LLC	9800 KELLNER RD	HUNTSVILLE	MADISON	AL	35824	BASF CATALYSTS LLC	9800 KELLNER RD	HUNTSVILLE	AL		35824	YES	NO	NO	NO	JIM BREEDLOVE	2567729373	3714							336399						34.657972	-86.749917	114295629								BASF CORP	071014385	NO	JIM.BREEDLOVE@BASF.COM	
2007	SITE MANAGER	CHRISTOPHER LORGE	35601WHTTKDECAT	BASF CORP DECATUR SITE	152 IPSCO ST	DECATUR	MORGAN	AL	35601	BASF CORP DECATUR SITE	152 IPSCO ST	DECATUR	AL		35601	YES	NO	NO	NO	CHRISTOPHER LORGE	2565485403	2851							325510						34.608278	-87.040514	071014385								BASF CORP	071014385	NO		
2002	VICE PRESIDENT	JOE VENNER	36582BSFPR4201A	BASF PERFORMANCE COPOLYMERS LLC	4201A  DEGUSSA RD.	THEODORE	MOBILE	AL	36582	BASF PERFORMANCE COPOLYMERS L.L.C.	2098 SCHILLINGER RD. SUITE 3	MOBILE	AL		36695	YES	NO	NO	NO	JOE VENNER	9734264060	2821							325211						30.515052	-88.14043	133047790		ALR000012518		AL0073423				BASF CORP	071014385	NO		
2006	PRESIDENT	DONALD F. MOBLEY	36025BTHBL5669E	BATH BUILDERS LLC	5669 ELMORE RD	ELMORE	ELMORE	AL	36025	BATH BUILDERS LLC	5669 ELMORE RD	ELMORE	AL		36025	YES	NO	NO	NO	DONALD F. MOBLEY	3345142282								326191						32.547059	-86.296742	033328266										NO		
2007	DIRECTOR-ENVIRONMENTAL & SAFETY	NANCY VAN EMAN	35740BLFBR236BE	BEAULIEU FABRICS	236 BEAULIEU DR	BRIDGEPORT	JACKSON	AL	35740	BEAULIEU FABRICS	236 BEAULIEU DR	BRIDGEPORT	AL		35740	YES	NO	NO	NO	NANCY VAN EMAN	7062727396	2824							325222						34.963889	-85.719444	086971363								BEAULIEU GROUP LLC	086971363	NO	NVANEMAN@BEAULIEU-USA.COM	
2007	DIRECTOR-ENVIRONMENTAL & SAFETY	NANCY VAN EMAN	35740BLNYL202JA	BEAULIEU FIBERS	202 JACOBS AVE	BRIDGEPORT	JACKSON	AL	35740	BEAULIEU FIBERS	202 JACOBS AVE	BRIDGEPORT	AL		35740	YES	NO	NO	NO	NANCY VAN EMAN	7062727396	2824							325222						34.948936	-85.708042	086971363								BEAULIEU GROUP LLC	086971363	NO	NVANEMAN@BEAULIEU-USA.COM	
1988	V.P. OF OPERATIONS	HOWARD E. JOHNSON	35740BLNYL600JA	BEAULIEU NYLON	600 JACOBS AVE.	BRIDGEPORT	JACKSON	AL	35740	BEAULIEU NYLON	600 JACOBS AVE.	BRIDGEPORT	AL		35740	YES	NO	NO		MITCH SMITH	2054952701	2281							313111						34.945688	-85.713058	086971363		ALD007050031						BEAULIEU OF AMERICA INC.	086971363	NO		
2007	PRESIDENT	THOMAS B. BENDER	36603BNDRS265SW	BENDER SHIPBUILDING & REPAIR CO INC	265 S WATER ST	MOBILE	MOBILE	AL	36603	BENDER SHIPBUILDING & REPAIR CO INC	265 S WATER ST	MOBILE	AL		36603	YES	NO	NO	YES	JACKIE W. MORRIS	2514348803	3731							336611						30.685302	-88.038562	008150914										NO	MORR@BENDERSHIP.COM	
2007	MANUFACTURING MANAGER	PAUL TOMASZEWSKI	35125BNJMN109BA	BENJAMIN MOORE & CO PELL CITY	109 BAMBERG DR	PELL CITY	ST CLAIR	AL	351259142	BENJAMIN MOORE & CO PELL CITY	109 BAMBERG DR	PELL CITY	AL		35125-9142	YES	NO	NO	NO	ROBERT WEATHERLY	2053384440	2851							325510						33.591667	-86.24194	181837238								BENJAMIN MOORE & CO	001210715	NO	ROBERT.WEATHERLY@BENJAMINMOORE.COM	
2004	PLANT MANAGER	BILL PHILLIPS	35020BRMCL22015	BERMCO ALUMINUM	2201 5TH AVE N	BESSEMER	JEFFERSON	AL	35020	BERMCO ALUMINUM	2201 5TH AVE N	BESSEMER	AL		35020	YES	NO	NO	NO	BILL PHILLIPS	2053202419	3341							331000						33.407136	-86.952856					ALG180102						NO		
2007	VP OF OPERATION	BILL PHILLIPS	35222BRMCL616NO	BERMCO ALUMINUM	616 N 33RD PL	BIRMINGHAM	JEFFERSON	AL	35222	BERMCO ALUMINUM	3230-P AIRPORT HWY	BIRMINGHAM	AL		35222	YES	NO	NO	NO	BARBARA POOLE	2053202434	3341							331314						33.528142	-86.78991											NO	BPOOLE@BERMCO.COM	
2007	MANUFACTURING MANAGER	MICHAEL KIMPLE	35555HPNC 9312N	BEST GLOVE INC.	931 SECOND AVE SE	FAYETTE	FAYETTE	AL	35555	BEST GLOVE INC.	931 SECOND AVE SE	FAYETTE	AL		35555	YES	NO	NO	NO	BILL TRANK	7069323202	3069							315992						33.692292	-87.828802	807930412										NO	BTRANK@BESTGLOVE.COM	
2007	ENVIRONMENTAL HEALTH & SAFETY DIRECTOR	FREDERICK OSBORNE	35470BGRVRSINDU	BIG RIVER INDUSTRIES INC LIVLITE DIV	S INDUSTRIAL PARK	LIVINGSTON	SUMTER	AL	35470	BIG RIVER INDUSTRIES INC LIVLITE DIV	PO BOX V	LIVINGSTON	AL		35470	YES	NO	NO	NO	SCOTT HENDRY	2056529688	3295							212399						32.518056	-88.265833	008155251								OLDCASTLE INC	037176591	NO	SCOTT.HENDRY@OLDCASTLEAPG.COM	
1998	PRESIDENT	JERRY THOMAS	35804HNTSV514CL	BIG SPRINGS INC.	514 CLINTON AVE.	HUNTSVILLE	MADISON	AL	35804	BIG SPRINGS INC.	P.O. BOX 2709	HUNTSVILLE	AL		35804	YES	NO	NO		JIM SENTELL	2565324545	2086							312111						34.726111	-86.5925	004016648		ALD982092546		AL0021326				BIG SPRINGS INC.	004016648	NO		
1991	GENERAL MANAGER	PETER J. LAPP	36601BRDJHPINTO	BIRD-JOHNSON CO.	PINTO ISLAND	MOBILE	MOBILE	AL	366010286	BIRD-JOHNSON CO.	PINTO ISLAND	MOBILE	AL		36601-0286	YES	NO	NO		MICHAEL E. DAVIS	6017620728	3364							331522						30.397222	-88.201389	001006311				AL0001147				BIRD-JOHNSON CO.	001006311	NO		
1998	PRESIDENT	JOHN H. SHERMAN, III	35217BRMNG4600E	BIRMINGHAM COCA-COLA BOTTLING	4600 E LAKE BLVD	BIRMINGHAM	JEFFERSON	AL	35217	BIRMINGHAM COCA-COLA BOTTLING	PO BOX 2006	BIRMINGHAM	AL		35201-2006	YES	NO	NO		JOHN H SHERMAN III	2058494658	2086							312111						33.56018	-86.767979			ALD981868243						COCA-COLA BOTTLING CO UNITED INC		NO		
1998	PRESIDENT	OWEN VICKERS	36108BRMNG3353B	BIRMINGHAM HIDE & TALLOW CO INC	3353 BIRMINGHAM HWY	MONTGOMERY	MONTGOMERY	AL	36108	BIRMINGHAM HIDE & TALLOW CO INC	3353 BIRMINGHAM HWY	MONTGOMERY	AL		36108	YES	NO	NO				2077							311613						32.373214	-86.375644					ALG150096						NO		
2007	PLANT MANAGER	HABER VICKERS	35020BRMNG5430J	BIRMINGHAM HIDE & TALLOW CO INC.	5430 JOHNS RD	BESSEMER	JEFFERSON	AL	35021	BIRMINGHAM HIDE & TALLOW CO INC.	PO BOX 1596	BIRMINGHAM	AL		352011596	YES	NO	NO	NO	HABER VICKERS	2054251711	2077							311613						33.388889	-87.021111											NO	HABERVICKERS@CHARTER.NET	
1988	PRESIDENT	MR. H. M. CRANDALL	35224BRMNG54001	BIRMINGHAM WOOD PRESERVING, CORP.	5400 10TH AVE. WYLAM	BIRMINGHAM	JEFFERSON	AL	35224	BIRMINGHAM WOOD PRESERVING, CORP.	5400 10TH AVE. WYLAM	BIRMINGHAM	AL		35224	YES	NO	NO		H. M. CRANDALL	2056749676	2491							321114						33.502055	-86.933367			ALD003394830		AL0053333						NO		
2003	PRESIDENT	W.S. BITTNER, JR.	36610BTTNRPOBOX	BITTNER INDUSTRIES INC	639 DIAZ ST	PRICHARD	MOBILE	AL	366100265	BITTNER INDUSTRIES INC	PO BOX 10265	PRICHARD	AL		36610-0265	YES	NO	NO	NO	W S BITTNER JR	2514577671	3089							326122						30.744131	-88.069407	008150302		ALD983171794		ALG200048						NO		
2007	VP	RICK BESANT	35401BLCKW4601S	BLACK WARRIOR ROOFING	1637 51ST AVE	TUSCALOOSA	TUSCALOOSA	AL	35401	BLACK WARRIOR ROOFING	PO BOX 20348	TUSCALOOSA	AL		35402	NO	YES	NO	NO	ROBERT SHEFFIELD	2053456634	2952							324122						33.20147	-87.598162									ABH ENTERPRISES INC		NO		
2007	GENERAL MANAGER	D. MARK JOHNSON	36505BLSTC124BH	BLASTECH MOBILE LLC	12400 B HWY 43N	AXIS	MOBILE	AL	36505	BLASTECH MOBILE LLC	12400 B HWY 43N	AXIS	AL		36505	YES	NO	NO	NO	RANDY FRETWELL	2516624624	3399							INVALD						30.950886	-88.025639			ALR000032342								NO	RANDYF@BLASTECH.COM	
2002	V.P. ADMINISTRATION	JERRY E. TURNER	35020SHLBY100KI	BLAZER FABRICATING BESSEMER PLANT	100 KILSBY CIRCLE	BESSEMER	JEFFERSON	AL	35023	BLAZER FABRICATING L.L.C.	4466 PINSON VALLEY PKY.	BIRMINGHAM	AL		35215	YES	NO	NO	NO	JERRY E. TURNER	2058560117	3441							332312						33.363271	-86.905483	107977415		ALR000015263		ALG120098				BLAZER FABRICATING L.L.C.	107977415	NO		
2002	V.P. ADMINISTRATION	JERRY E. TURNER	35217BLZRF302FL	BLAZER FABRICATING PAWNEE PLANT	302 FLEMING RD.	BIRMINGHAM	JEFFERSON	AL	35217	BLAZER FABRICATING	4466 PINSON VALLEY PKY.	BIRMINGHAM	AL		35215	YES	NO	NO	NO	JERRY E. TURNER	2058560117	3443							332313						33.617828	-86.742638	107977415				ALG120439				BLAZER FABRICATING L.L.C.	107977415	NO		
2002	V.P. ADMINISTRATION	JERRY E. TURNER	35178SHLBYHWY85	BLAZER FABRICATING VINCENT PLANT	HWY. 85 & THOMPSON RD.	VINCENT	SHELBY	AL	35178	BLAZER FABRICATING L.L.C.	4466 PINSON VALLEY PKY.	BIRMINGHAM	AL		35215	YES	NO	NO	NO	JERRY E. TURNER	2058560117	3443							332313						33.379167	-86.404167	107977415				ALG120164				BLAZER FABRICATING L.L.C.	107977415	NO		
2007	ENVIRONMENTAL DIRECTOR	ERIN CHRISTIE	36582BLCKS4751H	BLOCK USA THEODORE	4751 HAMILTON BLVD	THEODORE	MOBILE	AL	36582	READY MIX USA	2570 RUFFNER RD	BIRMINGHAM	AL		35210	YES	NO	NO	NO	ERIN CHRISTIE	2059864800								327320						30.554665	-88.153263									READY MIX USA LLC		NO	ERINC@READYMIXUSA.COM	
2007	MILL MANAGER	RICHARD L. GRANT	36545BSCSC307WE	BOISE WHITE PAPER LLC	4585 INDUSTRIAL RD	JACKSON	CLARKE	AL	365453416	BOISE WHITE PAPER LLC	4585 INDUSTRIAL RD	JACKSON	AL		36545-3416	YES	NO	NO	NO	TREY WILSON	2512468366	2611							322121	322110					31.490852	-87.89786	170009265								BOISE, INC.	806689548	NO	TREYWILSON@BOISEPAPER.COM	
1994	PRES.	JOSEPH M. BOLTON	36604BLTNB158MI	BOLTON-BERKLEY INC	158 MICHIGAN AVE	MOBILE	MOBILE	AL	36604	BOLTON-BERKLEY INC	PO BOX 141	MOBILE	AL		36601	YES	NO	NO		JOSEPH M BOLTON	3344331671	2842							325612						30.681036	-88.067588	071926950										NO		
2007	REGIONAL PRODUCTION MANAGER	BILL TUDOR	36869BRLBR100BA	BORAL BRICKS INC PHENIX CITY PLANT 3	1415 BRICKYARD RD	PHENIX CITY	RUSSELL	AL	36869	BORAL BRICKS INC	PO BOX 1178	COLUMBUS	GA		31902-1178	YES	NO	NO	NO	PAUL ZIMMERMAN	7068213650	3251							327121						32.453056	-84.996477	003275682								BORAL INDUSTRIES INC	026389254	NO	PAUL.ZIMMERMAN@BORAL.COM	
2007	REGIONAL PRODUCTION MANAGER	BILL TUDOR	36869BRLBR100BR	BORAL BRICKS INC PHENIX CITY PLANT 4	1501 BRICKYARD RD	PHENIX CITY	RUSSELL	AL	36869	BORAL BRICKS INC.	PO BOX 1178	COLUMBUS	GA		319021178	YES	NO	NO	NO	PAUL ZIMMERMAN	7068213650	3251							327121						32.405854	-85.022116	003275682								BORAL INDUSTRIES INC	026389254	NO	PAUL.ZIMMERMAN@BORAL.COM	
2006	REGIONAL PRODUCTION MANAGER	LAMAR HUTCHERSON	36869BRLBR100BB	BORAL BRICKS INC.            P HENIX CITY PLANTS 1 & 2	100 BRICKYARD RD	PHENIX CITY	RUSSELL	AL	36869	BORAL BRICKS INC.	PO BOX 1178	COLUMBUS	GA		319021178	YES	NO	NO	NO	PAUL ZIMMERMAN	7068213650	3251	3271						327121						32.452986	-84.99644	003275682								BORAL INDUSTRIES INC.	026389254	NO		
2007	REGIONAL PRODUCTION MANAGER	W.F. TUDOR	35023BCKRSHOPEW	BORAL BRICKS INC. - BESSEMER P LANT 6	HOPEWELL RD	BESSEMER	JEFFERSON	AL	35021	BORAL BRICKS INC. -BESSEMER PLANT 6	PO BOX 517	BESSEMER	AL		350210517	YES	NO	NO	NO	PAUL ZIMMERMAN	7068495061	3251							327121						33.349444	-87.961111	026389254								BORAL INDUSTRIES INC.	026389254	NO	PAUL.ZIMMERMAN@BORAL.COM	
2007	REGIONAL PRODUCTION MANAGER	WILLIAM F. TUDOR	35023BCKRSVULCA	BORAL BRICKS INC. BESSEMER PLA NT 5	VULCAN RD	BESSEMER	JEFFERSON	AL	35022	BORALBRICKS INC. BESASEMER PL. 5	PO BOX 517	BESSEMER	AL		35021	YES	NO	NO	NO	PAUL ZIMMERMAN	7068495160	3251							327121						33.347122	-86.968643	003275682								BORAL INDUSTRIES	026389254	NO	PAUL.ZIMMERAN@BORAL.COM	
1988	BRANCH MANAGER	JOSEPH F. LITTLE	35401BRDNN17121	BORDEN INC. DAIRY	1712 16TH ST.	TUSCALOOSA	TUSCALOOSA	AL	35401	BORDEN INC. DAIRY	1712 16TH ST.	TUSCALOOSA	AL		35401	YES	NO	NO		JOE LITTLE	2057585516	2026							325199						33.199018	-87.559045	001338797								BORDEN INC.	001338797	NO		
1993	PLANT MANAGER	PAUL BOATWRIGHT	35901BRDNN702WA	BORDEN INC. DAIRY DIV.	702 WALNUT ST.	GADSDEN	ETOWAH	AL	35901	BORDEN INC. DAIRY DIV.	P.O. BOX 1278	GADSDEN	AL		35902	YES	NO	NO		PAUL BOATWRIGHT	2055472506	2026							311510						34.011401	-86.010067	041025073				IU3528179				BORDEN INC.	001338797	NO		
1993		DON MADDOX	36301BRDNN100WE	BORDEN INC. REFRIGERATED PRODUCTS	604 N. OATES ST.	DOTHAN	HOUSTON	AL	36302	BORDEN INC. REFRIGERATED PRODUCTS	1010 PLEASANT GROVE RD.	ASHFORD	AL		36312	YES	NO	NO		PRESTON THOMLEY	2059835420	2024							311520						31.230278	-85.393333	063694509		ALD983170697						BORDEN INC.	001338797	NO		
2007	PLANT MANAGER	JAMES MANN	35580BRNRC8425H	BOREN EXPLOSIVES CO INC	8425 HWY 269	PARRISH	WALKER	AL	35580	BOREN EXPLOSIVES CO INC	8425 HWY 269	PARRISH	AL		35580	YES	NO	NO	NO	JAMES D. MANN	2056865095	2892							325920						33.705833	-87.258889											NO		
2007	MILL MANAGER	WILLIAM A. WIGGINS	35950BWTRF660IN	BOWATER FOREST PRODUCTS DIV - ALBERTVILLE SAWMILL	660 INDUSTRIAL BLVD	ALBERTVILLE	MARSHALL	AL	35950	BOWATER FOREST PRODUCTS DIV - ALBERTVILLE SAWMILL	660 INDUSTRIAL BLVD	ALBERTVILLE	AL		35950	YES	NO	NO	NO	RANDY LILES	2568942317	2421							321113	321912					34.239903	-86.189517	197224579								BOWATER, INC. FOREST PRODUCTS DIV	001946011	NO	RANDY.LILES@ABITIBIBOWATER.COM	
2007	DECATUR PLANT MANAGER	DAVE HARNESS	35601MCCHMFINLE	BP AMOCO CHEMICALS	1401 FINLEY ISLAND RD	DECATUR	MORGAN	AL	35601	BP AMOCO CHEMICALS	P. O. BOX 2215	DECATUR	AL		356092215	YES	NO	NO	NO	BRENT BAILEY	2563062478	2865							325110	325192					34.643056	-87.05944	039596507								BP AMERICA INC.	039596507	NO		
2004	CORPORATE QA DIRECTOR	RUSSELL DUNNAM	36201BRDDC3008R	BRADDOCK METALLURGICAL INC	3008 RED MORRIS PKWY	ANNISTON	CALHOUN	AL	36207	BRADDOCK METALLURGICAL INC	3008 RED MORRIS PKWY	ANNISTON	AL		36207	NO	NO	NO	NO	MEL OSTRANDER	2568315199	3398							332811						33.628154	-85.788998	793762626										NO		
2005	GENERAL MANAGER, U.S. OPERATIONS	CALVIN WEIBE	36582BRDRS2879C	BREDERO SHAW LLC	8106 DAUPHIN ISLAND PKWY	THEODORE	MOBILE	AL	36582	BREDERO SHAW LLC	3838 N SAM HOUSTON PARK E.SUITE 300	HOUSTON	TX		77032	YES	NO	NO	NO	CALVIN WEIBE	2818862350	3479							332812						30.522	-88.107	122536696								SHAWCOR LTD	793873514	NO		
2000	VICE PRESIDENT OF OPERATIONS	DAVID B. GARNER	36863PBSCH1702S	BRENNTAG MID SOUTH INC.	1702 S. 4TH AVE.	LANETT	CHAMBERS	AL	36863	BRENNTAG MID SOUTH INC.	1405 HWY.136 W.	HENDERSON	KY		42420	YES	NO	NO	NO	DAVID LEIGH	2708301303	5169							424690						32.852549	-85.195717	041167107										NO		
2007	PLANT MANAGER	HAROLD SMITH	36830BRGGS150TE	BRIGGS & STRATTON CORP	150 TECHNOLOGY PKWY	AUBURN	LEE	AL	36830	BRIGGS & STRATTON CORP	150 TECHNOLOGY PKWY	AUBURN	AL		36830	YES	NO	NO	NO	DON PUCCI	5737762419	3519							333618						32.549068	-85.518068	152384483								BRIGGS & STRATTON CORP	152384483	NO	PUCCI.DON@BASCO.COM	
1997	PLANT MANAGER	JERRY CUMMINGS	35548BRLLNPOBOX	BRILLIANT HOMES	HWY. 129 N.	BRILLIANT	MARION	AL	35548	BRILLIANT HOMES	P.O. BOX 216	BRILLIANT	AL		35548	YES	NO	NO		GERALD BULL	2054652334	2451							321991						34.033611	-87.748889	966617896				ALG060299				BRILLIANT HOLDING CORP.	956466536	NO		
1997	MANAGER	TODD DYSTE	35207BRWNM3013N	BROWN MINNEAPOLIS TANK	3017 N. 35TH ST.	BIRMINGHAM	JEFFERSON	AL	35207	BROWN MINNEAPOLIS TANK	P.O. BOX 10785	BIRMINGHAM	AL		35207	YES	NO	NO		KELLY DORHOLT	6129382228	3443							327331						33.552637	-86.796087	405782141		ALD983178252						ASTROTECH INTERNATIONAL CORP	046716007	NO		
2007	VICE-PRESIDENT	FREDERICK G. HEATH	35574KNNDYHWY96	BROWN WOOD PRESERVING CO. INC.	16851 HWY 96 W	KENNEDY	LAMAR	AL	35574	BROWN WOOD PRESERVING CO. INC.	16851 HWY 96 W	KENNEDY	AL		35574	YES	NO	NO	NO	FREDERICK G. HEATH	5024482337	2491							321114						33.578028	-87.99975	037855137										NO	NA	
2007	VICE-PRESIDENT	FREDERICK G. HEATH	35476BRWNWCOUNT	BROWN WOOD PRESERVING CO. INC.	16591 BROWNVILLE RD	NORTHPORT	TUSCALOOSA	AL	35475	BROWN WOOD PRESERVING CO. INC.	16591 BROWNVILLE RD	NORTHPORT	AL		35475	YES	NO	NO	NO	FREDERICK G. HEATH	5024482337	2491							321114						33.395392	-87.7473	037855137										NO	NA	
1990	PLANT MANAGER	HARRISON B. WEST	35811BRDRR1619H	BRUDERER INC	1619 HWY 72 E	HUNTSVILLE	MADISON	AL	35811	BRUDERER INC	PO BOX 208	HUNTSVILLE	AL		35804	YES	NO	NO		BRUCE STALLINGS	2058594050	3542							333513						34.765988	-86.488134	095698551		ALD095698551		095698551						NO		
2007	OWNER	JOHNNY WRIGHT	36010BRNDD214NA	BRUNDIDGE ELECTRONICS CORP	214 NASSAU ST	BRUNDIDGE	PIKE	AL	36010	BRUNDIDGE ELECTRONICS CORP	PO BOX 127	BRUNDIDGE	AL		36010	YES	NO	NO	NO	DR. JOHNNY WRIGHT	3347353030	3679							334418						31.7232	-85.813679	613922442										NO	JWRIGHT@BECELECTRONICS.COM	
2007	VICE PRESIDENT MANUFACTURING	SCOTT PARKS	35209BFFLR111WO	BUFFALO ROCK CO	111 OXMOOR RD	BIRMINGHAM	JEFFERSON	AL	35209	BUFFALO ROCK CO	PO BOX 10048	BIRMINGHAM	AL		35202	YES	NO	NO	NO	CHARLIE PARKS	2059423435	2086							312111						33.458592	-86.83405											NO	CPARKS@BUFFALOROCK.COM	
2007	PLANT MANAGER	BRUCE DAHLGREN	36606BLDNG2400E	BUILDING MATERIALS MANUFACTURING CORP	2400 EMOGENE ST	MOBILE	MOBILE	AL	36606	BUILDING MATERIALS MANUFACTURING CORP	2400 EMOGENE	MOBILE	AL		36606	YES	NO	NO	NO	FRED BRIGHT	9736283507	2952							324122						30.682	-88.097									BUILDING MATERIALS CORP OF AMERICA		NO	FBRIGHT@GAF.COM	
2007	SR. ENV. SPECIALIST	ROBERT HENRICKS	35602BNGCR1400M	BUNGE NORTH AMERICA INC	1400 MARKET ST NE	DECATUR	MORGAN	AL	35602	BUNGE NORTH AMERICA INC	PO BOX 2248	DECATUR	AL		356092248	YES	NO	NO	NO	LOREN L POLAK	3142922374	2075	2079						311222						34.605176	-86.968354	013456322								BUNGE NORTH AMERICA INC	006981435	NO	LOREN.POLAK@BUNGE.COM	
1995	EXECUTIVE VP & GENERAL MANAGER	JAMES BEARDEN	36702BSHHG2501G	BUSH HOG CORP.	2501 GRIFFIN AVE.	SELMA	DALLAS	AL	367021039	BUSH HOG CORP.	P.O. BOX 1039	SELMA	AL		36702-1039	NO	NO	NO		G. WILLIAM SMITH	3348726261	3523							333111						32.416319	-87.004301	181405499		ALD044075109		ALG120100				ALLIED PRODUCTS CORP	048341408	NO		
1998	EXECUTIVE VP & GENERAL MGR.	JAMES BEARDEN	36702BSHHG1233S	BUSH HOG CORP.	1233 SELFIELD RD. SELFIELD INDL. PARK	SELMA	DALLAS	AL	36702	BUSH HOG	P.O. BOX 1039	SELMA	AL		36702	YES	NO	NO		GEORGE WILLIAM SMITH	3348726261	3523							333111						32.445833	-86.946389	043925911		ALD983176405		ALG120099				ALLIED PRODUCTS CORP	048341408	NO		
2001	PLANT MANAGER	MIKE NORTON	35218BTLRM931AV	BUTLER MANUFACTURING CO	931 AVE. W.	BIRMINGHAM	JEFFERSON	AL	35214	BUTLER MANUFACTURING CO	931 AVE. W.	BIRMINGHAM	AL		35214	YES	NO	NO		MIKE NORTON	2057916301								332311						33.520833	-86.877222	007122195		ALD004015731		ALG120292				BUTLER MANUFACTURING CO	007122195	NO		
2007	MANAGER	MAX CARROLL	35094CBPPN1710P	C & B PIPING	8804 PARKWAY DR	LEEDS	JEFFERSON	AL	35094	C & B PIPING	PO BOX 942	LEEDS	AL		35094	YES	NO	NO	NO	MAX CARROLL	2056990455	3498							423510	332996					33.5467	-86.51851											NO		
1988	VICE PRESIDENT OF MANUFACTURING	MR. JAMES F. SUTHERLAND	36201CMFFR501WE	C. M. OFFRAY & SON INC.	501 W. 21ST ST.	ANNISTON	CALHOUN	AL	36201	C. M. OFFRAY & SON INC.	501 W. 21ST ST.	ANNISTON	AL		36201	YES	NO	NO		R. ALEX MARLER JR.	2052367531	2241							313221						33.671618	-85.835804	044713501								C. M. OFFRAY & SON INC.	044713501	NO		
2001	GENERAL MANAGER	SCOTT DEKLE	36615CHRST2201P	C.S. INTEGRATED L.L.C.	2201 PERIMETER RD.	MOBILE	MOBILE	AL	366151130	C.S. INTEGRATED L.L.C.	2201 PERIMETER RD.	MOBILE	AL		36615-1130	NO	NO	NO		SCOTT DEKLE	2514323556	4222							424690						30.642222	-88.08194	073627341								PROLOGIS	844870840	NO		
2007	EVP - CFO	MARK HAM	35961CGLSNPOBOX	CAGLE'S INC COLLINSVILLE PROCESSING	764 GEORGE CAGLE DR	COLLINSVILLE	DEKALB	AL	35961	CAGLE'S INC COLLINSVILLE PROCESSING	PO BOX 376	COLLINSVILLE	AL		35961	YES	NO	NO	NO	GARY HUBBARD	4043552820	2015							311615						34.293778	-85.881833	040672750								CAGLE'S INC	003492519	NO	GHUBBARD@CAGLESINC.COM	
2007	PRESIDENT	KERMIT STEPHENS	35035CHBPRRT1BO	CAHABA PRESSURE TREATED FOREST PRODUCTS INC.	12755 MONTEVALLO RD	BRIERFIELD	BIBB	AL	35035	CAHABA PRESSURE TREATED FOREST PRODUCTS INC.	PO BOX 160	BRIERFIELD	AL		35035	YES	NO	NO	NO	AL WOODRUFF	2059269930	2491							321114						33.036861	-86.969972											NO	AL_WOODRUFF@MSN.COM	
2007	PRESIDENT	KERMIT STEPHENS	35035CHBPRHIGHW	CAHABA TIMBER CO	12755 MONTEVALLO RD	BRIERFIELD	BIBB	AL	35035	CAHABA TIMBER CO	PO BOX 160	BRIERFIELD	AL		35035	YES	NO	NO	NO	KERMIT STEPHENS	2059265966	2449							321920						33.036861	-86.969972											NO	AL_WOODRUFF@MSN.COM	
2005	GENERAL MANAGER	GALE V. SLOCUM	36260CLHNN72GRE	CALHOUN ENERGY CENTER	720 GREEN VALLEY DR	EASTABOGA	CALHOUN	AL	36260	CALHOUN ENERGY CENTER	720 GREEN VALLEY DR	EASTABOGA	AL		36260	YES	NO	NO	NO	GALE V SLOCUM	8042272096	4911							221122						33.5886	-85.9702	114790103								CALHOUN POWER COMPANY. LLC	114790103	NO		
2006	PLANT MANAGER	DAVID KESSLER	36027CRBCR36ARC	CARBO CERAMICS INC	36 ARCH DR	EUFAULA	BARBOUR	AL	36027	CARBO CERAMICS INC	36 ARCH DR	EUFAULA	AL		36027	YES	NO	NO	NO	DAVID KESSLER	3346877005	3295							212324						31.876144	-85.15538	151552437										NO		
2006	SENIOR PRODUCTION MANAGER	JOHN D. JONES	36108CRGLL3250F	CARGILL ANIMAL NUTRITION	3250 FITZPATRICK AVE	MONTGOMERY	MONTGOMERY	AL	36108	CARGILL ANIMAL NUTRITION	PO BOX 9407	MONTGOMERY	AL		361080407	YES	NO	NO	NO	JOHN D. JONES	9529841856	2048							311119						32.354477	-86.353122	006249189								CARGILL ANIMAL NUTRITION	006249189	NO		
2007	PLANT MANAGER SUPERINTENDENT	KEITH KUHLMAN	35976CRGLL2930L	CARGILL INC	2930 LAKE GUNTERSVILLE PARK DR	GUNTERSVILLE	MARSHALL	AL	35976	CARGILL INC	2930 LAKE GUNTERSVILLE PARK DR	GUNTERSVILLE	AL		35976	YES	NO	NO	NO	KEITH KUHLMAN	2565829942	2075							311222						34.34687	-86.289549	878470426				ALG150102	ALG150103			CARGILL INC.	006249189	NO	KEITH_KUHLMAN@CARGILL.COM	
2007	FACILITY MANAGER	MITCH GARDNER	35601MRCNFROUTE	CARGILL, INC.	1030 STATE DOCKS RD	DECATUR	MORGAN	AL	35601	CARGILL, INC.	1030 STATE DOCKS RD	DECATUR	AL		35601	YES	NO	NO	NO	JAMES HERON	2563514228	2046							311221						34.633139	-87.038333	006249189								CARGILL INC	006249189	NO	JAMES_HERON@CARGILL.COM	
2007	AREA OPERATIONS MANAGER	BOB PICOU	35137DRVLM599HW	CARMEUSE LIME & STONE INC.	599 HWY 31 S	SAGINAW	SHELBY	AL	35137	CARMEUSE LIME & STONE INC.	PO BOX 37	SAGINAW	AL		35137	YES	NO	NO	NO	LISA POTTS	4127770705	3274	1422						327410	327999					33.221944	-86.779722	074986035								CARMEUSE LIME INC	074986035	NO	LISA.POTTS@CARMEUSENA.COM	
2007	CORPORATE HEALTH AND SAFETY MANAGER	RANDY BAYLIFF	36108TRNTY1085P	CAROLINA STEEL GROUP LLC	1085 PARKER ST	MONTGOMERY	MONTGOMERY	AL	36108	CAROLINA STEEL GROUP LLC	PO BOX 20888	GREENSBORO	NC		27420	YES	NO	NO	NO	RANDY BAYLIFF	3362759711	3441							332312						32.354237	-86.362099									HIRSCHFELD HOLDINGS LP		NO	RBAYLIFF@CAROLINASTEEL.COM	
1994	DIVISION VICE PRESIDENT	DAVID BRANNER	35217RCRPN165GO	CARPENTER CO.	165 GOODRICH DR.	BIRMINGHAM	JEFFERSON	AL	35217	CARPENTER CO.	P.O. BOX 1070	TUPELO	MS		38802-1070	YES	NO	NO		CRAIG COOK	6015662392	3086							326150						33.628925	-86.732482	007045958		MSD007045958						CARPENTER CO.	003109444	NO		
1997	GEN. MGR.	MIKE TERRIAN	35563CRRGHHWY78	CARRIAGE HOMES	WEST CARRIAGE ST.	GUIN	MARION	AL	35563	CARRIAGE HOMES	P.O. BOX 69	GUIN	AL		35563	YES	NO	NO		JEFF SKAGGS	2054683066	2451							321991						33.984722	-87.920833	825634090				ALG060316				AMERICAN HOMESTAR CORP.	877001438	NO		
2007	PLANT MANAGER	PAUL ANDRZEJEWSKI	35768WTT00201TH	CARRIER HEAT TRANSFER PRODUCTS GROUP	201 THOMAS FRENCH DR	SCOTTSBORO	JACKSON	AL	35768	CARRIER HEAT TRANSFER PRODUCTS GROUP	201 THOMAS FRENCH DR	SCOTTSBORO	AL		35768	YES	NO	NO	NO	PAUL ANDRZEJEWSKI	2562597401	3585							333415						34.627987	-86.068731	783299050								UNITED TECHNOLOGIES CORP	001344142	NO	PAUL.ANDRZEJEWSKI@CARRIER.UTC.COM	
2007	OPERATIONS MANAGER	RANDY GRAVES	35055MCSHV24007	CASH ACME INC	2400 7TH AVE SW	CULLMAN	CULLMAN	AL	35055	CASH ACME INC	2400 7TH AVE SW	CULLMAN	AL		35055	YES	NO	NO	NO	RANDY GRAVES	2057758153	3494							332913						34.13328	-86.851771									RELIANCE WORLDWIDE CORP		NO		
2001	GENERAL MANAGER	MIKE TERRIAN	35570BCCNR10THA	CAVALIER MANUFACTURING BUCCANEER HOMES DIV.	10TH AVE. S.	HAMILTON	MARION	AL	35570	CAVALIER HOMES INC.	P.O. BOX 540	ADDISON	AL		35540	YES	NO	NO		ERIC DAVIS	2567479800	2451							321991						34.1122	-87.943944	175239649				ALG060278				CAVALIER HOMES INC.	118046796	NO		
2000	GENERAL MANAGER	MIKE TERRIAN	35594BCCNR490CO	CAVALIER MFG. BUCCANEER HOMES PLANT 2 DIV.	490 COMMERCE DR.	WINFIELD	MARION	AL	35594	C/O CAVALIER HOMES INC.	P.O. BOX 540	ADDISON	AL		35540	YES	NO	NO	NO			2451							321991						33.920092	-87.818844					ALG060279				CAVALIER HOMES INC.	118046796	NO		
2000	GENERAL MANAGER	MIKE TERRIAN	35594BCCNR601CO	CAVALIER MFG. BUCCANEER HOMES PLANT 3 DIV.	601 COUNTY HWY. 69	WINFIELD	MARION	AL	35594	C/O CAVALIER HOMES INC.	P.O. BOX 540	ADDISON	AL		35540	YES	NO	NO	NO			2451							321991						33.931944	-87.840278					ALG060309				CAVALIER HOMES INC.	118046796	NO		
2001	GENERAL MANAGER	BARRY MIXON	35540CVLRHHWY41	CAVALIER MFG. CAVALIER HOMES OF AL DIV.	HWY. 41 & 47 WILSON BLVD. 200	ADDISON	WINSTON	AL	35540	CAVALIER HOMES INC.	P.O. BOX 540	ADDISON	AL		35540	YES	NO	NO		ERIC DAVIS	2567479800	2451							321991						34.2322	-87.147	622791341				ALG060273				CAVALIER HOMES INC.	118046796	NO		
2001	GENERAL MGR.	RONNIE EMERSON	35565RVRCHHWY13	CAVALIER MFG. INC. RIVERCHASE HOMES DIV.	HWY. 13 N. INDL. PARK	HALEYVILLE	WINSTON	AL	35565	C/O CAVALIER HOMES INC.	P.O. BOX 540	ADDISON	AL		35540	YES	NO	NO		ERIC DAVIS	2567479800	2451							321991						34.237222	-87.493333					ALG060287				CAVALIER HOMES INC.	118046796	NO		
1999	GENERAL MANAGER	BARRY MIXON	35540CVLRHSARDI	CAVALIER MFG., CAVALIER HOMES OF ALABAMA, PLANT 3 DIV.	SARDIS RD.	ADDISON	WINSTON	AL	35540	CAVALIER HOMES OF ALABAMA ATTN: BEN LANGLEY	P.O. BOX 300	ADDISON	AL		35540	YES	NO	NO				2451							321991						34.236389	-87.66					ALG060286				CAVALIER HOMES INC.	118046796	NO		
1993	PLANT MGR.	H. D. CARLISLE	35550CBSRVHWY30	CBI SERVICES INC.	WALKER COUNTY HWY. 30	CORDOVA	WALKER	AL	35550	CBI SERVICES INC.	ST. GEORGE RD.	BOURBONNAIS	IL		60914	YES	NO	NO		STEVEN WILLIAMS	8159332200	3443							332313						33.752222	-87.161111	148352487		ALD000773432		AL0064726				CBI INDS. INC.	091785391	NO		
2007	PLANT MANAGER	LUIS G. LOPEZ	36732MDSCT1617A	CEMEX, INC. -DEMOPOLIS PLANT	1617 ARCOLA RD	DEMOPOLIS	MARENGO	AL	36732	CEMEX, INC.	PO BOX 832	DEMOPOLIS	AL		36732	YES	NO	NO	NO	LILLIAN DEPRIMO	8655415506	3241							327310						32.510041	-87.81162	189840945										NO	LILLIANF.DEPRIMO@CEMEX.COM	
2007	DIRECTOR OF OPERATIONS	BOB SMITH	36206CNTRL260CE	CENTRAL CASTINGS - TYCO FIRE & BUILDING PRODUCTS	260 CENTRAL CASTINGS DR	ANNISTON	CALHOUN	AL	36206	CENTRAL CASTINGS - TYCO FIRE & BUILDING PRODUCTS	260 CENTRAL CASTINGS DR	ANNISTON	AL		36206	YES	NO	NO	NO	TIM MCCUNE	2562380579	3321							331511						33.713324	-85.87825									TYCO INTERNATIONAAL		NO		
2007	TECHNICAL MANAGER	KEVIN DALRYMPLE	35640CRRWR201TH	CERRO WIRE & CABLE CO. INC.	1099 THOMPSON RD SE	HARTSELLE	MORGAN	AL	35640	CERRO WIRE & CABLE CO. INC.	1099 THOMPSON RD SE	HARTSELLE	AL		35640	YES	NO	NO	NO	KEVIN DALRYMPLE	2567732522	3357							331422	331421					34.411159	-86.894589	146710702										NO	KDALRYMPLE@CERROWIRE.COM	
2007	PLANT MANAGER	TERRY CLARK	35224THCLT1327E	CERTAINTEED CORP	1327 ERIE ST WYLAM	BIRMINGHAM	JEFFERSON	AL	35224	CERTAINTEED CORP	1327 ERIE ST WYLAM	BIRMINGHAM	AL		35224	YES	NO	NO	NO	TERRY CLARK	2057851145	2952							324122						33.498472	-86.917611	005092820								CERTAINTEED CORP	002358265	NO	TERRY.M.CLARK@SAINT-GOBAIN.COM	
2001	PRESIDENT/GENERAL MANAGER	JOHNNY MC KONE	35957CHNDL240DE	CHANDELEUR HOMES INC.	240 DENSON AVE.	BOAZ	MARSHALL	AL	359570557	CHANDELEUR HOMES INC.	P.O. BOX 557	BOAZ	AL		35957-0557	YES	NO	NO	NO	JOE SCHMIDT	2565939225	2451							321991						34.190647	-86.160059	196010409								CHAMPION ENTERPRISES INC.	175207422	NO		
1987	VICE PRESIDENT	BEN JOHNSON	36701CHPMNONERA	CHAPMAN CHEMICAL CO.	ONE RANGE ST.	SELMA	DALLAS	AL	36701	CHAPMAN CHEMICAL CO.	ONE RANGE ST.	SELMA	AL		36701	YES	NO	NO		MIKE WOOD	9013965151	2899													32.409482	-87.010981	063944045		ALD980802201						NOBEL IND. USA INC.	063944045	NO		
2007	PLANT MANAGER	TRACY SMITH	36015NNCMPUSHIG	CHAPMAN FOREST PRODUCTS	102 MAIN ST	CHAPMAN	BUTLER	AL	36015	CHAPMAN FOREST PRODUCTS	102 MAIN ST	CHAPMAN	AL		36015	YES	NO	NO	NO	TRACY SMITH	3343764221	2436	2421						321113	321212					31.670833	-86.704167									CHAPMAN FOREST PRODUCTS		NO	NA	
2007	VICE PRESIDENT, LEGAL AND COOPERATE AFFAIRS	BETH WOODARD	36548CHRLSCARSO	CHARLES R. LOWMAN POWER PLANT	4392 CARSON RD	LEROY	WASHINGTON	AL	36548	CHARLES R. LOWMAN POWER PLANT	PO BOX 10	LEROY	AL		36548	YES	NO	NO	NO	MARK INGRAM	3344273330	4911							221112						31.489833	-87.9215									POWERSOUTH ENERGY COOPERATIVE	006900005	NO	MARK.INGRAM@POWERSOUTH.COM	
1987	VICE PRESIDENT	JAMES E. MCGRAW	36732CHMFRHWY80	CHEM-FOUR FIRST LTD.	HWY. 80, DEMOPOLIS INDL. PARK	DEMOPOLIS	MARENGO	AL	36732	CHEM-FOUR FIRST LTD.	HWY. 80, DEMOPOLIS INDL. PARK	DEMOPOLIS	AL		36732	YES	NO	NO		JOHN F. PIETRANSKI	2052894750	2869	2834	3230											32.425564	-87.886293			ALD981754328		AL0048895				WESLEY IND. INC.		NO		
2007	GENERAL MANAGER	RONALD COOPER	35055PRLSS16112	CHEMCRAFT - AKZO NOBEL COATINGS INC	1611 22ND ST SE	CULLMAN	CULLMAN	AL	35055	CHEMCRAFT - AKZO NOBEL COATINGS INC	1431 PROGRESS AVE	HIGH POINT	NC		27261	YES	NO	NO	NO	NANCY GALLAGHER	3368415111	2851							325510						34.141821	-86.821803	003220522								AKZO NOBEL COATINGS INC.	062999347	NO		
2007	DIRECTOR OF ALABAMA MINING OPERATIONS	TIM HILDERMAN	35040CHMCL2885H	CHEMICAL LIME CO OF ALABAMA INC O'NEAL PLANT	2885 HWY 31 S	CALERA	SHELBY	AL	35040	CHEMICAL LIME CO OF ALABAMA INC O'NEAL PLANT	2885 HWY 31 S	CALERA	AL		35040	NO	YES	NO	NO	BRETT MALLORY	2054021544	3274							212312						33.175	-86.751944	003309630										NO	BRETT.MALLORY@CHEMICALLIME.COM	
2007	PLANT MANAGER	VINCE WILLIS	35007CHMCL404FI	CHEMICAL LIME CO OF ALABAMA INC. - ALABASTER PLANT	404 1ST AVE W	ALABASTER	SHELBY	AL	35007	CHEMICAL LIME CO OF ALABAMA INC. - ALABASTER PLANT	404 1ST AVE W	ALABASTER	AL		35007	YES	NO	NO	NO	VINCE WILLIS	2054021590	3274							327410						33.248113	-86.815322	003309630										NO	VINCE.WILLIS@CHEMICALLIME.COM	
2007	PLANT MANAGER	BYRON MYERS	35115CHMCL7444S	CHEMICAL LIME CO OF ALABAMA INC. - MONTEVALLO PLANT	7444 HWY 25 S	CALERA	SHELBY	AL	35040	CHEMICAL LIME CO OF ALABAMA INC. - MONTEVALLO PLANT	7444 HWY 25 S	CALERA	AL		35040	YES	NO	NO	NO	BYRON MYERS	2054021541	3274							327410						33.091944	-86.804444	003309630										NO	BYRON.MYERS@CHEMICALLIME.COM	
2007	FACILITY MANAGER	MIKE DAVIS	35459CHMCLHWY17	CHEMICAL WASTE MANAGEMENT	36964 ALABAMA HWY 17	EMELLE	SUMTER	AL	35459	CHEMICAL WASTE MANAGEMENT	PO BOX 55	EMELLE	AL		35459	YES	NO	NO	NO	VANESSA LEWIS	2056528140	4953							562211						32.796694	-88.310528	099202681								WASTE MANAGEMENT	047577416	NO	VLEWIS2@WM.COM	
2000	PRESIDENT	RUSSELL FAVORITE	35222CHMST10738	CHEMSTATION OF ALABAMA	107 38TH ST N	BIRMINGHAM	JEFFERSON	AL	35222	CHEMSTATION OF ALABAMA	PO BOX 320698	BIRMINGHAM	AL		35232-0698	YES	NO	NO	NO	JAYSON MOORE	2055928947	2841							325611						33.527647	-86.781127	967683426										NO		
2007	PRESIDENT	RUSTY FAVORITE	35020CHMST3021D	CHEMSTATION OF ALABAMA	3021 DUBLIN CIR	BESSEMER	JEFFERSON	AL	35020	CHEMSTATION OF ALABAMA	3021 DUBLIN CIR	BESSEMER	AL		35020	YES	NO	NO	NO	RUSTY FAVORITE	2054322290	2841							325611						33.370833	-86.9425	967683426										NO	RFAVORITE@CHEMSTATION.NET	
2007	PLANT MANAGER	ERIC WERNER	36507CRMPT43300	CHEMTURA CORP	43300 HWY 225	BAY MINETTE	BALDWIN	AL	36507	CHEMTURA CORP	PO BOX 147	BAY MINETTE	AL		36507	YES	NO	NO	NO	ERIC WERNER	2519372400	2869							325199						30.857417	-87.862528	018075895								CHEMTURA CORP	088400325	NO	ERIC.WERNER@CHEMTURA.COM	
2007	PLANT MANAGER	DON PHILLIPS	35616LRCHNHIGHW	CHEROKEE NITROGEN	1080 INDUSTRIAL DR PO BOX 250	CHEROKEE	COLBERT	AL	35616	CHEROKEE NITROGEN	1080 INDUSTRIAL DR PO BOX 250	CHEROKEE	AL		35616	YES	NO	NO	NO	DON PHILLIPS	2563597222	2873							325311						34.805	-87.93694	057203135								THERMACLIME, INC.	053902123	NO	DPHILLIPS@LSB-OKC.COM	
2007	TERMINAL MANAGER	JOHN BESSANT	35211BRMNG24002	CHEVRON BIRMINGHAM TERMINAL	2400 28TH ST SW	BIRMINGHAM	JEFFERSON	AL	35211	CHEVRON BIRMINGHAM TERMINAL	2400 28TH ST SW	BIRMINGHAM	AL		35211	YES	NO	NO	NO	PETER PRATHER	9258426142	5171							424710						33.45987	-86.878342									CHEVRON USA INC.	009140559	NO		
1992	OPERATIONS MANAGER	W. L. FOX	36633MBLSPBLAKE	CHEVRON MOBILE ASPHALT TERMINAL	BLAKELY ISLAND	MOBILE	MOBILE	AL	36633	CHEVRON MOBILE ASPHALT TERMINAL	P.O. BOX 1069	MOBILE	AL		36633	YES	NO	NO		DEBRA ADAMS	9087382038	2951							324121						30.705556	-88.033333			ALD008149908		AL0003565				CHEVRON USA INC.	009140559	NO		
1997	PLANT MGR.	NEWELL N. SMITH	35950CHNTC608MA	CHINET CO MANUFACTURING	608 MATHIS MILL RD.	ALBERTVILLE	MARSHALL	AL	35951	CHINET CO. MFG.	P.O. BOX 1548	ALBERTVILLE	AL		35950	YES	NO	NO		NEWELL SMITH	2058788900	2679							322299						34.288502	-86.208924	001094507		ALD983167990						VAN LEER HOLDING INC.	620761619	NO		
2006	VICE PRESIDENT & TREASURER	JEFF CRAWFORD	35601CHRTMRT2SH	CHORE-TIME CAGE SYSTEMS INC.	1303 SHOAL CREEK RD	DECATUR	MORGAN	AL	35601	CHORE-TIME CAGE SYSTEMS INC.	PO BOX 1908	DECATUR	AL		35601	YES	NO	NO	NO	LORI K. ROSE	5746585233	3496							332618						34.500278	-86.873333	078907946								CTB INC	078907946	NO		
2007	MANAGER REGULATORY AFFAIRS	MAURICE WARE	36653CBGGYGEIGY	CIBA CORP	1379 CIBA RD	MC INTOSH	WASHINGTON	AL	36553	CIBA CORP	1379 CIBA RD	MCINTOSH	AL		36553	YES	NO	NO	NO	DENISE TAYLOR	2514362000	2869	2865						325998						31.279	-87.9955	964253439								CIBA CORP	001221845	NO	NA	
2007	MATERIALS MANAGEMENT MANAGER	BEVERLY CREWS	36619CBSPC4505C	CIBA SPECIALITY CHEMICALS	4505 COMMERCE BLVD S	MOBILE	MOBILE	AL	36619	CIBA SPECIALITY CHEMICALS	4505 COMMERCE BLVD S	MOBILE	AL		36619	YES	NO	NO	NO	BRAD MASSEY	2514362335	2869							493190						30.572563	-88.142042	964253439								CIBA SPECIALITY CHEMICAL CO	964253439	NO	BRAD.MASSEY@CIBA.COM	
2006	CEO	ED BUKER	36507CTTNB43575	CITATION - BAY MINETTE	43575 NICHOLLSVILLE RD	BAY MINETTE	BALDWIN	AL	36507	CITATION - BAY MINETTE	PO BOX 1209	BAY MINETTE	AL		36507	YES	NO	NO	NO	PHILLIP GRAY	2052717411	3365							331524						30.85697	-87.767932	062450994								CITATION CORP	077966950	NO		
2007	GENERAL MANAGER	CHRIS KASUBA	36427LBMDC123ST	CITATION - BREWTON	210 ANN AVE	BREWTON	ESCAMBIA	AL	36426	CITATION - BREWTON	210 ANN AVE	BREWTON	AL		36426	YES	NO	NO	NO	CHRIS KASUBA	2518675481	3321							331511						31.101667	-87.071667	131979697								CITATION CORP	077966950	NO	NA	
2007	GENERAL MANAGER	JAMES E. LECROY	35051CTTNF130IN	CITATION - COLUMBIANA	130 INDUSTRIAL PARK RD	COLUMBIANA	SHELBY	AL	35051	CITATION - COLUMBIANA	PO BOX 230	COLUMBIANA	AL		35051	YES	NO	NO	NO	JAMES E. LECROY	2056695726	3321							331511						33.179553	-86.624311	131980083								CITATION CORP	077966950	NO	NA	
2007	GENERAL MANAGER	DAVID TANGERMAN	36756CTSTHRTE45	CITATION - MARION	HWY 45 S	MARION	PERRY	AL	36756	CITATION - MARION	PO BOX 670	MARION	AL		36756	YES	NO	NO	NO	BURT WILCHAR	3346836101	3321							331511						32.600556	-87.318889	615239027								CITATION CORP	077966950	NO	NA	
2007	GENERAL MANAGER	DAVID TANGERMAN	36701CTTNC1244S	CITATION CASTINGS LLC	1244 SELFIELD RD	SELMA	DALLAS	AL	36701	CITATION CASTINGS LLC	2217 CAROLINA AVE	BESSEMER	AL		35020	YES	NO	NO	NO	DAVID TANGERMAN	2054244030	3321							331511						32.446944	-86.944167	004006086								CITATION CORP	077966950	NO	NA	
2007	GENERAL MANAGER	DAVID TANGERMAN	35020STHRN2217C	CITATION CASTINGS LLC	2217 CAROLINA AVE	BESSEMER	JEFFERSON	AL	35020	CITATION CASTINGS LLC	2217 CAROLINA AVE	BESSEMER	AL		35020	YES	NO	NO	NO	DAVID TANGERMAN	2054244030	3321							331511						33.404139	-86.947293	004006086								CITATION CORP	077966950	NO	NA	
1995	GENERAL MANAGER	RAY LOUGH	35653CLRKPHWY24	CLARK PULLEY INDUSTRIES	HWY. 243 INDL. PARK	RUSSELLVILLE	FRANKLIN	AL	35653	CLARK PULLEY IND.	P.O. BOX 1204	RUSSELLVILLE	AL		35653	YES	NO	NO		MARK OTT	2053324981	3499							332510						34.4833	-87.7264	027328020		ALD021255088	ALDO21255088					AGRI-FAB INC.	079143426	NO		
2004		CAROLYN M. SMITH	35040CLRKS3309H	CLARK SUBSTATIONS LLC	3309 HWY 31	CALERA	SHELBY	AL	35040	CLARK SUBSTATIONS LLC	PO BOX 998	CALERA	AL		35040	YES	NO	NO	NO	CAROLYN SMITH	2056632411	3441							332312						33.172222	-86.754444	058627456				AL6120468						NO		
1992	MANAGER	GARY STYLES	35186SRCPLHIGHW	CLEAN COAL RESEARCH CENTER SOUTHERN CO. SERVICES INC.	HWY. 25 N.	WILSONVILLE	SHELBY	AL	35186	CLEAN COAL RESEARCH CENTER SOUTHERN CO. SERVICES INC.	800 SHADES CREEK PWY.	BIRMINGHAM	AL		35202	YES	NO	NO		CHARLES CANTRELL	2058706756	2999							324199						33.245583	-86.469028	031180987		ALD063687016		AL0057479				SOUTHERN CO.	006925341	NO		
2007	VICE PRESIDENT/GENERAL MANAGER	GARY HUDSON	35125SHLBY108PK	CMC IMPACT METALS	108 PKWY E	PELL CITY	ST CLAIR	AL	35125	CMC IMPACT METALS	108 PKWY E	PELL CITY	AL		35125	YES	NO	NO	NO	ALAN GILLESPIE	2055997939	3441							332811						33.591393	-86.251365	093331726								COMMERCIAL METALS CO	007925845	NO	ALAN.GILLESPIE@CMC.COM	
2007	VICE PRESIDENT	BRADLEY A. WARRICK	35772CSTLL21RIV	COASTAL LUMBER CO - STEVENSON	201 RIVER RD	STEVENSON	JACKSON	AL	35772	COASTAL LUMBER CO - STEVENSON	201 RIVER RD	STEVENSON	AL		35772	YES	NO	NO	NO	MANN PIPPEN	4342954048	2421							321113						34.8636	-85.8337									COASTAL LUMBER CO	003191079	NO	MPIPPEN@COASTALLUMBER.COM	
1998	VICE PRESIDENT/COMPLIANCE & RISK MANAGEMENT	T. FRED MELTON	36619CCCLB5300C	COCA-COLA BOTTLING CO CONSOLIDATED	5300 COCA-COLA RD	MOBILE	MOBILE	AL	36619	COCA-COLA BOTTLING CO CONSOLIDATED	5300 COCA-COLA RD	MOBILE	AL		36619	YES	NO	NO		LAUREN STEELE	7045514551	2086							312111						30.585487	-88.167704	008162935		ALD982094062		ALG150057		N/A		COCA-COLA BOTTLING CO CONSOLIDATED	057931230	NO		
1998	CORPORATE DIRECTOR/OPERATIONS SERVICES	JOHN P. HODGSON	36105CCCLB300CO	COCA-COLA BOTTLING CO MONTGOMERY	300 COCA-COLA DR	MONTGOMERY	MONTGOMERY	AL	36105	COCA-COLA ENTERPRISES INC	2500 WINDY RIDGE PKWY	ATLANTA	GA		30339	YES	NO	NO		JOHN H DOWNS	7709893775	2086							312111						32.289989	-86.342511	003396421				AL0048933				COCA-COLA ENTERPRISES INC	118267624	NO		
2001	VICE PRESIDENT OPERATIONS	BOBBY SPAIN	35570CLBYF236LA	COLBY FURNITURE INC	236 LAUREL LN	HAMILTON	MARION	AL	35570	COLBY FURNITURE INC	236 LAUREL LN	HAMILTON	AL		35570	YES	NO	NO	NO	BOBBY SPAIN	8002392600	2511							337122						34.142169	-87.973198	794773668		ALR000011254		ALG060348						NO		
2006	CORPORATE EHS MANAGER	JOHN E. MOORE	35768CMMSC117LE	COMMSCOPE INC SCOTTSBORO ALABAMA FACILITY	117 LEQUIRE ST	SCOTTSBORO	JACKSON	AL	35768	COMMSCOPE INC OF NORTH CAROLINA	PO BOX 1729	HICKORY	NC		286031729	YES	NO	NO	NO	JOHN E. MOORE	8283152998	3357							331422	335929	331491				34.63	-86.055	070626247								COMMSCOPE OF NORTH CAROLINA INC.	070626247	NO		
1996	SAFETY DIRECTOR	DENNIS WOODS	35217CNGRF155CL	CONAGRA FOOD SERVICES CO	155 CLEAGE DR	BIRMINGHAM	JEFFERSON	AL	35217	CONAGRA FOOD SERVICES CO	2475 MEADOWBROOK PKWY SUITE A  PO BOX 1389	DULUTH	GA		30096	YES	NO	NO		BRENT DOWNING	2058414100	2099							311999						33.624484	-86.741617	626092241								CONAGRA FOODS INC	007258908	NO		
2007	PLANT MANAGER	JOE FADOOL	35805CSTRN100EL	CONTINENTAL AUTOMOTIVE SYSTEMS US INC	100 ELECTRONICS BLVD SW	HUNTSVILLE	MADISON	AL	35824	CONTINENTAL AUTOMOTIVE SYSTEMS US INC	100 ELECTRONICS BLVD SW	HUNTSVILLE	AL		35824	YES	NO	NO	NO	PETER M. CAROZZA JR.	2564641492	3694	3679						336322						34.651293	-86.754055	155861768								CONTINENTAL AUTOMOTIVE SYSTEMS US INC.		NO	PETE.CAROZZA@CONTINENTAL-CORPORATION.COM	
2007	PLANT GENERAL MANAGER	NL LEE	36867WTCCRSTATE	CONTINENTAL CARBON CO PHENIX CITY	1500 E STATE DOCKS RD	PHENIX CITY	RUSSELL	AL	36869	CONTINENTAL CARBON CO PHENIX CITY	1500 E STATE DOCKS RD	PHENIX CITY	AL		36869	YES	NO	NO	NO	NL LEE	3342973675	2895							325182						32.433582	-84.970124									CONTINENTAL CARBON CO	008076697	NO	NA	
2007	VICE PRESIDENT OF OPERATIONS	ROBERT H WHEELER	35594CNTNN2164T	CONTINENTAL CONVEYOR & CRUSHING.	438 INDUSTRIAL DR	WINFIELD	MARION	AL	35594	CONTINENTAL CONVEYOR & CRUSHING	PO BOX 400	WINFIELD	AL		35594	YES	NO	NO	NO	JOE BEASLEY	2054876492	3535							333922						33.921346	-87.821913	N/A								JOY GLOBAL INC	153550793	NO	JBEASLEY@CONTINENTALCONVEYOR.COM	
1996	V.P. OPS.	LOTOHAR J. ZELL	36067CNTNN1BRID	CONTINENTAL EAGLE CORPORATION	201 GIN SHOP HILL RD	PRATTVILLE	AUTAUGA	AL	36067	CONTINENTAL EAGLE CORPORATION	PO BOX 1000	PRATTVILLE	AL		36067	YES	NO	NO		DENNIS CHARLES WORTH	3343658811	3599							333111						32.462017	-86.480884	155309271		ALD980844435		ALGIZ0134						NO		
1993	PLANT MANAGER	TIM ESSLINGER	35601CNTNNIPSCO	CONTINENTAL GRAIN WAYNE FARMS DECATUR DIV	IPSCO ST  RATLIFF INDUSTRIAL PARK	DECATUR	MORGAN	AL	356010000	CONTINENTAL GRAIN WAYNE FARMS DECATUR DIV	IPSCO ST  RATLIFF INDUSTRIAL PARK	DECATUR	AL		35601-0000	YES	NO	NO		MIKE BESTE	2053530312	2015							311615						34.608348	-87.044315	006982409		ALD983170879		XX0000000				CONTINENTAL GRAIN CO	006982409	NO		
2007	OPERATION MANAGER	JOSEPH GOLDEN	35055NCHLS2125S	COOPER TOOLS INC CULLMAN AL OPERATION	2125 2ND AVE SW	CULLMAN	CULLMAN	AL	35055	COOPER TOOLS INC	2000 INTERSTATE PARK DR	MONTGOMERY	AL		36109	YES	NO	NO	NO	DARREN SHEQUEN	2628962421	3423							332212						34.14254	-86.827924	113631225								COOPER US INC.	602755428	NO	DARREN.SHEQUEN@COOPERINDUSTRIES.COM	
2003	VP/GENERAL MANAGER NORTH AMERICAN STRUCTURAL	DAVID SEEGER	35212CPPRW1500N	COPPERWELD CORP BIRMINGHAM DIV	1500 N 50TH ST	BIRMINGHAM	JEFFERSON	AL	352121026	COPPERWELD CORP BIRMINGHAM DIV	1500 N 50TH ST	BIRMINGHAM	AL		35212-1026	YES	NO	NO	NO	JOE WIDEMAN	7736467878	3317							331210						33.548181	-86.761087	604078482		ALD004010864		ALG120138						NO		
1992	PRESIDENT	THOMAS M. BROUGHTON	36578CRRSNHWY13	CORROSION TECHNOLOGY INC	10955 HWY 138	BAY MINETTE	BALDWIN	AL	36507	CORROSION TECHNOLOGY INC	PO BOX 446	STAPLETON	AL		36578	YES	NO	NO		MITCHEL BROUGHTON	2159378025	3089							326199						30.845	-87.838333	621055771										NO		
2006	SENIOR VICE PRESIDENT	HOWARD S. WISEMAN	36037CRSTN200IN	CORSTONE INDUSTRIES LLC	200 INDUSTRIAL PKWY	GREENVILLE	BUTLER	AL	36037	CORSTONE INDUSTRIES LLC	200 INDUSTRIAL PKWY	GREENVILLE	AL		36037	YES	NO	NO	NO	HOWARD S. WISEMAN	5086999000	3088							326191						31.827333	-86.640692	035904346										NO		
2007	VP ENGINEERED FUELS/ CLEAN COALS	KEITH THOMPSON	35006CVLNG529MU	COVOL ENGINEERED FUELS LC CEF3	5290 MUD CREEK RD	ADGER	JEFFERSON	AL	35006	COVOL ENGINEERED FUELS LC CEF3	5290 MUD CREEK RD	ADGER	AL		35006	YES	NO	NO	NO	GINA RAU	8019843770								212111						33.374825	-87.119047	926255980								HEADWATERS, INC.	786195701	NO	GRAU@HEADWATERS.COM	
1992	PRESIDENT	LARRY CRAFT	35954CRFTP100UT	CRAFT PLATING CO INC	100 UTILITY AVE	ATTALLA	ETOWAH	AL	359549200	CRAFT PLATING CO INC	100 UTILITY AVE	ATTALLA	AL		35954-9200	YES	NO	NO		LARRY CRAFT	2055387154	3471							332813						33.988735	-86.120512	004022166		ALD052682762		AL 120064						NO		
1998	VP MANUFACTURING, PLANT MANAGER	DR. WOLFGANG BUDER	36582KYFRSRANGE	CREANOVA INC.	4301 DEGUSSA RD.	THEODORE	MOBILE	AL	36582	CREANOVA INC.	P.O. BOX 889	THEODORE	AL		36590	YES	NO	NO		BILL KLUTZ	3344434000	2869							325199						30.516214	-88.140944	161382841		ALD000608224		AL0060844				VEBA CORP.	063344022	NO		
1991	PLANT MANAGER	ROBERT A. VIGNES	36507CRSBYCROSB	CROSBY LUMBER CO INC	CROSBY RD	BAY MINETTE	BALDWIN	AL	36507	CROSBY LUMBER CO INC	CROSBY RD	BAY MINETTE	AL		36507	YES	NO	NO		ROBERT A VIGNES	2059375544	2491							321114						30.899878	-87.750442			ALD008173981								NO		
2001	COORDINATOR REGULATORY COMPLIANCE	JOHN R. FUNK	35211CRWNC2500N	CROWN CENTRAL PETROLEUM CORP	2500 NABORS RD	BIRMINGHAM	JEFFERSON	AL	35211	CROWN CENTRAL PETROLEUM CORP	2500 NABORS RD	BIRMINGHAM	AL		35211	YES	NO	NO	NO	GARY COMBS	2059253010	5171							424710						33.459076	-86.871897	003082401		ALD075454058		ALG340252						NO		
2007	PLANT MANAGER	KERRY STIGDON	35055CLLMN251CU	CULLMAN CASTING CORP	251 COUNTY RD 490	CULLMAN	CULLMAN	AL	35055	CULLMAN CASTING CORP	PO BOX 2310	CULLMAN	AL		35055	YES	NO	NO	NO	CHUCK REED	8123468776								331511						34.133333	-86.8275									NORTH VERNON INDUSTRY CORP		NO	NA	
1989	PRESIDENT	JOSEPH R. DANIEL	35564CLPPRHWY17	CULPEPER WOOD PRESERVERS	HWY. 172 W.	HACKLEBURG	MARION	AL	35564	CULPEPER WOOD PRESERVERS	P.O. BOX E	HACKLEBURG	AL		35564	YES	NO	NO		MICHAEL CAMPBELL	2059353171	2491							321114						34.277222	-87.828611	059165282		ALD000652800						JEFFERSON HOMEBUILDERS INC.	059165282	NO		
1990	PRESIDENT	W. LARRY HARPER	36351DHCHM707NJ	D & H CHEMICALS INC	707 NORTH JOHN ST	NEW BROCKTON	COFFEE	AL	36351	D & H CHEMICALS INC	707 NORTH JOHN ST	NEW BROCKTON	AL		36351	YES	NO	NO		W LARRY HARPER	2058945576	2842	2841						325612						31.393406	-85.921797	079124301										NO		
2007	V.P. / PLANT MANAGER	DAVID HENDRIXSON	35601DKNMRSTATE	DAIKIN AMERICA INC	905 STATE DOCKS RD	DECATUR	MORGAN	AL	35601	DAIKIN AMERICA INC	PO BOX 2252	DECATUR	AL		35609	YES	NO	NO	NO	RALPH WERLING	2563065000	2821							325211	325120					34.513889	-87.03944	796488302										NO	WERLING@DAIKIN-AMERICA.COM	
2007	PLANT MANAGER	GREG GUENIN	35555MRCNLFAYET	DAL-TILE CORP FAYETTE PLANT	1470 COUNTY RD 21 S	FAYETTE	FAYETTE	AL	35555	DAL-TILE CORP FAYETTE PLANT	1470 COUNTY RD 21 S	FAYETTE	AL		35555	YES	NO	NO	NO	GREG A GUENIN	2059328944	3253							327122						33.699444	-87.8725	966401846								MOHAWK INDUSTRIES	612757070	NO	GREG_GUENIN@MOHAWKIND.COM	
2002	INTERIM PLANT MANAGER	DANA DESKO	36108SPCRT3000S	DANA CORP.	3000 SELMA HWY.	MONTGOMERY	MONTGOMERY	AL	361085099	DANA CORP.	3000 SELMA HWY.	MONTGOMERY	AL		36108-5099	YES	NO	NO	NO	DANA DESKO	3342867027	3714							336399						32.311679	-86.354149	063665723		ALD063665723		ALG120252				DANA CORP.	005040555	NO		
2004	CORPORATE EHS MANAGER	CAROL SCHWEIGER	35215DYTNS1401M	DAYTON SUPERIOR CORP	1401 MEADOWCRAFT RD	BIRMINGHAM	JEFFERSON	AL	35215	DAYTON SUPERIOR CORP	1401 MEADOWCRAFT RD	BIRMINGHAM	AL		35215	YES	NO	NO	NO	CAROL SCHWEIGER	8473914933	3315	3441						332618						33.641228	-86.725322	041604463		ALR000024737								NO		
2007	ENVIRONMENTAL MANAGER	THOMAS GREEN	35673DWCLV431AI	DECATUR MILL SERVICE CO	4301A IVERSON BLVD	TRINITY	MORGAN	AL	35673	EDW C LEVY CO	8800 DIX AVE	DETROIT	MI		48209	YES	NO	NO	NO	THOMAS GREEN	2486750105	3295							212399	327999					34.630332	-87.095397									EDW. C. LEVY CO.	005364816	NO	TGREEN@EDWCLEVY.NET	
2001	SENIOR VICE PRESIDENT	ERIC G HANCOCK	35601DCTRT500MA	DECATUR TRANSIT INC	500 MARKET ST  NW	DECATUR	MORGAN	AL	35601	DECATUR TRANSIT INC	PO BOX 1784	DECATUR	AL		35602	YES	NO	NO	NO	ERIC HANCOCK	2563539601	5171							424710						34.620167	-86.987806	004033007				AL0061247						NO		
2007	PLANT MANAGER	BRYAN PICKETT	35601JMDND1200M	DEL MONTE-MEOW MIX	1200 MARKET ST	DECATUR	MORGAN	AL	35602	DEL MONTE-MEOW MIX	1200 MARKET ST	DECATUR	AL		35602	YES	NO	NO	NO	MIKE SMITH	2565527431	2047							311111						34.607407	-86.97197	609305040								DEL MONTE FOODS	013273581	NO	MIKE.SMITH@DELMONTE.COM	
2001	PLANT MANAGER	SCOTT A. KITKOWSKI	35401GNRLM3440K	DELPHI AUTOMOTIVE SYSTEMS LLC TUSCALOOSA FACILITY	3440 KAULOOSA AVE.	TUSCALOOSA	TUSCALOOSA	AL	35401	DELPHI AUTOMOTIVE SYSTEMS LLC TUSCALOOSA FACILITY	3440 KAULOOSA AVE.	TUSCALOOSA	AL		35401	YES	NO	NO	NO	KELLY KENNELTY SORICE	2488132985	3714							336399						33.179926	-87.562711	097751317		ALD097751317		AL0065013				DELPHI AUTOMOTIVE SYSTEMS LLC	043898092	NO		
2004	DIRECTOR, SOUTHEAST OPERATIONS	LARRY V. JOHNSON	36535DLPHP17195	DELPHI PACKARD ELECTRIC SYSTEMS	17195 US HWY 98 W	FOLEY	BALDWIN	AL	36535	DELPHI PACKARD ELECTRIC SYSTEMS	1001 INDUSTRIAL PKWY	CLINTON	MS		39060	YES	NO	NO	NO	LINSEY WILLIAMS	2488132528	3679							334418						30.406944	-87.730833	121614838		ALD128737350						DELPHI AUTOMOTIVE SYSTEMS LLC	043898092	NO		
2007	SITE MANAGER	CURT CARGILE	35611GNRLMUSHIG	DELPHI STEERING SYSTEMS - ATHE NS AL	U.S. HWY 31 S	ATHENS	LIMESTONE	AL	35611	DELPHI STEERING SYSTEMS - ATHE NS AL	U.S. HWY 31 S	ATHENS	AL		35611	YES	NO	NO	NO	DEBORAH L. AYERS	7164393245	3714							336330						34.646667	-86.954167	078960234								DELPHI AUTOMOTIVE SYSTEMS LLC	043898092	NO	DEBORAH.L.AYERS@DELPHI.COM	
2007	PLANT MANAGER	JOYCE LUKER	35904DLPHP4605A	DELPHI THERMAL & INTERIOR	4605 AIRPORT RD	GADSDEN	ETOWAH	AL	35904	DELPHI THERMAL & INTERIOR	4605 AIRPORT RD	GADSDEN	AL		35904	YES	NO	NO	NO	DANA PALARDY	2564134045	3714							336360						33.994843	-86.078522	878503655								DELPHI AUTOMOTIVE SYSTEMS	043898092	NO	DPALARDY@INTEVAPRODUCTS.COM	
2007	CORP. VP HUMAN RESOURCES	CHARLES SCHAUT	35653DSFML1769E	DESA FMI LLC	1769 E LAWRENCE ST	RUSSELLVILLE	FRANKLIN	AL	35653	DESA FMI LLC	1769 E LAWRENCE ST	RUSSELLVILLE	AL		35653	YES	NO	NO	NO	MIKE DAVIS	2563311657	3433	2499						333414						34.503569	-87.75307	126673404								DESA LLC	126673404	NO	MDAVIS@DESAINT.COM	
2005	PRESIDENT	MIKE CARLSON	35209DWBRR248OX	DEWBERRY ENGRAVING	248 OXMOOR CT	BIRMINGHAM	JEFFERSON	AL	35209	DEWBERRY ENGRAVING	248 OXMOOR CT	BIRMINGHAM	AL		35209	YES	NO	NO	NO	GREG JACKSON, COUNSEL	5076252828	2752							323110						33.441146	-86.844168	827211947								TAYLOR CORP	006175806	NO		
2000	PRESIDENT	RON ERWIN	35601DMNDWIPSCO	DIAMOND WOOD TREATERS	116 IPSCO RD.	DECATUR	MORGAN	AL	35602	ERWIN INDS.	P.O. BOX 2689	PEACHTREE CITY	GA		30269-2689	YES	NO	NO	NO	HORACE GARDNER	2566549675	2491							321114						34.608056	-87.04	792851123		ALD983190562		AL0067482						NO		
1995	VICE PRESIDENT OPERATIONS	DENNIS SABAU	36803DVRSF309WI	DIVERSIFIED PRODS. CORP.	309 WILLIAMSON AVE.	OPELIKA	LEE	AL	36803	DIVERSIFIED PRODS. CORP.	309 WILLIAMSON AVE.	OPELIKA	AL		36803	YES	NO	NO		DAVE NEWTON PH. D.	3347451541	3949							339920						32.625592	-85.377423	003301884		ALD003301884		ALG120126				ROADMASTER IND. INC.		NO		
1992	VICE PRESIDENT	DENNIS SABAU	36803DPCTB200TR	DIVERSIFIED PRODUCTS CORP. TUBE MILL	200 TROXEL ST.	OPELIKA	LEE	AL	36803	DIVERSIFIED PRODUCTS CORP. TUBE MILL	200 TROXEL ST.	OPELIKA	AL		36803	YES	NO	NO		SONNY CREWS	2057451131	3949							339920						32.6256	-85.376833	003301884		ALD981025604						DIVERSIFIED PRODUCTS CORP.	003301884	NO		
2007	VICE PRESIDENT	TRAVIS JOHNSON	35211DXCLT37WPA	DIXIE CULTURED MARBLE CO INC	37 W  PARK CIR	BIRMINGHAM	JEFFERSON	AL	35211	DIXIE CULTURED MARBLE CO INC	37 W  PARK CIR	BIRMINGHAM	AL		35211	YES	NO	NO	NO	TRAVIS JOHNSON	2059423004	3281							238290	238340					33.460489	-86.843013	621446756										NO	DCM1TWJ@HIWAAY.NET	
1994	CEO	JOE TRULOVE	35201DXVLT13152	DIXIE VAULT CO. INC.	1351 26TH AVE. N.	BIRMINGHAM	JEFFERSON	AL	35201	DIXIE VAULT CO. INC.	1351 26TH AVE. N.	BIRMINGHAM	AL		35201	YES	NO	NO		WILLIAM J. BISCHOFF	2052522836	3995							339995						33.542012	-86.832942			ALD982082448						DIXIE VAULT CO. INC.		NO		
1989	OWNER	BETTY MCBRIDE	36551DXWDP30441	DIXIE WOOD PRESERVING	30441 STATE HWY. 59 N.	LOXLEY	BALDWIN	AL	36551	DIXIE WOOD PRESERVING	30441 STATE HWY. 59 N.	LOXLEY	AL		36551	YES	NO	NO		BETTY MCBRIDE	2054731664	2491							321114						30.6466	-87.7449											NO		
2006	PRESIDENT	FRANK GLOVER	35901NTDXP1700W	DIXIE-PACIFIC MANUFACTURING CO	1700 W GRAND AVE	GADSDEN	ETOWAH	AL	35901	DIXIE-PACIFIC MANUFACTURING CO	1700 W GRAND AVE	GADSDEN	AL		35901	YES	NO	NO	NO	AJ WOODS	2564424513	2431	3086	3299					321918	327420	326150				33.991389	-86.080278	118047315								FORTUNE BRANDS	001265768	NO		
1991	PLANT MANAGER	ROYCE THACKER	35660DHLRJ2017F	DOEHLER JARVIS LP PARTNER	2017 FORD RD	SHEFFIELD	COLBERT	AL	35660	DOEHLER JARVIS LP PARTNER	MPO BOX 902	TOLEDO	OH		43697-0902	NO	YES	NO		ROBERT J JACOBSON	4194708067	3363	3365						331521						34.762169	-87.604128	161389523				IU0817313						NO		
1988	PLANT MANAGER	HARRY GEORGE	36303DMCNR517DR	DOMCO ENERGY INC.	517 DRAFT AVE.	DOTHAN	HOUSTON	AL	363035738	DOMCO ENERGY INC.	517 DRAFT AVE.	DOTHAN	AL		36303-5738	YES	NO	NO		KENNETH DRINKWATER	2057932148	4911							221100						31.262361	-85.404222	144586922				AL0052809				DOTHAN OIL MILL CO. INC.	003397346	NO		
2007	PLANT MANAGER	JAMES NOREAULT	36830DNLDS246EN	DONALDSON CO INC.	246 ENTERPRISE DR	AUBURN	LEE	AL	36830	DONALDSON CO INC.	246 ENTERPRISE DR	AUBURN	AL		36830	YES	NO	NO	NO	JIM NOREAULT	3348877411	3714	3523	3531	3599				333111	333999	333120				32.550801	-85.517376	006477301								DONALDSON CO INC.	006477301	NO	NA	
2003	HUMAN RESOURCE MANAGER	PHILLIP MORRIS	35565CLDWLHWY5	DOOR COMPONENTS LLC	HWY 5 N INDUSTRIAL PARK	HALEYVILLE	WINSTON	AL	35565	DOOR COMPONENTS LLC	PO BOX 336	HALEYVILLE	AL		35565	YES	NO	NO	NO	PHILLIP MORRIS	2054852261	2511							337000						34.238333	-87.657778			ALD983191297		ALG990013						NO		
2007	MANAGING PARTNER	ALLEN KNIGHT	35565DRCMP28NIN	DOOR COMPONENTS LLC	280 N INDUSTRIAL LOOP	HALEYVILLE	MARION	AL	35565	DOOR COMPONENTS LLC	PO BOX 336HIGHWAY 5 INDUSTRIAL PARK	HALEYVILLE	AL		35565	YES	NO	NO	NO	PHILLIP MORRIS	2054852261								321912						34.240084	-87.656818											NO	PHILLIP@DOORCOMPONENTSLLC.COM	
1995	GENERAL MANAGER	RONALD G. HULSE	35640YNGDR200YO	DOORCRAFT OF ALABAMA	1101 YOUNG DR.	HARTSELLE	MORGAN	AL	356400757	DOORCRAFT OF ALABAMA	P.O. BOX 757	HARTSELLE	AL		35640-0757	YES	NO	NO		KAREN OLSEN	5418857420	2431							321918						34.416667	-86.918333	009040288		ALD982146664		ALG060064				JELD-WEN INC.	009040288	NO		
2002	CHIEF FINANCIAL OFFICER	TASHA DOLAN	36323DRSYT1409H	DORSEY TRAILERS INC	1315 HICKMAN AVE	ELBA	COFFEE	AL	36323	DORSEY TRAILERS INC	1315 HICKMAN AVE	ELBA	AL		36323	YES	NO	NO	NO	TASHA DOLAN	3348975711	3715							336212						31.414299	-86.074771	037524761		ALD003397643								NO		
1993	CORPORATE ENVIRONMENTAL MANAGER	RAYMOND L. OSBORNE	36868DGLSLSTATE	DOUGLAS & LOMASON CO.	STATE DOCK RD.	PHENIX CITY	RUSSELL	AL	36868	DOUGLAS & LOMASON CO.	P.O. BOX 20783, ATLANTA AIRPORT	ATLANTA	GA		30320-0783	YES	NO	NO		RAYMOND L. OSBORNE	4043497000	3714							336000						32.431667	-84.996111	091412627		ALD091412627		ALG120123				DOUGLAS & LOMASON CO.	005358122	NO		
2007	VICE PRESIDENT	PAUL ROSS	35125DGLSM300IN	DOUGLAS MANUFACTURING	300 INDUSTRIAL PARK DR	PELL CITY	ST CLAIR	AL	35125	DOUGLAS MANUFACTURING	300 INDUSTRIAL PARK DR	PELL CITY	AL		35125	YES	NO	NO	NO	PAUL ROSS	2058841200	3535							333922						33.601595	-86.261511											NO	PROSS@DOUGLASMANUFACTURING.COM	
1999	PRESIDENT	JIMMY DOVER	35549DVRFR240SW	DOVER FURNITURE MANUFACTURING INC	240 SW 1ST AVE	CARBON HILL	WALKER	AL	35549	DOVER FURNITURE MANUFACTURING INC	PO BOX 167	ARLEY	AL		35541	YES	NO	NO		DON TINKER	2053843251	2511							337122						33.888208	-87.530656											NO		
1998	VICE-PRESIDENT OF OPERATIONS, ALABAMA AND CT	ROBERT FRANCIS	36078DWNTD3951A	DOW UNITED TECHNOLOGIES  COMPOSITE PRODUCTS INC	3951 ALABAMA HWY 229	TALLASSEE	ELMORE	AL	36078	DOW UNITED TECHNOLOGIES  COMPOSITE PRODUCTS INC	3951 ALABAMA HWY 229	TALLASSEE	AL		36078	YES	NO	NO		JUDITH TEACH	2039495279	3728							336413						32.484167	-85.888056	609913538		ALD980843999								NO		
2007	ENVIRONMENTAL AFFAIRS MGR	JOY MONTANIO	36614JNSCH1200J	DPC ENTERPRISES LP	1200 JARVIS RD	MOBILE	MOBILE	AL	36614	DPC ENTERPRISES LP	PO BOX 24600	HOUSTON	TX		772294600	YES	NO	NO	NO	JOY MONTANIO	2814574835	5169	2819						424690						30.748972	-88.06925	028274137										NO	JMONTANIO@DXGROUP.COM	
1989	VICE PRESIDENT	JOHN MANSFIELD	36803DPCWYSOCIE	DPC WYNMOR DIV.	SOCIETY HILL RD.	OPELIKA	LEE	AL	36803	DPC WYNMOR DIV.	SOCIETY HILL RD.	OPELIKA	AL		36803	YES	NO	NO		DOUG SMITH	2057499001	3949							325000						32.626389	-85.384722	003301884								DIVERSIFIED PRODUCTS CORP.	003301884	NO		
1988	MANAGER MANUFACTLURING SERVICES	J. M. HINDE	35064HRBSNPLEAS	DRESSER INDUSTRIES INC. HARBISON-WALKER REFRACTORIES	PLEASANT GROVE RD.	FAIRFIELD	JEFFERSON	AL	35020	DRESSER INDUSTRIES INC. HARBISON-WALKER REFRACTORIES	PLEASANT GROVE RD.	FAIRFIELD	AL		35020	YES	NO	NO		K. A. LUNDBERG	2057872691	3255							327124						33.494945	-86.933532	074978560		ALD000737494		AL0001864				DRESSER INDUSTRIES INC.	074978560	NO		
2007	VICE PRESIDENT/GENERAL MANAGER	GARY SMITH	35805PNTST110WY	DRS TEST & ENERGY MANAGEMENT	110 WYNN DR	HUNTSVILLE	MADISON	AL	35807	DRS TEST & ENERGY MANAGEMENT	110 WYNN DR	HUNTSVILLE	AL		35807	YES	NO	NO	NO	RHODA CASTLEBERRY	2568952102	3679							334418						34.714362	-86.655808	183460781										NO	RCASTLE@DRS-TEM.COM	
2007	MANAGER ENGINEERING & ENVIRONMENTAL CONTROL	W.M. POLING	35217BCCKDRAILR	DRUMMOND CO INC ABC COKE DIV	ONE RAILROAD AVE	TARRANT CITY	JEFFERSON	AL	35217	DRUMMOND CO INC ABC COKE DIV	PO BOX 10246	BIRMINGHAM	AL		35202	YES	NO	NO	NO	W.M. POLING	2058491342	3312							331111						33.577278	-86.782	067103432								DRUMMOND CO INC	067103432	NO	MPOLING@ABCCOKE.COM	
2007	MANAGER OF ENVIRONMENTAL AFFAIRS	FADI MOURAD	35217DTRDM9HUNT	DTE RED MOUNTAIN LLC	900 HUNTSVILLE AVE	TARRANT CITY	JEFFERSON	AL	35217	DTE ENERGY	414 S MAIN ST	ANN ARBOR	MI		48104	YES	NO	NO	NO	KIMBERLY J BRADFORD	7343028206	2999							324199						33.57674	-86.782351	876235490								DTE ENERGY	839329158	NO	BRADFORDKJ@DTEENERGY.COM	
2007	SECRETARY/TREASURER	BERRY DUDLEY	36874DDLYL8775H	DUDLEY LUMBER CO	8775 HWY 280 E	SALEM	LEE	AL	36874	DUDLEY LUMBER CO	PO BOX 7	SALEM	AL		36874	YES	NO	NO	NO	BERRY DUDLEY	3347454695	2421							321999						32.521882	-85.26066											NO	KATHYCLANTON@HOTMAIL.COM	
2007	VICE PRESIDENT - ENVIRONMENTAL	GLEN MCCARTY	36303DNBRT1101T	DUNBARTON CORP REDIFRAME DIV	1101 TECHNOLOGY DR	DOTHAN	HOUSTON	AL	36302	DUNBARTON CORP REDIFRAME DIV	1101 TECHNOLOGY DR	DOTHAN	AL		36302	YES	NO	NO	NO	LAURA DEAL	3347940661	3442							332321						31.277222	-85.406667	155311285								CGF INDUSTRIES	155311285	NO	LAURAD@DUNBARTON.COM	
2001	VICE PRESIDENT MANUFACTURING	OSCAR E. HUGHES	36302DNBRT868MU	DUNBARTON CORP. SLIMFOLD DIV.	868 MURRAY RD.	DOTHAN	HOUSTON	AL	363035718	DUNBARTON CORP. SLIMFOLD DIV.	P.O. BOX 6416	DOTHAN	AL		36302-6416	YES	NO	NO	NO	OSCAR HUGHES	3347940661	3442							332321						31.257027	-85.403854	155311285		ALD067139337		ALG120257				CGF INDUSTRY	155311285	NO		
2007	PLANT MANAGER	BETH F. BASHAM	36505DPNTMHIGHW	DUPONT MOBILE PLANT	12650 HWY 43	AXIS	MOBILE	AL	365050525	DUPONT MOBILE PLANT	PO BOX 525	AXIS	AL		365050525	YES	NO	NO	NO	STEVEN R. MCLAUGHLIN	2516795296	2879	2869						325320	325199	325193	325188	325120	325110	30.954444	-88.01888	093179315								E. I. DU PONT DE NEMOURS & CO. INC.	001315704	NO		
2007	PRESIDENT	HINTON HALL	36331DRCST201NI	DURA-CAST, INC.	201 INDUSTRIAL PARK RD	ENTERPRISE	COFFEE	AL	36331	DURA-CAST, INC.	PO BOX 311287	ENTERPRISE	AL		36331	YES	NO	NO	NO	HINTON HALL	3343472076	3369							331528						31.2916	-85.8498	093181998										NO	THALL@DURA-CAST.COM	
2002	VP	ROGER YARBOROUGH	35179DYNSTHWY31	DYNASTY BOATS INC	21145 US HWY 31	VINEMONT	CULLMAN	AL	35179	DYNASTY BOATS INC	PO BOX 310	VINEMONT	AL		35179	YES	NO	NO	NO	CHARLES PADGETT	2567394182	3732							336612						34.272222	-86.881667	114301534		ALD114301534		ALG140397						NO		
1994	PRESIDENT	EDWARD S. ROBBINS III	35662SRBBN2802A	E S ROBBINS CORP	2802 E AVALON AVE	MUSCLE SHOALS	COLBERT	AL	35662	E S ROBBINS CORP	2802 E AVALON AVE	MUSCLE SHOALS	AL		35662	YES	NO	NO		WILLIAM G NEWMAN	2053830124	3081							326113						34.744962	-87.628447	041025032		ALD983171844		ALG200014						NO		
2005	PLANT MANAGER	MICHAEL L JONES	36601GLCHMTELEG	EAGLE CHEMICAL CO	1500 TELEGRAPH RD	MOBILE	MOBILE	AL	36610	EAGLE CHEMICAL CO	PO BOX 107	MOBILE	AL		36601	YES	NO	NO	NO	MICHAEL L. JONES	2514529624	2819							325188						30.753861	-88.069472	004233532		AL008149429		AL0025283						NO		
2007	SECRETARY/TREASURER	BERRY DUDLEY	36862STLBM15204	EAST ALABAMA LUMBER CO INC.	15204 U.S. HWY 431	LAFAYETTE	CHAMBERS	AL	36862	EAST ALABAMA LUMBER CO INC.	PO BOX 110	LAFAYETTE	AL		36862	YES	NO	NO	NO	BERRY DUDLEY	3348648304	2421							321999						32.878056	-85.402778											NO	KATHYCLANTON@HOTMAIL.COM	
2002	PRESIDENT	JOHN B. LANKFORD	35222STBRM831NO	EAST BIRMINGHAM BRONZE FOUNDRY INC	831 NORTH 36TH WAY	BIRMINGHAM	JEFFERSON	AL	35222	EAST BIRMINGHAM BRONZE FOUNDRY INC	PO BOX 11102	BIRMINGHAM	AL		35202	YES	NO	NO	NO	JOHN B LANKFORD	2055950584	3365							331524						33.534755	-86.785008	003396850		ALD003396850								NO		
2002	SITE MANAGER	ANTHONY DEBBOLI	35474LWTRNCRACK	EASTMAN RESINS INC.	12982 CRACKER RD.	MOUNDVILLE	TUSCALOOSA	AL	35474	EASTMAN RESINS INC.	P.O. BOX 128	MOUNDVILLE	AL		35474	YES	NO	NO	NO	ANTHONY DEBBOLI	2629477314	2821							325211						33.009722	-87.625278	004034138		ALD004034138		AL0026921				EASTMAN CHEMICAL CO.	005121157	NO		
1994	PLANT MANAGER	MICHAEL B. THOMPSON	35611TNCRP200EA	EATON CORP.	200 E. ELM ST.	ATHENS	LIMESTONE	AL	35611	EATON CORP.	P.O. BOX 951	ATHENS	AL		35611	YES	NO	NO		S.A. MITCHELL, JR.	2052328300	3822							334512						34.819514	-86.966654	037483740		ALD044075919		ALG120229				EATON CORP.	004155818	NO		
1999	GENERAL MANAGER AND VICE PRESIDENT	LANDERS SEVIER, IV	35233BSCMD801FI	EBSCO MEDIA	801 FIFTH AVE. S.	BIRMINGHAM	JEFFERSON	AL	352331102	EBSCO MEDIA	801 FIFTH AVE. S.	BIRMINGHAM	AL		35233-1102	YES	NO	NO		MARK LETSON	2052268507	2752	2759						337127						33.500261	-86.81798	003396256		ALD983169111						EBSCO INDUSTRIES INC	003396256	NO		
2002	PLANT MANAGER	JIMMY OWENS	35986GSLCT1369M	EGS ELECTRICAL GROUP	1369 MAIN ST. E.	RAINSVILLE	DEKALB	AL	35986	EGS ELECTRICAL GROUP	1369 MAIN ST. E.	RAINSVILLE	AL		35986	YES	NO	NO	NO	KIM POE	2566389640	3612	3629						335311						34.483409	-85.820501	005121686		ALD041380973						EMERSON ELECTRIC CO.	006269633	NO		
1992	OPERATIONS MANAGER	GLEN HOSMER	35220LCTRCPOBOX	ELECTRICAL EQUIPMENT INC.	4280 PINSON VALLEY PKY.	BIRMINGHAM	JEFFERSON	AL	35215	ELECTRICAL EQUIPMENT INC.	4280 PINSON VALLEY PKY.	BIRMINGHAM	AL		35215	YES	NO	NO		GLEN HOSMER	2058531443	3613							335313						33.643196	-86.723351			ALD057390601		ALG120039				ELECTRO-MECHANICAL CO.	053983961	NO		
1989		MICHAEL D. PARKER	35115LCTRCHWY25	ELECTRICAL SPECIALTY PRODS. CO.	HWY. 25 S.	MONTEVALLO	SHELBY	AL	35115	ELECTRICAL SPECIALTY PRODS. CO.	HWY. 25 S.	MONTEVALLO	AL		35115	YES	NO	NO		MICHAEL D. PARKER	2056651286	3643	3362	3429					335931						33.1385	-86.8946	055158992		ALD055158992		AL0055611				WESTINGHOUSE ELECTRIC CORP.	001343953	NO		
1993	PRESIDENT	JAMES R. STEPHENSON	35603LCTRDHWY31	ELECTRO DESIGN MANUFACTURING INC	HWY 31 S	DECATUR	MORGAN	AL	35603	ELECTRO DESIGN MANUFACTURING INC	PO BOX 2208	DECATUR	AL		35609-2208	YES	NO	NO		FAITH ASHWANDER	2053533855	3670							334119						34.515833	-86.969722	139659080		ALD982086209								NO		
1999	PLANT MANAGER	CHARLES H ROBERTS	35761LMNTL2816W	ELEMENTAL CORPORATION	2816 WINCHESTER RD	NEW MARKET	MADISON	AL	35761	ELEMENTAL CORPORATION	PO BOX 2112	HUNTSVILLE	AL		35804	YES	NO	NO				2899							325998						34.827998	-86.47163	128170032										NO		
2007	PLANT MANAGER	RANDY HUGHES	35401LKCRP4600S	ELK CORP OF ALABAMA	4602 STILLMAN BLVD	TUSCALOOSA	TUSCALOOSA	AL	35401	ELK CORP OF ALABAMA	4602 STILLMAN BLVD	TUSCALOOSA	AL		35401	YES	NO	NO	NO	MIKE REED	2053420287	2952							324122						33.201472	-87.599833	626490908								ELKCORP	008409070	NO	MIKE.REED@ELKCORP.COM	
2007	MAINTENANCE SUPERVISOR	ED SCHREIER	35903MCNC 201IN	EMCO, INC./STAMPED PRODUCTS	201 INDUSTRIAL PKWY	GADSDEN	ETOWAH	AL	35903	EMCO, INC./STAMPED PRODUCTS	201 INDUSTRIAL PKWY	GADSDEN	AL		35903	YES	NO	NO	NO	ED SCHREIER	2564928890	3498							332996						33.987718	-85.961787	094483591								MID-SOUTH INDUSTRIES INC.		NO	ESCHREIER@MSI-MFG.COM	
2004	VICE PRESIDENT & GENERAL MANAGER	JAMES L. HANSEN	35404MPRCKENDOF	EMPIRE COKE CO	3200 MAIN ST NE	TUSCALOOSA	TUSCALOOSA	AL	35404	EMPIRE COKE CO	1201 VANDERBILT RD	BIRMINGHAM	AL		35234	YES	NO	NO	NO	JAMES L HANSEN	2052414313	3312							324199						33.243361	-87.49625	113381628		ALD004009007		AL0001767				MCWANE INC	004001715	NO		
2007	MANAGER ENGINEERING & MAINTENANCE	A. GERALD HAND	35125NRGYB25BAM	ENERGY ABSORPTION SYSTEMS INC	250 BAMBERG DR	PELL CITY	ST CLAIR	AL	35125	ENERGY ABSORPTION SYSTEMS INC	250 BAMBERG DR	PELL CITY	AL		35125	YES	NO	NO	NO	GERALD HAND	2058841532	3499							332999						33.593145	-86.241756									QUIXOTE TRANSPORTATION SAFETY		NO	GHAND@ENERGYABSORPTION.COM	
2007	SECRETARY	ROLF ENGH	35215MDLND90CAR	ENGINEERED POLYMER SOLUTIONS I NC. D/B/A VALSPAR COATINGS	90 CARSON RD	BIRMINGHAM	JEFFERSON	AL	35215	ENGINEERED POLYMER SOLUTIONS I NC. D/B/A VALSPAR COATINGS	90 CARSON RD	BIRMINGHAM	AL		35215	YES	NO	NO	NO	MARC JUAIRE	6123757772	2821	2851						325510						33.657732	-86.713892	143183494								THE VALSPAR CORP	050736453	NO	MJUAIRE@VALSPAR.COM	
2007	GENERAL MANAGER	TIMOTHY ESSLINGER	36027CHRNP57MEL	EQUITY GROUP EUFAULA DIV LLC	57 MELVIN CLARK RD	BAKER HILL	BARBOUR	AL	360274938	EQUITY GROUP EUFAULA DIV LLC	57 MELVIN CLARK RD	BAKER HILL	AL		36027-4938	YES	NO	NO	NO	TERRELL SMITH	3346886531	2015							311615						31.802313	-85.321471	144729469								KEYSTONE FOODS LLC	069888717	NO	TERRELL.SMITH@KEYSTONEFOODS.COM	
2007	GENERAL MANAGER	TIMOTHY ESSLINGER	36005CHRNPCOUNT	EQUITY GROUP EUFAULA DIV LLC - FEED MILL	COUNTY RD 128	BANKS	PIKE	AL	36005	EQUITY GROUP EUFAULA DIV LLC - FEED MILL	COUNTY RD 128	BANKS	AL		36005	YES	NO	NO	NO	TERRELL SMITH	3346886531	2048							311119						31.789639	-85.820389	044581432								KEYSTONE FOODS LLC	069888717	NO	TERRELL.SMITH@KEYSTONEFOODS.COM	
2006	V. P. OF ENVIRONMENTAL AND SAFETY AFFAIRS	PAUL W. YOUNG	35118RGNTR789BI	ERGON TERMINALING INC. - BIRMINGPORT	7890 BIRMINGPORT RD	MULGA	JEFFERSON	AL	35118	ERGON TERMINALING INC. - BIRMINGPORT	7890 BIRMINGPORT RD	MULGA	AL		35118	YES	NO	NO	NO	MARY ELLEN SNOW	6019333540	5171	2951						324121						33.56033	-87.106795	787730456								ERGON, INC.	087023743	NO		
2007	GENERAL MANAGER	BRUCE SMITH	36541RSHGS125IN	ERSHIGS GRAND BAY FACILITY	12050 INTERCHANGE DR	GRAND BAY	MOBILE	AL	36541	ERSHIGS GRAND BAY FACILITY	12050 INTERCHANGE DR	GRAND BAY	AL		36541	YES	NO	NO	NO	BRUCE SMITH	2518650912								326199						30.500268	-88.332777	009286857								DENALI INC.	938969540	NO	BSMITH@ERSHIGS.COM	
