REPORTING YEAR	TRADE SECRET INDICATOR	TRIFID	FACILITY NAME	FACILITY STREET	FACILITY CITY	FACILITY COUNTY	FACILITY STATE	FACILITY ZIP CODE	ENTIRE FACILITY IND	PARTIAL FACILITY IND	FEDERAL FACILITY IND	GOCO FACILITY FLAG	PRIMARY SIC CODE	SIC CODE 2	SIC CODE 3	SIC CODE 4	SIC CODE 5	SIC CODE 6	NAICS ORIGIN	PRIMARY NAICS CODE	NAICS CODE 2	NAICS CODE 3	NAICS CODE 4	NAICS CODE 5	NAICS CODE 6	LATITUDE	LONGITUDE	DB NR A	DB NR B	RCRA NR A	RCRA NR B	NPDES NR A	NPDES NR B	UIC NR A	UIC NR B	PARENT COMPANY NAME	PARENT COMPANY DB NR	DOCUMENT CONTROL NUMBER	CAS NUMBER	CHEMICAL NAME	CLASSIFICATION	UNIT OF MEASURE	DIOXIN DISTRIBUTION 1	DIOXIN DISTRIBUTION 2	DIOXIN DISTRIBUTION 3	DIOXIN DISTRIBUTION 4	DIOXIN DISTRIBUTION 5	DIOXIN DISTRIBUTION 6	DIOXIN DISTRIBUTION 7	DIOXIN DISTRIBUTION 8	DIOXIN DISTRIBUTION 9	DIOXIN DISTRIBUTION 10	DIOXIN DISTRIBUTION 11	DIOXIN DISTRIBUTION 12	DIOXIN DISTRIBUTION 13	DIOXIN DISTRIBUTION 14	DIOXIN DISTRIBUTION 15	DIOXIN DISTRIBUTION 16	DIOXIN DISTRIBUTION 17	STREAM 1 - WASTE STREAM CODE	STREAM 1 - TRTMT METHOD -  SEQUENCE 1	STREAM 1 - TRTMT METHOD -  SEQUENCE 2	STREAM 1 - TRTMT METHOD -  SEQUENCE 3	STREAM 1  -TRTMT METHOD -  SEQUENCE 4	STREAM 1 - TRTMT METHOD -  SEQUENCE 5	STREAM 1 - TRTMT METHOD -  SEQUENCE 6	STREAM 1 - TRTMT METHOD -  SEQUENCE 7	STREAM 1 - TRTMT METHOD -  SEQUENCE 8	STREAM 1 - RANGE INFLUENT CONCENT	STREAM 1 - TRTMT EFFICIENCY EST	STREAM 1 - BASED ON OPERATING DATA?	STREAM 2 - WASTE STREAM CODE	STREAM 2 - TRTMT METHOD -  SEQUENCE 1	STREAM 2 - TRTMT METHOD -  SEQUENCE 2	STREAM 2 - TRTMT METHOD -  SEQUENCE 3	STREAM 2  -TRTMT METHOD -  SEQUENCE 4	STREAM 2 - TRTMT METHOD -  SEQUENCE 5	STREAM 2 - TRTMT METHOD -  SEQUENCE 6	STREAM 2 - TRTMT METHOD -  SEQUENCE 7	STREAM 2 - TRTMT METHOD -  SEQUENCE 8	STREAM 2 - RANGE INFLUENT CONCENT	STREAM 2 - TRTMT EFFICIENCY EST	STREAM 2 - BASED ON OPERATING DATA?	STREAM 3 - WASTE STREAM CODE	STREAM 3 - TRTMT METHOD -  SEQUENCE 1	STREAM 3 - TRTMT METHOD -  SEQUENCE 2	STREAM 3 - TRTMT METHOD -  SEQUENCE 3	STREAM 3  -TRTMT METHOD -  SEQUENCE 4	STREAM 3 - TRTMT METHOD -  SEQUENCE 5	STREAM 3 - TRTMT METHOD -  SEQUENCE 6	STREAM 3 - TRTMT METHOD -  SEQUENCE 7	STREAM 3 - TRTMT METHOD -  SEQUENCE 8	STREAM 3 - RANGE INFLUENT CONCENT	STREAM 3 - TRTMT EFFICIENCY EST	STREAM 3 - BASED ON OPERATING DATA?	STREAM 4 - WASTE STREAM CODE	STREAM 4 - TRTMT METHOD -  SEQUENCE 1	STREAM 4 - TRTMT METHOD -  SEQUENCE 2	STREAM 4 - TRTMT METHOD -  SEQUENCE 3	STREAM 4  -TRTMT METHOD -  SEQUENCE 4	STREAM 4 - TRTMT METHOD -  SEQUENCE 5	STREAM 4 - TRTMT METHOD -  SEQUENCE 6	STREAM 4 - TRTMT METHOD -  SEQUENCE 7	STREAM 4 - TRTMT METHOD -  SEQUENCE 8	STREAM 4 - RANGE INFLUENT CONCENT	STREAM 4 - TRTMT EFFICIENCY EST	STREAM 4 - BASED ON OPERATING DATA?	STREAM 5 - WASTE STREAM CODE	STREAM 5 - TRTMT METHOD -  SEQUENCE 1	STREAM 5 - TRTMT METHOD -  SEQUENCE 2	STREAM 5 - TRTMT METHOD -  SEQUENCE 3	STREAM 5  -TRTMT METHOD -  SEQUENCE 4	STREAM 5 - TRTMT METHOD -  SEQUENCE 5	STREAM 5 - TRTMT METHOD -  SEQUENCE 6	STREAM 5 - TRTMT METHOD -  SEQUENCE 7	STREAM 5 - TRTMT METHOD -  SEQUENCE 8	STREAM 5 - RANGE INFLUENT CONCENT	STREAM 5 - TRTMT EFFICIENCY EST	STREAM 5 - BASED ON OPERATING DATA	ASSIGNED FED. FACILITY FLAG	PUBLIC CONTACT EMAIL	REVISION CODE 1	REVISION CODE 2	METAL INDICATOR	10-18-2012	
2011	NO	49657HYDRL411GE	HYDROLAKE INC	6151 W GERWOUDE DR	MC BAIN	MISSAUKEE	MI	49657	YES	NO	NO	NO								321114						44.201832	-85.214985	781246657										1311209073802	007440473	CHROMIUM	TRI	Pounds																																																																														NO	TONY_FURLICH@U-S-S-CO.COM			YES	 	
2011	NO	48121DRBRN3001M	FORD MOTOR CO DEARBORN DIVERSIFIED MANUFACTURING	3001 MILLER RD	DEARBORN	WAYNE	MI	48121	YES	NO	NO	NO								336399						42.31029	-83.15769	178068136								FORD MOTOR CO	001344746	1311209227444	000100414	ETHYLBENZENE	TRI	Pounds																		NA									N 																																																			NO	KLITTEJ@FORD.COM			NO	 	
2011	NO	48121FRDM13001M	FORD MOTOR CO DEARBORN STAMPING PLANT	3001 MILLER RD	DEARBORN	WAYNE	MI	48121	YES	NO	NO	NO								336370						42.31029	-83.15769	178068011								FORD MOTOR CO	001344746	1311209227913	007440508	COPPER	TRI	Pounds																		NA									N 																																																			NO	KLITTEJ@FORD.COM			YES	 	
2011	NO	49078PRKRH100PA	PARKER HANNIFIN HPD	100 PARKER DR	OTSEGO	ALLEGAN	MI	49078	YES	NO	NO	NO								333996						42.44982	-85.699466									PARKER HANNIFIN CORP	007175550	1311209617885	007439965	MANGANESE	TRI	Pounds																		NA									N 																																																			NO	ANTHONY.KLAPAC@PARKER.COM			YES	 	
2011	NO	48111WYNDS49350	WAYNE DISPOSAL INC	49350 N I-94 SERVICE DR	BELLEVILLE	WAYNE	MI	48111	NO	YES	NO	NO								562211	562998	562219				42.1966	-83.4863	058972555	048090633	MID048090633		MI0056413				EQ HOLDING CO	022528553	1311209672258	N096	COBALT COMPOUNDS	TRI	Pounds																		S	H111								N 	E4		A	A06	A07	A03						N 	E4																																						NO	BOB.DOYLE@EQONLINE.COM			YES	 	
2011	NO	49935LKSHR1150W	OLDENBURG GROUP INC	1520 WADAMS ST	IRON RIVER	IRON	MI	499350467	YES	NO	NO	NO								336999						46.09249	-88.654614									OLDENBURG GROUP INC	195101498	1311208984827	000106423	P-XYLENE	TRI	Pounds																																																																														NO	RSPLINTER@OLDENBURGGROUP.COM			NO	 	
2011	NO	49464HXCLC215CE	VERTELLUS SPECIALTIES INC	215 N CENTENNIAL ST	ZEELAND	OTTAWA	MI	49464	YES	NO	NO	NO								325192						42.815556	-86.011667									VERTELLUS SPECIALTIES INC	029260833	1311209310390	000110861	PYRIDINE	TRI	Pounds																		NA									N 																																																			NO	SSMITH@VERTELLUS.COM			NO	 	
2011	NO	49441MRGSC2817M	M ARGUESO & CO INC - MICHI GAN	2817 MCCRACKEN ST	MUSKEGON	MUSKEGON	MI	49441	YES	NO	NO	NO								325998						43.20172	-86.29325	001661206								PARAMELT BV	419300645	1311209424579	000080057	4,4'-ISOPROPYLIDENEDIPHENOL	TRI	Pounds																		NA									N 																																																			NO	DPEKALA@PARAMELT.COM			NO	 	
2011	NO	48836THRMFONETH	ASAHI KASEI PLASTICS NA	900 E VAN RIPER	FOWLERVILLE	LIVINGSTON	MI	48836	YES	NO	NO	NO								325991						42.648232	-84.057404	002935591										1311209804006	N982	ZINC COMPOUNDS	TRI	Pounds																		NA									N 																																																			NO	NPPUTTAGUNTA@AKPLASTICS.COM			YES	 	
2011	NO	49242SSXSP190UR	DOW CHEMICAL CO DOW AUTOMOTIVE HILLSDALE	186 URAN ST	HILLSDALE	HILLSDALE	MI	49242	YES	NO	NO	NO								325520						41.93735	-84.64863	068091693								THE DOW CHEMICAL CO	001381581	1311209142672	000067561	METHANOL	TRI	Pounds																		NA									N 																																																			NO	RLSHIER@DOW.COM			NO	 	
2011	NO	48239ZBRTN26500	Z TECHNOLOGIES CORP	26500 CAPITOL AVE	REDFORD	WAYNE	MI	48239	YES	NO	NO	NO								325510						42.37528	-83.3036	958045510		MID980620025								1311209092788	N230	CERTAIN GLYCOL ETHERS	TRI	Pounds																		NA									N 																																																			NO	ELLISBRESKMAN@MSN.COM			NO	 	
2011	NO	48723MCHGN725AL	MICHIGAN SUGAR CO - CARO FACTORY	819 PENNINSULAR ST	CARO	TUSCOLA	MI	48723	YES	NO	NO	NO								311313						43.482804	-83.396868	103202128								MICHIGAN SUGAR CO		1311209111246	007664417	AMMONIA	TRI	Pounds																		W	H081								N 	E5																																																		NO				NO	 	
2011	NO	49423SYCHT725EA	S2 YACHTS INC TIARA YACHTS INC DIV	725 E 40TH ST	HOLLAND	ALLEGAN	MI	49423	YES	NO	NO	NO								336612						42.76207	-86.07165	065877102								S2 YACHTS INC		1311209290042	000100425	STYRENE	TRI	Pounds																		NA									N 																																																			NO				NO	 	
2011	NO	48215CHRYL2101C	CHRYSLER JEFFERSON NORTH ASSEMBLY PLANT	2101 CONNOR AVE	DETROIT	WAYNE	MI	48215	YES	NO	NO	NO								336111						42.37609	-82.9693	121848105								CHRYSLER GROUP LLC	830966904	1311209516311	000067561	METHANOL	TRI	Pounds																		A	A07	A04	H040						N 	E4		A	A07								N 	E6		A	A04	A07	H040						N 	E4																										NO	RTG19@CHRYSLER.COM			NO	 	
2011	NO	48921GMCGL920TO	GMVM-LANSING GRAND RIVER ASSEMBLY	920 TOWNSEND ST MAIL CODE: 489-066-600	LANSING	INGHAM	MI	48921	YES	NO	NO	NO								336111						42.724183	-84.55559	125356613								GENERAL MOTORS LLC	831247536	1311209232053	000095636	1,2,4-TRIMETHYLBENZENE	TRI	Pounds																		A	A07								N 	E4		W	H129	H121	H077	H123	H101				N 	E1																																						NO	KIMBERLY.CARPENTER@GM.COM			NO	 	
2011	NO	49071RXNRDCONCO	BASF CORP	23930 CONCORD AVE	MATTAWAN	VAN BUREN	MI	49071	YES	NO	NO	NO								325510	325520					42.20876	-85.78421	151345444								BASF CORP	071014385	1311209327675	000095636	1,2,4-TRIMETHYLBENZENE	TRI	Pounds																		A	H082								N 	E5																																																		NO	DAVID.SHEAVES@BASF.COM			NO	 	
2011	NO	48611DWCRN5300E	DOW CORNING CORP AUBURN SITE	5300 ELEVEN MILE RD	AUBURN	BAY	MI	48611	YES	NO	NO	NO								325211	325520	325510	325998			43.585766	-84.109347	005353487								DOW CORNING CORP	005353487	1311209455880	000108101	METHYL ISOBUTYL KETONE	TRI	Pounds																		NA									N 																																																			NO	B.MONEY@DOWCORNING.COM			NO	 	
2011	NO	49913CLMTL25830	CALUMET ELECTRONICS CORP	25830 DEPOT ST	CALUMET	HOUGHTON	MI	49913	YES	NO	NO	NO								334412						47.238244	-88.445125	050546225										1311209472087	000123319	HYDROQUINONE	TRI	Pounds																		NA									N 																																																			NO	SVAIRO@CALUMETELECTRONICS.COM			NO	 	
2011	NO	49601CDLLC603WE	AVON AUTOMOTIVE PLANT 1	603 W 7TH ST	CADILLAC	WEXFORD	MI	49601	YES	NO	NO	NO								326220						44.26082	-85.416615	151927944										1311209554450	000117817	DI(2-ETHYLHEXYL) PHTHALATE	TRI	Pounds																		NA									N 																																																			NO	BSOMERS@AVONAUTO.COM			NO	 	
2011	NO	49634PCKGN2245U	PACKAGING CORP OF AMERICA	2246 UDELL ST	FILER CITY	MANISTEE	MI	49634	YES	NO	NO	NO								322121						44.21265	-86.286148	060047151								PACKAGING CORP OF AMERICA		1311209608672	N150	DIOXIN AND DIOXIN-LIKE COMPOUNDS	DIOXIN	Grams																		A	A07								N 	E6		A	A07								N 	E6																																						NO	GMALINSKY@PACKAGINGCORP.COM			NO	 	
2011	NO	49201JCKSN2090M	MARATHON PETROLEUM CO - JACKSON MI TERMINAL	2090 MORRILL RD	JACKSON	JACKSON	MI	49201	YES	NO	NO	NO								424710						42.309931	-84.424735	113053755								MARATHON PETROLEUM CORP	968393996	1311209609193	001330207	XYLENE (MIXED ISOMERS)	TRI	Pounds																		NA									N 																																																			NO				NO	 	
2011	NO	48091MCHMP23343	HENKEL CORP	23343 SHERWOOD AVE	WARREN	MACOMB	MI	480915361	YES	NO	NO	NO								325998						42.46582	-83.03541	197521354								HENKEL CORP	051441731	1311209629031	N495	NICKEL COMPOUNDS	TRI	Pounds																		W	H121	H071	H077	H123	H101				N 	E4		A	A03								N 	E5																																						NO	DALE.TUSCANY@HENKEL.COM			YES	 	
2011	NO	48667THDWCMICHI	THE DOW CHEMICAL CO	1790 BUILDING	MIDLAND	MIDLAND	MI	48667	YES	NO	NO	NO								325199	325211	325320				43.606083	-84.219528	877223370								THE DOW CHEMICAL CO	001381581	1311209691738	000108952	PHENOL	TRI	Pounds																		A	H040	A03							N 	E3		W	H123	H081	H121	H123	H077				N 	E3		L	H040	H077							N 	E1		S	H040	H077							N 	E1														NO	MORLOCK@DOW.COM			NO	 	
2011	NO	48091WRRNT21500	CHRYSLER WARREN TRUCK ASSEMBLY PLANT (PART)	21500 MOUND RD	WARREN	MACOMB	MI	48091	YES	NO	NO	NO								336112						42.45876	-83.04451	181053620								CHRYSLER GROUP LLC	830966904	1311209717519	000071432	BENZENE	TRI	Pounds																		NA									N 																																																			NO				NO	 	
2011	NO	48207JXMTL4651B	AJAX METAL PROCESSING INC	4651 BELLEVUE AVE	DETROIT	WAYNE	MI	48207	YES	NO	NO	NO								332813						42.369005	-83.021862	005320031								AJAX METAL PROCESSING INC		1311209790450	N982	ZINC COMPOUNDS	TRI	Pounds																		W	H121	H077	H123	H101					N 	E2																																																		NO	FBUONO@AJAXMETAL.COM			YES	 	
2011	NO	48161NRTHS3000E	GERDAU MACSTEEL MONROE	3000 E FRONT ST	MONROE	MONROE	MI	48161	YES	NO	NO	NO								331111						41.897173	-83.361645	620190728								GERDAU GROUP	068814482	1311209655202	N458	MERCURY COMPOUNDS	PBT	Pounds																		A	A07								N 	E4		A	A02	A03							N 	E4		S	H123								N 	E5																										NO	CHUCK.SHORT@GERDAU.COM			YES	 	
2011	NO	48393DPTPL29883	ADEPT PLASTIC FINISHING INC	29883 BECK RD	WIXOM	OAKLAND	MI	48393	YES	NO	NO	NO								336399						42.51211	-83.51678	121524318								ADEPT PLASTIC FINISHING INC		1311209401177	000108101	METHYL ISOBUTYL KETONE	TRI	Pounds																		A	H040								N 	E4																																																		NO	DADOWAY@ADEPTFINISH.COM			NO	 	
2011	NO	48237NTNLC21251	NCOC INC	21251 MEYERS RD	OAK PARK	OAKLAND	MI	48237	YES	NO	NO	NO								325998						42.450841	-83.171719	093057214		MIG000044568								1311209423538	000067561	METHANOL	TRI	Pounds																		NA									N 																																																			NO	JSINGH@NCOCINC.COM			NO	 	
2011	NO	48228PVSNL9000H	PVS NOLWOOD CHEMICALS INC	9000 HUBBELL AVE	DETROIT	WAYNE	MI	48228	YES	NO	NO	NO								424690						42.36128	-83.18733	004912309								PVS CHEMICALS INC	004912309	1311209464748	N230	CERTAIN GLYCOL ETHERS	TRI	Pounds																		W	H121								N 	E5																																																		NO	JWHITTEN@PVSCHEMICALS.COM			NO	 	
2011	NO	48228PVSNL9000H	PVS NOLWOOD CHEMICALS INC	9000 HUBBELL AVE	DETROIT	WAYNE	MI	48228	YES	NO	NO	NO								424690						42.36128	-83.18733	004912309								PVS CHEMICALS INC	004912309	1311209464775	N511	NITRATE COMPOUNDS	TRI	Pounds																		W	H121								N 	E5																																																		NO	JWHITTEN@PVSCHEMICALS.COM			NO	 	
2011	NO	48732DKRNJNWEAD	DE KARN JC WEADOCK GENERATING PLANT	N WEADOCK HWY	ESSEXVILLE	BAY	MI	48732	YES	NO	NO	NO								221112						43.639299	-83.840235	149954919								CONSUMERS ENERGY	006959803	1311209498120	N040	BARIUM COMPOUNDS	TRI	Pounds																		W	H123								N 	E4		A	A05	A07							N 	E3																																						NO	MARY.KULIS@CMSENERGY.COM			YES	 	
2011	NO	48087MNPCR44225	MNP CORP	44225 UTICA RD	UTICA	MACOMB	MI	48317	YES	NO	NO	NO								332722						42.61895	-83.03788	070299268								MNP CORP		1311209738665	000115071	PROPYLENE	TRI	Pounds																																																																														NO	RANDY.ALLISON@MNP.COM			NO	 	
2011	NO	49464ZLNDF24688	ZEELAND FARM SOYA	2468 84TH AVE	ZEELAND	OTTAWA	MI	49464	YES	NO	NO	NO								311222						42.81395	-85.98977	004951471								ZEELAND FARM SERVICES INC	004951471	1311209624372	000110543	N-HEXANE	TRI	Pounds																		NA									N 																																																			NO	BETHW@ZFSINC.COM			NO	 	
2011	NO	4864WNNTCC391SS	INENTEC CHEMICAL MIDLAND LLC	3901 S SAGINAW RD BLD 2515	MIDLAND	MIDLAND	MI	48640	YES	NO	NO	NO								562998						43.58891	-84.20784	830975681								INENTEC CHEMICAL LLC	830975301	1311209237724	000108883	TOLUENE	TRI	Pounds																																																																														NO	ASAGGERS@INENTECCHEMICAL.COM			NO	 	
2011	NO	49829MDPBLCOUNT	ESCANABA PAPER CO	7100 COUNTY RD 426	ESCANABA	DELTA	MI	49829	YES	NO	NO	NO								322121						45.804889	-87.094361	030179782								NEWPAGE CORP	197533446	1311209586445	N590	POLYCYCLIC AROMATIC COMPOUNDS	PBT	Pounds																		NA									N 																																																			NO	KELVIN.SMYTH@NEWPAGECORP.COM			NO	 	
2011	NO	49503PLSTC1648M	PLASTIC PLATE INC-MONROE PLA NT	1648 MONROE AVE NW	GRAND RAPIDS	KENT	MI	49505	YES	NO	NO	NO								332813						42.99325	-85.67049	006409387								LACKS ENTERPRISES INC	616811659	1311209476819	N090	CHROMIUM COMPOUNDS(EXCEPT CHROMITE ORE MINED IN THE TRANSVAAL REGION)	TRI	Pounds																		W	H121	H071							N 	E4		A	A03								N 	E4																																						NO				YES	 	
2011	NO	49224GRDNF1000E	GUARDIAN FIBERGLASS INC	1000 E N ST	ALBION	CALHOUN	MI	49224	YES	NO	NO	NO								327993						42.25417	-84.74212	144345147				MIS110637				GUARDIAN INDUSTRIES CORP	054671169	1311209581317	N096	COBALT COMPOUNDS	TRI	Pounds																		A	A07								N 	E3																																																		NO				YES	 	
2011	NO	48089HTCHC24660	HI-TECH COATINGS INC	24600 INDUSTRIAL HWY	WARREN	MACOMB	MI	48089	YES	NO	NO	NO								332812						42.476305	-82.989549	929490225								PARTS FINISHING GROUP	929490225	1311209585049	N982	ZINC COMPOUNDS	TRI	Pounds																		NA									N 																																																			NO	KKEESLING@PARTSFINISHING.COM			YES	 	
2011	NO	48192JNSCH18000	JCI JONES CHEMICALS INC	18000 PAYNE AVE	RIVERVIEW	WAYNE	MI	48193	YES	NO	NO	NO								424690						42.17789	-83.16774	002216091								JCI JONES CHEMICALS INC		1311209012057	007782505	CHLORINE	TRI	Pounds																		A	A03								N 	E4																																																		NO	DSKIDMOREJR@JCICHEM.COM			NO	 	
2011	NO	48026MLLYM18450	FORMTECH LLC	18450 15 MILE RD	FRASER	MACOMB	MI	48026	YES	NO	NO	NO								332111						42.55397	-82.93226			MID084300987		MI0041696				HHI GROUP HOLDINGS INC		1311209533583	N420	LEAD COMPOUNDS	PBT	Pounds																		NA									N 																																																			NO	PERRYWILLIAMS@FORMTECH2.COM			YES	 	
2011	NO	49355MWYCR7575E	ACCESS BUSINESS GROUP LLC	7575 FULTON ST E	ADA	KENT	MI	493550001	YES	NO	NO	NO								325611	322212	323119				42.955454	-85.479018	006026793								ALTICOR INC	006026793	1311209027705	N982	ZINC COMPOUNDS	TRI	Pounds																		NA									N 																																																			NO	KATE_MAKLED@AMWAY.COM			YES	 	
2011	NO	49509DVRRS1809C	BLACKMER A DOVER CO	1809 CENTURY AVE SW	GRAND RAPIDS	KENT	MI	49503	YES	NO	NO	NO								333911						42.93141	-85.68152	001649847								DOVER RESOURCES INC	148319874	1311209693252	N420	LEAD COMPOUNDS	PBT	Pounds																		NA									N 																																																			NO	CHARLES.HACHT@BLACKMER.COM			YES	 	
2011	NO	48174GMCCP36880	GM - ROMULUS ENGINE OPERATIONS	36880 ECORSE RD	ROMULUS	WAYNE	MI	48174	YES	NO	NO	NO								336312						42.25217	-83.3996	037749264								GENERAL MOTORS LLC	831247536	1311209178401	007439965	MANGANESE	TRI	Pounds																		NA									N 																																																			NO	KIMBERLY.CARPENTER@GM.COM			YES	 	
2011	NO	49093PHLPS15935	AQUATIC CO	888 W BROADWAY	THREE RIVERS	ST JOSEPH	MI	49093	YES	NO	NO	NO								326191						41.93265	-85.64453	053654588								TOMKINS BUILDING PRODUCTS INC	184101194	1311209203948	000100425	STYRENE	TRI	Pounds																		S	H111								N 	E1																																																		NO	SARSMITH@AQUATICBATH.COM			NO	 	
2011	NO	48601GMCSG3900H	NEXTEER AUTOMOTIVE CORP	3900 HOLLAND RD	SAGINAW	SAGINAW	MI	486019494	YES	NO	NO	NO								336330	336350					43.414645	-83.879528	005356878								BEIJING E-TOWN INTERNATIONAL INVESTMENT & DEVELOPMENT CORP	421265581	1311209331875	026471625	TOLUENE DIISOCYANATE (MIXED ISOMERS)	TRI	Pounds																																																																														NO	LUIS.CANALES@NEXTEER.COM			NO	 	
2011	NO	48054DTRTD4901P	DETROIT EDISON ST CLAIR POWER PLANT	4901 POINTE DR	EAST CHINA TOWNSHIP	ST CLAIR	MI	48054	NO	YES	NO	NO								221112						42.758123	-82.476993	021091061								DTE ENERGY CO	839329158	1311209379104	N020	ARSENIC COMPOUNDS	TRI	Pounds																		A	H121	A07	A05						N 	E3		W	H071	H123							N 	E3																																						NO	AUSTERBERRYJ@DTEENERGY.COM			YES	 	
2011	NO	48121DRBRN3001M	FORD MOTOR CO DEARBORN DIVERSIFIED MANUFACTURING	3001 MILLER RD	DEARBORN	WAYNE	MI	48121	YES	NO	NO	NO								336399						42.31029	-83.15769	178068136								FORD MOTOR CO	001344746	1311209227420	N230	CERTAIN GLYCOL ETHERS	TRI	Pounds																		NA									N 																																																			NO	KLITTEJ@FORD.COM			NO	 	
2011	NO	48551GMCTRG3100	GM LLC POWERTRAIN FLINT ENGINE OPERATIONS	2100 BRISTOL RD	FLINT	GENESEE	MI	48552	NO	YES	NO	NO								336350						42.98526	-83.7192	005356662	070628511							GENERAL MOTORS LLC	831247536	1311209552722	007439921	LEAD	TRI	Pounds																		W	H123	H124							N 	E6																																																		NO	KIMBERLY.CARPENTER@GM.COM			YES	 	
2011	NO	48551GMCTRG3100	GM LLC POWERTRAIN FLINT ENGINE OPERATIONS	2100 BRISTOL RD	FLINT	GENESEE	MI	48552	NO	YES	NO	NO								336350						42.98526	-83.7192	005356662	070628511							GENERAL MOTORS LLC	831247536	1311209552759	000108101	METHYL ISOBUTYL KETONE	TRI	Pounds																		NA									N 																																																			NO	KIMBERLY.CARPENTER@GM.COM			NO	 	
2011	NO	48229GRTLKNO1QU	US STEEL CORP GREAT LAKES WORKS	1 QUALITY DR	ECORSE	WAYNE	MI	48229	YES	NO	NO	NO								331111						42.2581	-83.13859	004320479								US STEEL CORP	029990699	1311209433945	001332214	ASBESTOS (FRIABLE)	TRI	Pounds																		NA									N 																																																			NO				YES	 	
2011	NO	48229GRTLKNO1QU	US STEEL CORP GREAT LAKES WORKS	1 QUALITY DR	ECORSE	WAYNE	MI	48229	YES	NO	NO	NO								331111						42.2581	-83.13859	004320479								US STEEL CORP	029990699	1311209434087	N495	NICKEL COMPOUNDS	TRI	Pounds																		NA									N 																																																			NO				YES	 	
2011	NO	48111WYNDS49350	WAYNE DISPOSAL INC	49350 N I-94 SERVICE DR	BELLEVILLE	WAYNE	MI	48111	NO	YES	NO	NO								562211	562998	562219				42.1966	-83.4863	058972555	048090633	MID048090633		MI0056413				EQ HOLDING CO	022528553	1311209672322	000091203	NAPHTHALENE	TRI	Pounds																		A	A06	A07	A03						N 	E4		S	H111								N 	E4																																						NO	BOB.DOYLE@EQONLINE.COM			NO	 	
2011	NO	48050MRBLT22500	MARBELITE CORP	22500 HESLIP	NOVI	OAKLAND	MI	48375	YES	NO	NO	NO								326191						42.4539	-83.46783	061870093										1311209724881	000080626	METHYL METHACRYLATE	TRI	Pounds																		NA									N 																																																			NO	BILLD@MARBELITECORP.COM			NO	 	
2011	NO	49935LKSHR1150W	OLDENBURG GROUP INC	1520 WADAMS ST	IRON RIVER	IRON	MI	499350467	YES	NO	NO	NO								336999						46.09249	-88.654614									OLDENBURG GROUP INC	195101498	1311208984839	000108883	TOLUENE	TRI	Pounds																																																																														NO	RSPLINTER@OLDENBURGGROUP.COM			NO	 	
2011	NO	49464HXCLC215CE	VERTELLUS SPECIALTIES INC	215 N CENTENNIAL ST	ZEELAND	OTTAWA	MI	49464	YES	NO	NO	NO								325192						42.815556	-86.011667									VERTELLUS SPECIALTIES INC	029260833	1311209310313	007429905	ALUMINUM (FUME OR DUST)	TRI	Pounds																																																																														NO	SSMITH@VERTELLUS.COM			YES	 	
2011	NO	48121FRDM23001M	FORD MOTOR CO DEARBORN TRUCK PLANT	3001 MILLER RD	DEARBORN	WAYNE	MI	48121	YES	NO	NO	NO								336112						42.31029	-83.15769	150420214								FORD MOTOR CO	001344746	1311209519255	000067561	METHANOL	TRI	Pounds																		NA									N 																																																			NO				NO	 	
2011	NO	48422MCHGN159SO	MICHIGAN SUGAR CO - CROSW ELL FACTORY	159 S HOWARD	CROSWELL	SANILAC	MI	48422	YES	NO	NO	NO								311313						43.266053	-82.619552	103202128								MICHIGAN SUGAR CO		1311209111386	N420	LEAD COMPOUNDS	PBT	Pounds																		NA									N 																																																			NO				YES	 	
2011	NO	49707LFRGCFORDA	LAFARGE MIDWEST INC	1435 FORD AVE	ALPENA	ALPENA	MI	49707	YES	NO	NO	NO								327310						45.07015	-83.41531	555427079								LAFARGE NA INC	050622018	1311209292580	N150	DIOXIN AND DIOXIN-LIKE COMPOUNDS	DIOXIN	Grams																		A	A06								N 	E6																																																		NO	BOB.BUDNIK@LAFARGE-NA.COM			NO	 	
2011	NO	49007JMSRV243EA	GRAPHIC PACKAGING INTERNATIONAL INC	1500 N PITCHER ST	KALAMAZOO	KALAMAZOO	MI	49007	NO	YES	NO	NO								322130						42.305859	-85.57896	808839062		MID003938156		MIS110886				GRAPHIC PACKAGING INTERNATIONAL INC	808839062	1311209745482	N420	LEAD COMPOUNDS	PBT	Pounds																		NA									N 																																																			NO	MILLERR@GRAPHICPKG.COM			YES	 	
2011	NO	49441WSTMC1148W	MICHIGAN STEEL INC	1148 W WESTERN AVE	MUSKEGON	MUSKEGON	MI	49441	YES	NO	NO	NO								331513						43.22905	-86.27186	193533569										1311209752702	000091203	NAPHTHALENE	TRI	Pounds																		NA									N 																																																			NO	DWITHAM@MICHIGANSTEEL.COM			NO	 	
2011	NO	48174CHMCN13395	UNIVAR USA INC ROMULUS BRANCH	13395 HURON RIVER DR	ROMULUS	WAYNE	MI	481740906	YES	NO	NO	NO								424690						42.20671	-83.40451									UNIVAR USA INC	102971785	1311209341294	000110543	N-HEXANE	TRI	Pounds																		NA									N 																																																			NO	TIEN.PHAM@UNIVARUSA.COM			NO	 	
2011	NO	49068MRSHL1506G	MARSHALL EXCELSIOR CO	1506 GEORGE BROWN DR	MARSHALL	CALHOUN	MI	49068	YES	NO	NO	NO								332913						42.24671	-84.956634	088863113										1311209043429	007440508	COPPER	TRI	Pounds																		NA									N 																																																			NO	JBEGG@MARSHALLEXCELSIOR.COM			YES	 	
2011	NO	49276GLBLT1144C	GREEN PLAINS RENEWABLE ENERGY INC	11440 CEMETERY RD	RIGA	LENAWEE	MI	49276	YES	NO	NO	NO								325193						41.814436	-83.836092									GREEN PLAINS HOLDING II LLC	186380718	1311209118191	000115071	PROPYLENE	TRI	Pounds																																																																														NO	ERICA.MONTEFUSCO@GPREINC.COM			NO	 	
2011	NO	49634TSFLR700ME	TES FILER CITY STATION	700 MEE ST	FILER CITY	MANISTEE	MI	49634	YES	NO	NO	NO								221112						44.21682	-86.29052	779988898										1311209323599	N458	MERCURY COMPOUNDS	PBT	Pounds																		S	H123	H124							N 	E1		A	A03	A07							N 	E4																																						NO	RICHARD.BROWN@CMSENERGY.COM			YES	 	
2011	NO	48458FLNTMG6065	MARATHON PETROLEUM CO - FLINT MI TERMINAL	G-6065 N DORT HWY	MOUNT MORRIS	GENESEE	MI	48458	YES	NO	NO	NO								424710						43.09197	-83.6746	124826517								MARATHON PETROLEUM CORP	968393996	1311209608835	000100414	ETHYLBENZENE	TRI	Pounds																		NA									N 																																																			NO				NO	 	
2011	NO	49631VRTPR601WS	VENTRA EVART LLC	601 W SEVENTH ST	EVART	OSCEOLA	MI	49631	YES	NO	NO	NO								336399						43.889075	-85.327605	805650756								FLEX-N-GATE CORP		1311209725656	000110827	CYCLOHEXANE	TRI	Pounds																		A	H040								N 	E4																																																		NO	BCRAWFORD@VENTRAPLASTICS.COM			NO	 	
2011	NO	48551GMCTRG3100	GM LLC POWERTRAIN FLINT ENGINE OPERATIONS	2100 BRISTOL RD	FLINT	GENESEE	MI	48552	NO	YES	NO	NO								336370						42.98526	-83.7192	005356662	070628511							GENERAL MOTORS LLC	831247536	1311209233422	000071432	BENZENE	TRI	Pounds																		NA									N 																																																			NO	KIMBERLY.CARPENTER@GM.COM			NO	 	
2011	NO	48215CHRYL2101C	CHRYSLER JEFFERSON NORTH ASSEMBLY PLANT	2101 CONNOR AVE	DETROIT	WAYNE	MI	48215	YES	NO	NO	NO								336111						42.37609	-82.9693	121848105								CHRYSLER GROUP LLC	830966904	1311209516451	N982	ZINC COMPOUNDS	TRI	Pounds																		A	A07								N 	E6		W	H129	H077	H123	H129	H121				N 	E4																																						NO	RTG19@CHRYSLER.COM			YES	 	
2011	NO	49548CHMCN2940S	UNIVAR USA INC - WYOMING BRANCH	2940 STAFFORD AVE SW	WYOMING	KENT	MI	495481037	YES	NO	NO	NO								424690						42.91	-85.67416									UNIVAR USA INC	102971785	1311209341472	000108101	METHYL ISOBUTYL KETONE	TRI	Pounds																																																																														NO	TIEN.PHAM@UNIVARUSA.COM			NO	 	
2011	NO	48917LNSNG3725S	LANSING BOARD OF WATER & LIGHT -ERICKSON	3725 S CANAL RD	LANSING	INGHAM	MI	48917	YES	NO	NO	NO								221112						42.692364	-84.657362									LANSING BOARD OF WATER & LIGHT		1311209390400	N150	DIOXIN AND DIOXIN-LIKE COMPOUNDS	DIOXIN	Grams																		NA									N 																																																			NO	SXS@LBWL.COM			NO	 	
2011	NO	49934PNNSL1700D	OSMOSE INC	52430 DUNCAN AVE	HUBBELL	HOUGHTON	MI	49934	YES	NO	NO	NO								325188						47.175	-88.429167	002112944										1311209453087	N100	COPPER COMPOUNDS	TRI	Pounds																		A	A06								N 	E4																																																		NO	JMCKENZIE@OSMOSE.COM			YES	 	
2011	NO	48091MCHMP23343	HENKEL CORP	23343 SHERWOOD AVE	WARREN	MACOMB	MI	480915361	YES	NO	NO	NO								325998						42.46582	-83.03541	197521354								HENKEL CORP	051441731	1311209628989	N230	CERTAIN GLYCOL ETHERS	TRI	Pounds																		A	A03								N 	E5		W	H121	H071	H077	H123	H101				N 	E6																																						NO	DALE.TUSCANY@HENKEL.COM			NO	 	
2011	NO	49204QNXCRPOBOX	GERDAU SPECIAL STEEL NORTH AMERICA	3100 BROOKLYN RD	JACKSON	JACKSON	MI	49203	YES	NO	NO	NO								331111						42.196997	-84.366395	068814482								GERDAU GROUP	005357249	1311209649185	N420	LEAD COMPOUNDS	PBT	Pounds																		NA									N 																																																			NO	CHUCK.SHORT@GERDAU.COM			YES	 	
2011	NO	48667THDWCMICHI	THE DOW CHEMICAL CO	1790 BUILDING	MIDLAND	MIDLAND	MI	48667	YES	NO	NO	NO								325199	325211	325320				43.606083	-84.219528	877223370								THE DOW CHEMICAL CO	001381581	1311209691435	000067663	CHLOROFORM	TRI	Pounds																		A	H040	A03							N 	E3		W	H123	H081	H121	H123	H077				N 	E5		L	H040	H077							N 	E1		S	H040	H077							N 	E1														NO	MORLOCK@DOW.COM			NO	 	
2011	NO	48180MSTGC20219	EFTEC NA LLC	20219 NORTHLINE RD	TAYLOR	WAYNE	MI	48180	YES	NO	NO	NO								325520						42.21299	-83.23329	099651572										1311209787302	N040	BARIUM COMPOUNDS	TRI	Pounds																		NA																																																												NO	ALLEN.KINSLER@EFTEC.COM			YES	 	
2011	NO	48184FRDMT37625	FORD MOTOR COMPANY-WAYNE ASSEMBLY	37625 MICHIGAN AVE	WAYNE	WAYNE	MI	48184	YES	NO	NO	NO								336111						42.279007	-83.409062	005379706								FORD MOTOR CO	001344746	1311209473875	000107211	ETHYLENE GLYCOL	TRI	Pounds																		NA									N 																																																			NO	JNOWAK2@FORD.COM			NO	 	
2011	NO	4804WZFMRY29BUS	ZF MARYSVILLE	2900 BUSHA HWY	MARYSVILLE	ST CLAIR	MI	48040	YES	NO	NO	NO								336330						42.87414	-82.4787	829729792										1311209312735	007664417	AMMONIA	TRI	Pounds																		NA									N 																																																			NO	THOMAS.COLLINS@ZF.COM			NO	 	
2011	NO	48161DTRTD3500E	DETROIT EDISON MONROE POWER PLANT	3500 E FRONT ST	MONROE	MONROE	MI	48161	YES	NO	NO	NO								221112						41.892806	-83.352796	092175074								DTE ENERGY CO	839329158	1311209378835	N090	CHROMIUM COMPOUNDS(EXCEPT CHROMITE ORE MINED IN THE TRANSVAAL REGION)	TRI	Pounds																		A	H121	A07	A05	A03					N 	E3		A	H121	A07	A05						N 	E4		W	H123	H121							N 	E4																										NO	AUSTERBERRYJ@DTEENERGY.COM			YES	 	
2011	NO	48228PVSNL9000H	PVS NOLWOOD CHEMICALS INC	9000 HUBBELL AVE	DETROIT	WAYNE	MI	48228	YES	NO	NO	NO								424690						42.36128	-83.18733	004912309								PVS CHEMICALS INC	004912309	1311209464799	007632000	SODIUM NITRITE	TRI	Pounds																		W	H121								N 	E4																																																		NO	JWHITTEN@PVSCHEMICALS.COM			YES	 	
2011	NO	49862KMBRL601EM	NEENAH PAPER MICHIGAN INC	501 E MUNISING AVE	MUNISING	ALGER	MI	49862	YES	NO	NO	NO								322121						46.40837	-86.64739	175984137								NEENAH PAPER INC		1311209286816	007664417	AMMONIA	TRI	Pounds																		W	H077	H121							N 	E1																																																		NO	HOWARD.PIOTROWSKI@NEENAHPAPER.COM			NO	 	
2011	NO	48211SLCTY1923F	EQ DETROIT INC	1923 FREDERICK	DETROIT	WAYNE	MI	48211	YES	NO	NO	NO								562211	562998	562219				42.365899	-83.047781	035420772								EQ HOLDINGS CO	022528553	1311209379674	N420	LEAD COMPOUNDS	PBT	Pounds																		W	H071	H077	H082						N 	E4		S	H111								N 	E5		A	A06								N 	E2																										NO	BOB.DOYLE@EQONLINE.COM			YES	 	
2011	NO	49508VLLYC3353E	VALLEY CITY PLATING	3353 EASTERN AVE SE	GRAND RAPIDS	KENT	MI	495082404	YES	NO	NO	NO								332813						42.9023	-85.64656	006023378										1311209604192	N106	CYANIDE COMPOUNDS	TRI	Pounds																		S	H101								N 	E6		W	H073	H077	H123						N 	E4																																						NO	DAVEPELL@BRASSPLATER.COM			NO	 	
2011	NO	49855MRQTTEHAMP	MARQUETTE BOARD OF LIGHT & POWER	400 E HAMPTON	MARQUETTE	MARQUETTE	MI	49855	YES	NO	NO	NO								221112						46.53199	-87.39299	074776063										1311209406836	N458	MERCURY COMPOUNDS	PBT	Pounds																		NA									N 																																																			NO	JREYNOLDS@MBLP.ORG			YES	 	
2011	NO	49417GRNDH1231N	GRAND HAVEN BOARD OF LIGHT &POWER JB SIMS GENERATING STATI	1231 N THIRD ST	GRAND HAVEN	OTTAWA	MI	49417	YES	NO	NO	NO								221112						43.071111	-86.233889	155802002								GRAND HAVEN BOARD OF LIGHT & POWER	155802002	1311209725973	N458	MERCURY COMPOUNDS	PBT	Pounds																		NA									N 																																																			NO	RMOLYNEUX@GRBLP.ORG			YES	 	
2011	NO	48218SCKBT14ZUG	EES COKE BATTERY LLC	1400 ZUG ISLAND	RIVER ROUGE	WAYNE	MI	48218	YES	NO	NO	NO								324199						42.29	-83.11	876235490								DTE ENERGY CO	839329158	1311209651001	000074873	CHLOROMETHANE	TRI	Pounds																		A	A01								N 	E4																																																		NO				NO	 	
2011	NO	48217MRTHN1300S	MARATHON PETROLEUM CO LP - MICHIGAN REFINING DIV	1300 S FORT ST HES DEPT	DETROIT	WAYNE	MI	48217	YES	NO	NO	NO								324110						42.280556	-83.152778	962993101								MARATHON PETROLEUM CORP	968393996	1311209849734	N420	LEAD COMPOUNDS	PBT	Pounds																		A	A01								N 	E6		W	H124	H129	H123						N 	E6																																						NO	TFORMBY@MARATHONPETROLEUM.COM	RR4		YES	 	
2011	NO	48686DWCRN3901S	DOW CORNING CORP MIDLAND PLANT	3901 S SAGINAW RD MAIL # 065	MIDLAND	MIDLAND	MI	486860995	YES	NO	NO	NO								325998						43.590556	-84.206944	005353487								DOW CORNING CORP	005353487	1311209338324	000563473	3-CHLORO-2-METHYL-1-PROPENE	TRI	Pounds																		A	A07								N 	E4																																																		NO	JEFFERY.LYNCH@DOWCORNING.COM			NO	 	
2011	NO	48071STLPR31624	EMERALD STEEL PROCESSING LLC - MADISON HEIGHTS FACILITY	31624 STEPHENSON HWY	MADISON HEIGHTS	OAKLAND	MI	48071	YES	NO	NO	NO								332811	331222	332812				42.52481	-83.1196											1311209657156	000067561	METHANOL	TRI	Pounds																		NA									N 																																																			NO				NO	 	
2011	NO	49022SMTCN470NP	SIEMENS INDUSTRY INC	470 N PAW PAW AVE	BENTON HARBOR	BERRIEN	MI	49022	YES	NO	NO	NO								332813						42.122516	-86.44771									SIEMENS AG		1311209157130	N495	NICKEL COMPOUNDS	TRI	Pounds																		W	H071	H077	H123	H101					N 	E3																																																		NO				YES	 	
2011	NO	48176SLNNS7700M	AUTOMOTIVE COMPONENTS HOLDINGS LLC SALINE PLANT	7700 MICHIGAN AVE	SALINE	WASHTENAW	MI	48176	YES	NO	NO	NO								336360						42.179638	-83.751386	009305665								AUTOMOTIVE COMPONENTS HOLDINGS INC	607597098	1311209440940	N120	DIISOCYANATES	TRI	Pounds																		NA									N 																																																			NO	AEVANS1@FORD.COM			NO	 	
2011	NO	48060MLLRB1925L	MUELLER BRASS CO	2199 LAPEER AVE	PORT HURON	ST CLAIR	MI	48060	YES	NO	NO	NO								331421						42.97767	-82.45062	858475908	786643049							MUELLER INDUSTRIES INC	622031748	1311209524709	N982	ZINC COMPOUNDS	TRI	Pounds																		A	A03								N 	E4		W	H129	H121	H077	H123	H101	H122			N 	E4		A	A06								N 	E4																										NO	JDAVIDSON@MUELLERINDUSTRIES.COM			YES	 	
2011	NO	4839WDPTPL354BE	ADEPT PLASTIC FINISHING PLANT #4	30540 BECK RD	WIXOM	OAKLAND	MI	48393	YES	NO	NO	NO								332813						42.51833	-83.5172	829881387								ADEPT PLASTIC FINISHING INC	121524318	1311209388572	N495	NICKEL COMPOUNDS	TRI	Pounds																		W	H071	H121	H123						N 	E3																																																		NO	CGIBSON@ADEPTFINISH.COM			YES	 	
2011	NO	4804WMRYSV251BU	MARYSVILLE ETHANOL LLC	2510 BUSHA HWY	MARYSVILLE	ST CLAIR	MI	48040	YES	NO	NO	NO								325193						42.88335	-82.491547											1311209481466	000095636	1,2,4-TRIMETHYLBENZENE	TRI	Pounds																																																																														NO	AMETEVIA@MARYSVILLEETHANOL.COM			NO	 	
2011	NO	48121RGSTL3001M	SEVERSTAL DEARBORN LLC	4001 MILLER RD	DEARBORN	WAYNE	MI	48120	YES	NO	NO	NO								331111	331221					42.31029	-83.15769	142299051								SEVERSTAL NA INC	645166489	1311209638218	N420	LEAD COMPOUNDS	PBT	Pounds																		NA									N 																																																			NO				YES	 	
2011	NO	48121RGSTL3001M	SEVERSTAL DEARBORN LLC	4001 MILLER RD	DEARBORN	WAYNE	MI	48120	YES	NO	NO	NO								331111	331221					42.31029	-83.15769	142299051								SEVERSTAL NA INC	645166489	1311209638220	000554132	LITHIUM CARBONATE	TRI	Pounds																		NA									N 																																																			NO				YES	 	
2011	NO	49203LMPLT1319S	ELM PLATING CO	1319 S ELM ST	JACKSON	JACKSON	MI	492033307	YES	NO	NO	NO								332813						42.2368	-84.38433	004916730								ELM PLATING CO	004916730	1311209313497	N511	NITRATE COMPOUNDS	TRI	Pounds																		W	H077	H121	H123	H101	H071				N 	E6																																																		NO	SEAN.PECK@ELMPLATING.COM			NO	 	
2011	NO	49254DCPRD4401P	ADCO PRODUCTS INC	4401 PAGE AVE PO BOX 457	MICHIGAN CENTER	JACKSON	MI	49254	YES	NO	NO	NO								325520						42.231459	-84.333744	072353799								ADCO GLOBAL INC	071211887	1311209689381	000108883	TOLUENE	TRI	Pounds																		NA									N 																																																			NO	KURT.RAY@ADCOCORP.COM			NO	 	
2011	NO	48757GRCCH2405S	AGRIUM ADVANCED TECHNOLOGIES (US) INC	2405 W VASSAR RD M-15	REESE	SAGINAW	MI	48757	YES	NO	NO	NO								325314						43.441111	-83.752778	072768500								AGRIUM INC	249568056	1311209594581	N511	NITRATE COMPOUNDS	TRI	Pounds																		NA									N 																																																			NO	DEDGINGTON@AGRIUMAT.COM			NO	 	
2011	NO	49252MCHGN720HE	MICHIGAN SOUTH CENTRAL POWER AGENCY	720 HERRING RD	LITCHFIELD	HILLSDALE	MI	49252	YES	NO	NO	NO								221112						42.02909	-84.729887	094798121										1311209707342	007664939	SULFURIC ACID (1994 AND AFTER "ACID AEROSOLS" ONLY)	TRI	Pounds																		A	A03								N 	E5																																																		NO	BURKM@MSCPA.NET			NO	 	
2011	NO	48239DTRTD13400	DETROIT DIESEL CORP REDFORD FACILITY	13400 OUTER DR W	DETROIT	WAYNE	MI	48239	YES	NO	NO	NO								333618						42.37642	-83.26104	181817628								DAIMLER AG	061315107	1311209818943	007440020	NICKEL	TRI	Pounds																		NA									N 																																																			NO	JIANG.WU@DAIMLER.COM			YES	 	
2011	NO	48184FRDMT38303	FORD MOTOR CO MICHIGAN ASSEMBLY PLANT	38303 MICHIGAN AVE	WAYNE	WAYNE	MI	48184	YES	NO	NO	NO								336112						42.278227	-83.41298	120551403								FORD MOTOR CO	001344746	1311209473608	000108101	METHYL ISOBUTYL KETONE	TRI	Pounds																		W	H123	H071	H124	H101					N 	E6																																																		NO	JNOWAK2@FORD.COM			NO	 	
2011	NO	48111WYNDS49350	WAYNE DISPOSAL INC	49350 N I-94 SERVICE DR	BELLEVILLE	WAYNE	MI	48111	NO	YES	NO	NO								562211	562998	562219				42.1966	-83.4863	058972555	048090633	MID048090633		MI0056413				EQ HOLDING CO	022528553	1311209672296	007664393	HYDROGEN FLUORIDE	TRI	Pounds																		S	H111								N 	E4		A	A06	A07	A03						N 	E4																																						NO	BOB.DOYLE@EQONLINE.COM			NO	 	
2011	NO	48661GTVLN510GR	SANDVIK HARD MATERIALS	510 GRIFFIN RD	WEST BRANCH	OGEMAW	MI	48661	YES	NO	NO	NO								333515						44.269405	-84.227887									SANDVIK INC		1311208994982	N495	NICKEL COMPOUNDS	TRI	Pounds																		NA									N 																																																			NO				YES	 	
2011	NO	48723MCHGN1551E	MICHIGAN ETHANOL LLC	1551 EMPIRE DR	CARO	TUSCOLA	MI	48723	YES	NO	NO	NO								325193						43.472444	-83.411056	121018357										1311209095278	000071432	BENZENE	TRI	Pounds																																																																														NO	DAVID.GLOER@POET.COM			NO	 	
2011	NO	48906MTRWH1600N	DEMMER CORPORATION-NORTH	1600 N LARCH ST	LANSING	INGHAM	MI	48906	YES	NO	NO	NO								336992						42.75263	-84.5446	005323670								DEMMER CORP		1311209781311	007440473	CHROMIUM	TRI	Pounds																		NA									N 																																																			NO	MLARGE@DEMMERCORP.COM			YES	 	
2011	NO	4883WNRTHL126EA	AGA MARVEL	1260 E VAN DEINSE ST	GREENVILLE	MONTCALM	MI	48838	YES	NO	NO	NO								333415						43.192206	-85.238082	092946508										1311209112313	007440473	CHROMIUM	TRI	Pounds																		NA									N 																																																			NO	THUNTER@AGAMARVEL.COM			YES	 	
2011	NO	48551GMCTRG3100	GM LLC POWERTRAIN FLINT ENGINE OPERATIONS	2100 BRISTOL RD	FLINT	GENESEE	MI	48552	NO	YES	NO	NO								336370						42.98526	-83.7192	005356662	070628511							GENERAL MOTORS LLC	831247536	1311209233511	000071363	N-BUTYL ALCOHOL	TRI	Pounds																		NA									N 																																																			NO	KIMBERLY.CARPENTER@GM.COM			NO	 	
2011	NO	48838FDRLM510EG	FEDERAL-MOGUL POWERTRAIN	510 E GROVE ST	GREENVILLE	MONTCALM	MI	48838	YES	NO	NO	NO								336312						43.18075	-85.24606	175796464								FEDERAL MOGUL CORP	006557045	1311209624271	007440508	COPPER	TRI	Pounds																		W	H077	H129	H123	H121	H129	H101			N 	E3																																																		NO	SHANDA.JENNINGS@FEDERALMOGUL.COM			YES	 	
2011	NO	48921GMCGL920TO	GMVM-LANSING GRAND RIVER ASSEMBLY	920 TOWNSEND ST MAIL CODE: 489-066-600	LANSING	INGHAM	MI	48921	YES	NO	NO	NO								336111						42.724183	-84.55559	125356613								GENERAL MOTORS LLC	831247536	1311209232089	000100414	ETHYLBENZENE	TRI	Pounds																		A	A07								N 	E4		W	H129	H121	H077	H123	H101				N 	E1																																						NO	KIMBERLY.CARPENTER@GM.COM			NO	 	
2011	NO	48220MCDRM1221F	MACDERMID INC	1221 FARROW AVE	FERNDALE	OAKLAND	MI	48220	YES	NO	NO	NO								325998						42.456667	-83.118889	001164599								MACDERMID INC		1311209249337	000107211	ETHYLENE GLYCOL	TRI	Pounds																		A	A03	A07							N 	E4		W	H077	H123	H101	H121	H071				N 	E5																																						NO	KBUDZIAK@MACDERMID.COM			NO	 	
2011	NO	49424GNTXC10985	GENTEX CORP FIRE PROTECTION DIV	10985 CHICAGO DR	HOLLAND	OTTAWA	MI	49424	YES	NO	NO	NO								334290						42.80714	-86.05079	065855363		MIT270013311						GENTEX CORP		1311209256522	N420	LEAD COMPOUNDS	PBT	Pounds																		NA									N 																																																			NO	GARY.ENGERSON@GENTEX.COM			YES	 	
2011	NO	49442DCPLS2050P	ADAC AUTOMOTIVE MUSKEGON PLANT  PORT CITY & KEATING	2050 PORT CITY BLVD & 1801 KEATING AVE	MUSKEGON	MUSKEGON	MI	49442	YES	NO	NO	NO								336399						43.21531	-86.19582	169962623	627272024							ADAC PLASTICS INC	020884979	1311209511839	001330207	XYLENE (MIXED ISOMERS)	TRI	Pounds																		NA									N 																																																			NO	JRUPERT@ADACAUTOMOTIVE.COM			NO	 	
2011	NO	48667THDWCMICHI	THE DOW CHEMICAL CO	1790 BUILDING	MIDLAND	MIDLAND	MI	48667	YES	NO	NO	NO								325199	325211	325320				43.606083	-84.219528	877223370								THE DOW CHEMICAL CO	001381581	1311209691777	000110861	PYRIDINE	TRI	Pounds																		A	H040	A03							N 	E3		W	H123	H081	H121	H123	H077				N 	E4		L	H040	H077							N 	E1		S	H040	H077							N 	E1														NO	MORLOCK@DOW.COM			NO	 	
2011	NO	49443SNCHM4925E	SUN CHEMICAL CORP MUSKEGON PL ANT	4925 EVANSTON AVE	MUSKEGON	MUSKEGON	MI	49443	YES	NO	NO	NO								325131						43.2131	-86.12712	085889285								DIC AMERICAS INC	054527502	1311209725860	N420	LEAD COMPOUNDS	PBT	Pounds																		NA									N 																																																			NO	SCOTT.HENDRYX@SUNCHEMICAL.COM			YES	 	
2011	NO	49224RDPLSALBIO	CLARIANT CORP - MASTERBATCHES DIV	926 ELLIOTT RD	ALBION	CALHOUN	MI	49224	YES	NO	NO	NO								325991						42.25509	-84.77882	021037890								CLARIANT CORP	108706425	1311209347335	N010	ANTIMONY COMPOUNDS	TRI	Pounds																		S	H123								N 	E3																																																		NO	STEVE.SNOW@CLARIANT.COM			YES	 	
2011	NO	48506MDSTT624KE	MID STATE PLATING CO	602 KELSO ST	FLINT	GENESEE	MI	48506	YES	NO	NO	NO								332813						43.02052	-83.65181	041812538										1311208983938	N511	NITRATE COMPOUNDS	TRI	Pounds																		NA									N 																																																			NO				NO	 	
2011	NO	49120MRTHN2216S	MARATHON PETROLEUM CO - NILES MI TERMINAL	2216 S THIRD ST	NILES	BERRIEN	MI	491204010	YES	NO	NO	NO								424710						41.798347	-86.254565	039348313								MARATHON PETROLEUM CORP	968393996	1311209609078	N590	POLYCYCLIC AROMATIC COMPOUNDS	PBT	Pounds																		NA									N 																																																			NO				NO	 	
2011	NO	49445BCCBB151NC	BC COBB GENERATING PLANT	151 N CAUSEWAY	MUSKEGON	MUSKEGON	MI	49445	YES	NO	NO	NO								221112						43.3091	-86.25833	097804330								CONSUMERS ENERGY	006959803	1311209297668	N458	MERCURY COMPOUNDS	PBT	Pounds																		A	A05	A07							N 	E6		W	H123								N 	E1																																						NO	LAURIE.LARSEN@CONSUMERSENERGY.COM			YES	 	
2011	NO	48228PVSNL9000H	PVS NOLWOOD CHEMICALS INC	9000 HUBBELL AVE	DETROIT	WAYNE	MI	48228	YES	NO	NO	NO								424690						42.36128	-83.18733	004912309								PVS CHEMICALS INC	004912309	1311209464763	000107211	ETHYLENE GLYCOL	TRI	Pounds																		W	H129								N 	E4																																																		NO	JWHITTEN@PVSCHEMICALS.COM			NO	 	
2011	NO	48551GMCTRG3100	GM LLC POWERTRAIN FLINT ENGINE OPERATIONS	2100 BRISTOL RD	FLINT	GENESEE	MI	48552	NO	YES	NO	NO								336112						42.98526	-83.7192	005356662	070628511							GENERAL MOTORS LLC	831247536	1311209233232	000071432	BENZENE	TRI	Pounds																		NA									N 																																																			NO	KIMBERLY.CARPENTER@GM.COM			NO	 	
2011	NO	49112MRCRY2528U	MERCURY DISPLACEMENT INDUSTRIES INC	25028 U.S. 12 E	EDWARDSBURG	CASS	MI	49112	YES	NO	NO	NO								335314						41.793708	-86.032661	078915428										1311209354392	007439976	MERCURY	PBT	Pounds																		S	H129								N 	E5																																																		NO	MBREWERS@MDIUS.COM			YES	 	
2011	NO	49417FNSHC1820H	SHAPE 1820	1820 HAYES ST	GRAND HAVEN	OTTAWA	MI	49417	YES	NO	NO	NO								332812						43.03028	-86.19474	065859555								SHAPE CORP	065859555	1311209620069	007632000	SODIUM NITRITE	TRI	Pounds																																																																														NO	CURRIERB@SHAPECORP.COM			YES	 	
2011	NO	48150BRGWR32059	BORGWARNER POWDERED METALS INC	32059 SCHOOLCRAFT	LIVONIA	WAYNE	MI	48150	YES	NO	NO	NO								336350						42.38246	-83.35977	605296136								BORGWARNER INC	139469787	1311209765876	007440508	COPPER	TRI	Pounds																		NA									N 																																																			NO	RKLIPPSTEIN@BORGWARNER.COM			YES	 	
2011	NO	48176CNDTC25SIN	CONDAT CORP	250 S INDUSTRIAL DR	SALINE	WASHTENAW	MI	48176	YES	NO	NO	NO								324191						42.17367	-83.75728											1311209503628	N982	ZINC COMPOUNDS	TRI	Pounds																																																																														NO	BSULKEY@CONDATCORP.COM			YES	 	
2011	NO	4865WMCHGN285CA	MICHIGAN ATF HOLDINGS LLC	285 CASEMASTER DR	ROSE CITY	OGEMAW	MI	48654	YES	NO	NO	NO								332722						44.41439	-84.106354									ATF INC	013488796	1311209245392	007439921	LEAD	TRI	Pounds																		NA									N 																																																			NO	MBRENNAN@HEADERPRODUCTS.COM			YES	 	
2011	NO	49355MWYCR7575E	ACCESS BUSINESS GROUP LLC	7575 FULTON ST E	ADA	KENT	MI	493550001	YES	NO	NO	NO								325611	322212	323119				42.955454	-85.479018	006026793								ALTICOR INC	006026793	1311209027681	000067561	METHANOL	TRI	Pounds																		NA									N 																																																			NO	KATE_MAKLED@AMWAY.COM			NO	 	
2011	NO	49441DLSCC1806B	GREAT LAKES DIE CAST	701 W LAKETON AVE	MUSKEGON	MUSKEGON	MI	49441	YES	NO	NO	NO								331521						43.21975	-86.261433	072593254										1311209514518	007439921	LEAD	TRI	Pounds																		NA									N 																																																			NO	JWARREN@GLDIECAST.COM			YES	 	
2011	NO	48121RGSTL3001M	SEVERSTAL DEARBORN LLC	4001 MILLER RD	DEARBORN	WAYNE	MI	48120	YES	NO	NO	NO								331111	331221					42.31029	-83.15769	142299051								SEVERSTAL NA INC	645166489	1311209638269	000085018	PHENANTHRENE	TRI	Pounds																		NA									N 																																																			NO				NO	 	
2011	NO	48768GRDVS700EH	METAVATION LLC	700 E HURON AVE	VASSAR	TUSCOLA	MI	48768	YES	NO	NO	NO								331511						43.3692	-83.57268	608460820								REVSTONE INDUSTRIES LLC	787032916	1311209700881	007439965	MANGANESE	TRI	Pounds																		NA									N 																																																			NO	PBUJALSKI@REVSTONE.COM			YES	 	
2011	NO	48121DRBRN3001M	FORD MOTOR CO DEARBORN DIVERSIFIED MANUFACTURING	3001 MILLER RD	DEARBORN	WAYNE	MI	48121	YES	NO	NO	NO								336399						42.31029	-83.15769	178068136								FORD MOTOR CO	001344746	1311209227469	N450	MANGANESE COMPOUNDS	TRI	Pounds																		W	H121	H077	H123	H101					N 	E5																																																		NO	KLITTEJ@FORD.COM			YES	 	
2011	NO	48161NTNLG1500T	NATIONAL GALVANIZING LP	1500 TELB RD	MONROE	MONROE	MI	48162	YES	NO	NO	NO								332812						41.91699	-83.3713	108419631										1311209602414	007647010	HYDROCHLORIC ACID (1995 AND AFTER "ACID AEROSOLS" ONLY)	TRI	Pounds																		A	A03								N 	E3																																																		NO				NO	 	
2011	NO	49058VKNGC21NIN	VIKING CORP	210 N INDUSTRIAL PARK DR	HASTINGS	BARRY	MI	49058	YES	NO	NO	NO								333999						42.64959	-85.30318	006407142								VIKING GROUP INC		1311209262979	007440508	COPPER	TRI	Pounds																		NA									N 																																																			NO	DQUAM@VIKINGCORP.COM			YES	 	
2011	NO	48120DBLGL3000M	DOUBLE EAGLE STEEL COATING CO	3000 MILLER RD	DEARBORN	WAYNE	MI	48120	YES	NO	NO	NO								332812						42.31169	-83.15848	131430183								DOUBLE EAGLE STEEL COATING CO	131430183	1311209471655	007647010	HYDROCHLORIC ACID (1995 AND AFTER "ACID AEROSOLS" ONLY)	TRI	Pounds																		A	H121								N 	E4																																																		NO	POND@DESCC.COM			NO	 	
2011	NO	48174RMLSR28000	MARATHON PETROLEUM CO - ROMULUS MI TERMINAL	28001 CITRON DR	ROMULUS	WAYNE	MI	48174	YES	NO	NO	NO								424710						42.245659	-83.308248	057697591								MARATHON PETROLEUM CORP	968393996	1311209612706	000108883	TOLUENE	TRI	Pounds																		NA									N 																																																			NO				NO	 	
2011	NO	48111WYNDS49350	WAYNE DISPOSAL INC	49350 N I-94 SERVICE DR	BELLEVILLE	WAYNE	MI	48111	NO	YES	NO	NO								562211	562998	562219				42.1966	-83.4863	058972555	048090633	MID048090633		MI0056413				EQ HOLDING CO	022528553	1311209672221	N040	BARIUM COMPOUNDS	TRI	Pounds																		S	H111								N 	E4		A	A06	A07	A03						N 	E4																																						NO	BOB.DOYLE@EQONLINE.COM			YES	 	
2011	NO	49935LKSHR1150W	OLDENBURG GROUP INC	1520 WADAMS ST	IRON RIVER	IRON	MI	499350467	YES	NO	NO	NO								336999						46.09249	-88.654614									OLDENBURG GROUP INC	195101498	1311208984664	000095636	1,2,4-TRIMETHYLBENZENE	TRI	Pounds																																																																														NO	RSPLINTER@OLDENBURGGROUP.COM			NO	 	
2011	NO	49417RMLLR14516	RA MILLER INDUSTRIES INC	14500 168TH AVE	GRAND HAVEN	OTTAWA	MI	494179454	YES	NO	NO	NO								334290						43.03205	-86.205	006022214										1311209014758	N420	LEAD COMPOUNDS	PBT	Pounds																		NA									N 																																																			NO	PMILLER@RAMI.COM			YES	 	
2011	NO	49016WLDRF177AN	ROCK-TENN CO	177 ANGELL ST	BATTLE CREEK	CALHOUN	MI	490378274	YES	NO	NO	NO								322130						42.32335	-85.20758									ROCK-TENN CO	003289725	1311209379318	007439921	LEAD	TRI	Pounds																		NA									N 																																																			NO	LKNAPP@ROCKTENN.COM			YES	 	
2011	NO	49221NDRSN1415E	ANDERSON DEVELOPMENT CO	1415 E MICHIGAN ST	ADRIAN	LENAWEE	MI	49221	YES	NO	NO	NO								325211						41.89361	-84.01721	002931228								ANDERSON DEVELOPMENT CO		1311209763794	000141322	BUTYL ACRYLATE	TRI	Pounds																		NA									N 																																																			NO	CHRIS.GOELOE@ANDDEV.COM			NO	 	
2011	NO	49548CHMCN2940S	UNIVAR USA INC - WYOMING BRANCH	2940 STAFFORD AVE SW	WYOMING	KENT	MI	495481037	YES	NO	NO	NO								424690						42.91	-85.67416									UNIVAR USA INC	102971785	1311209341510	000121448	TRIETHYLAMINE	TRI	Pounds																																																																														NO	TIEN.PHAM@UNIVARUSA.COM			NO	 	
2011	NO	49444WBBCH2708J	WEBB CHEMICAL SERVICE CORP	2708 JARMAN	MUSKEGON HEIGHTS	MUSKEGON	MI	49444	YES	NO	NO	NO								424690						43.20213	-86.23097	006410740										1311209383569	000075092	DICHLOROMETHANE	TRI	Pounds																																																																														NO	TFINKLER@WEBBCHEMICAL.COM			NO	 	
2011	NO	49015STNLY1500H	II STANLEY CO INC	1500 HILL-BRADY RD	BATTLE CREEK	CALHOUN	MI	490151020	YES	NO	NO	NO								336321						42.31128	-85.27194	151928512										1311209470552	007439921	LEAD	TRI	Pounds																		NA									N 																																																			NO	MARK_WEISS@IISTANLEYBC.COM			YES	 	
2011	NO	4950WGRSPR76BND	GR SPRING & STAMPING INC	706 BOND AVE NW	GRAND RAPIDS	KENT	MI	49503	YES	NO	NO	NO								336370						42.97591	-85.67132									HZ INDUSTRIES	006018311	1311209773732	007439965	MANGANESE	TRI	Pounds																		NA									N 																																																			NO	JENNIFERROBINSON@GRS-S.COM			YES	 	
2011	NO	49068CMCST425LE	COMCAST URETHANE	425 LEGGITT RD	MARSHALL	CALHOUN	MI	49068	YES	NO	NO	NO								326150						42.2528	-84.96523	046179685										1311209795145	000079016	TRICHLOROETHYLENE	TRI	Pounds																																																																														NO	DRYAN@COMCASTURETHANE.COM			NO	 	
2011	NO	48047NTRNT37087	INTERNATIONAL CASTING CORP	37087 GREEN ST	NEW BALTIMORE	MACOMB	MI	48047	YES	NO	NO	NO								331513						42.68617	-82.72945	078416104										1311209744287	007439965	MANGANESE	TRI	Pounds																		NA									N 																																																			NO				YES	 	
2011	NO	49441CNNNM2875L	CANNON-MUSKEGON	2875 LINCOLN ST	MUSKEGON	MUSKEGON	MI	49441	YES	NO	NO	NO								331513						43.20192	-86.30329	006022586								PRECISION CASTPARTS CORP	009027970	1311209387265	007440020	NICKEL	TRI	Pounds																		A	A06								N 	E5																																																		NO	JBLUE@CANMKG.COM			YES	 	
2011	NO	49504STRLS520WA	MEDTRONIC BIOMEDICUS INC STERILE SYSTEMS OPERATION	520 WATSON ST SW	GRAND RAPIDS	KENT	MI	49504	YES	NO	NO	NO								339112						42.96175	-85.68245	006261481								MEDTRONIC INC	006261481	1311209653536	000107211	ETHYLENE GLYCOL	TRI	Pounds																		NA									N 																																																			NO	AMY.VON.WALTER@MEDTRONIC.COM			NO	 	
2011	NO	48066WLVRN28178	WOLVERINE BRONZE CO	28178 HAYES RD	ROSEVILLE	MACOMB	MI	48066	YES	NO	NO	NO								331524	331525					42.50394	-82.96804	005376413										1311209753603	N982	ZINC COMPOUNDS	TRI	Pounds																		NA									N 																																																			NO				YES	 	
2011	NO	49935LKSHR1150W	OLDENBURG GROUP INC	1520 WADAMS ST	IRON RIVER	IRON	MI	499350467	YES	NO	NO	NO								336999						46.09249	-88.654614									OLDENBURG GROUP INC	195101498	1311208984841	001330207	XYLENE (MIXED ISOMERS)	TRI	Pounds																																																																														NO	RSPLINTER@OLDENBURGGROUP.COM			NO	 	
2011	NO	49464HXCLC215CE	VERTELLUS SPECIALTIES INC	215 N CENTENNIAL ST	ZEELAND	OTTAWA	MI	49464	YES	NO	NO	NO								325192						42.815556	-86.011667									VERTELLUS SPECIALTIES INC	029260833	1311209310337	000074873	CHLOROMETHANE	TRI	Pounds																																																																														NO	SSMITH@VERTELLUS.COM			NO	 	
2011	NO	49445NRMCH1740W	BAYER CROPSCIENCE	1740 WHITEHALL RD	MUSKEGON	MUSKEGON	MI	49445	YES	NO	NO	NO								325320						43.285703	-86.261324	001350263								BAYER GROUP		1311209434846	019666309	OXYDIAZON	TRI	Pounds																		NA									N 																																																			NO	HAROLD.LOFTON@BAYER.COM			NO	 	
2011	NO	48849SBWDB7795S	CARBON GREEN BIOENERGY	7795 SADDLEBAG LAKE RD	LAKE ODESSA	BARRY	MI	48849	YES	NO	NO	NO								325193						42.76554	-85.074284	828745062										1311209141314	000108883	TOLUENE	TRI	Pounds																																																																														NO	BBOSCH@CGBIOENERGY.COM			NO	 	
2011	NO	48164MRCNS36506	BONSAL AMERICAN INC	36506 SIBLEY RD	NEW BOSTON	WAYNE	MI	48164	YES	NO	NO	NO								327999	324199					42.16542	-83.3946	003149457								OLDCASTLE INC	037176591	1311209026436	000091203	NAPHTHALENE	TRI	Pounds																		NA									N 																																																			NO	JACK.COVER@OLDCASTLE.COM			NO	 	
2011	NO	48187GRNFL7295H	CANTON MANUFACTURING CORP	7295 HAGGERTY RD	CANTON	WAYNE	MI	48187	YES	NO	NO	NO								336370						42.33763	-83.44457	884606955								SHILOH INDUSTRIES INC	809953136	1311209447059	007439965	MANGANESE	TRI	Pounds																		NA									N 																																																			NO	RWPARKER@SHILOH.COM			YES	 	
2011	NO	4942WMCHGN242HW	MSU BIOECONOMY INSTITUTE	242 HOWARD AVE	HOLLAND	OTTAWA	MI	49424	YES	NO	NO	NO								611310						42.798808	-86.118601									MICHIGAN STATE UNIVERSITY		1311209826611	000067561	METHANOL	TRI	Pounds																		NA																																																												NO	STEVE493@MSU.EDU			NO	 	
2011	NO	48043DPNTM400GR	DUPONT MOUNT CLEMENS PLANT	400 GROESBECK HWY	MOUNT CLEMENS	MACOMB	MI	48043	YES	NO	NO	NO								325510	325211					42.61433	-82.88836	151269388								E I DU PONT DE NEMOURS & CO	001315704	1311209161381	001330207	XYLENE (MIXED ISOMERS)	TRI	Pounds																		A	H040								N 	E5		A	A02								N 	E5																																						NO	JOSEPH.F.CAMPBELL@USA.DUPONT.COM			NO	 	
2011	NO	48667THDWCMICHI	THE DOW CHEMICAL CO	1790 BUILDING	MIDLAND	MIDLAND	MI	48667	YES	NO	NO	NO								325199	325211	325320				43.606083	-84.219528	877223370								THE DOW CHEMICAL CO	001381581	1311209691233	000107062	1,2-DICHLOROETHANE	TRI	Pounds																		A	H040	A03							N 	E3		W	H123	H081	H121	H123	H077				N 	E5		L	H040	H077							N 	E1		S	H040	H077							N 	E1														NO	MORLOCK@DOW.COM			NO	 	
2011	NO	48667THDWCMICHI	THE DOW CHEMICAL CO	1790 BUILDING	MIDLAND	MIDLAND	MI	48667	YES	NO	NO	NO								325199	325211	325320				43.606083	-84.219528	877223370								THE DOW CHEMICAL CO	001381581	1311209691613	000064186	FORMIC ACID	TRI	Pounds																		A	H040	A03							N 	E3		W	H123	H081	H121	H123	H077				N 	E4		L	H040	H077							N 	E1		S	H040	H077							N 	E1														NO	MORLOCK@DOW.COM			NO	 	
2011	NO	4950WGRSPR76BND	GR SPRING & STAMPING INC	706 BOND AVE NW	GRAND RAPIDS	KENT	MI	49503	YES	NO	NO	NO								336370						42.97591	-85.67132									HZ INDUSTRIES	006018311	1311209773744	007440020	NICKEL	TRI	Pounds																		NA									N 																																																			NO	JENNIFERROBINSON@GRS-S.COM			YES	 	
2011	NO	49548BNTLR3721H	BENTELER AUTOMOTIVE CORP	3721 HAGEN DR SE	GRAND RAPIDS	KENT	MI	49548	YES	NO	NO	NO								INVALD						42.89697	-85.65711	112827779										1311209805225	007440020	NICKEL	TRI	Pounds																		NA																																																												NO	ROBERT.RUSHING@BENTELER.COM			YES	 	
2011	NO	48157JRWHT4525E	JR WHITING GENERATING PLANT	4525 E ERIE RD	ERIE	MONROE	MI	48133	YES	NO	NO	NO								221112						41.794649	-83.444766	087050506								CONSUMERS ENERGY	006959803	1311209312901	N770	VANADIUM COMPOUNDS	TRI	Pounds																		W	H123								N 	E4		A	A05	A07							N 	E1																																						NO	DAMCKEE@CMSENERGY.COM			YES	 	
2011	NO	48161NRTHS3000E	GERDAU MACSTEEL MONROE	3000 E FRONT ST	MONROE	MONROE	MI	48161	YES	NO	NO	NO								331111						41.897173	-83.361645	620190728								GERDAU GROUP	068814482	1311209655188	N420	LEAD COMPOUNDS	PBT	Pounds																		S	H123								N 	E5		W	H123	H124							N 	E5		A	A02	A03							N 	E4		S	H101								N 	E6		A	A07								N 	E4		NO	CHUCK.SHORT@GERDAU.COM			YES	 	
2011	NO	49508LLDFN4100B	ALLIED FINISHING INC	4100 BROADMOOR SE	KENTWOOD	KENT	MI	49512	YES	NO	NO	NO								332813						42.88889	-85.56933	085890846								ALLIED FINISHING INC		1311208998474	N420	LEAD COMPOUNDS	PBT	Pounds																		W	H077	H101	H121	H123	H073	H071			N 	E3																																																		NO	BRUCE.STONE@ALLIEDFINISHINGINC.COM			YES	 	
2011	NO	48209MGNNC2771H	MAGNI INDUSTRIES INC	2771 HAMMOND	DETROIT	WAYNE	MI	48209	YES	NO	NO	NO								325510						42.32285	-83.11118	095413050								THE MAGNI GROUP INC	151266269	1311209063546	N450	MANGANESE COMPOUNDS	TRI	Pounds																		NA									N 																																																			NO	TOGONOWSKI@MAGNIINDUSTRIES.COM			YES	 	
2011	NO	49442BXTRH1953S	HONEYWELL BURDICK & JACKSON	1953 S HARVEY ST	MUSKEGON	MUSKEGON	MI	494426184	YES	NO	NO	NO								325199						43.216667	-86.206667	879085116								HONEYWELL INTERNATIONAL INC	139691877	1311209398748	000067663	CHLOROFORM	TRI	Pounds																		NA									N 																																																			NO	DOUG.DIESELBERG@HONEYWELL.COM			NO	 	
2011	NO	49442BXTRH1953S	HONEYWELL BURDICK & JACKSON	1953 S HARVEY ST	MUSKEGON	MUSKEGON	MI	494426184	YES	NO	NO	NO								325199						43.216667	-86.206667	879085116								HONEYWELL INTERNATIONAL INC	139691877	1311209398787	000068122	N,N-DIMETHYLFORMAMIDE	TRI	Pounds																		NA									N 																																																			NO	DOUG.DIESELBERG@HONEYWELL.COM			NO	 	
2011	NO	48111WYNDS49350	WAYNE DISPOSAL INC	49350 N I-94 SERVICE DR	BELLEVILLE	WAYNE	MI	48111	NO	YES	NO	NO								562212						42.1966	-83.4863	058972555	048090633	MID048090633		MI0056413				EQ HOLDING CO	022528553	1311209672474	N096	COBALT COMPOUNDS	TRI	Pounds																		L	H129	H077	H123	H082	H073	H075			N 	E4		A	A06	A07	A03						N 	E4																																						NO	BOB.DOYLE@EQONLINE.COM			YES	 	
2011	NO	48184FRDMT37500	FORD MOTOR CO WAYNE INTEGRAL STAMPING	37500 VAN BORN	WAYNE	WAYNE	MI	48184	YES	NO	NO	NO								336370						42.26624	-83.40743	985573898								FORD MOTOR CO	001344746	1311209473723	001330207	XYLENE (MIXED ISOMERS)	TRI	Pounds																		NA									N 																																																			NO	JNOWAK2@FORD.COM			NO	 	
2011	NO	48341KZCTN2527B	AKZONOBEL COATINGS INC	120 FRANKLIN RD	PONTIAC	OAKLAND	MI	48341	YES	NO	NO	NO								325510						42.628986	-83.289437	119274454								AKZO NOBEL NV	021973748	1311209766082	000108101	METHYL ISOBUTYL KETONE	TRI	Pounds																		NA									N 																																																			NO	PETER.ONYSKIW@AKZONOBEL.COM			NO	 	
2011	NO	48218DTRTD1BELA	DETROIT EDISON -RIVER ROUGE POWER PLANT	1 BELANGER PARK DR	RIVER ROUGE	WAYNE	MI	48218	YES	NO	NO	NO								221112						42.27051	-83.12469	783638471								DTE ENERGY CO	839329158	1311209378037	N040	BARIUM COMPOUNDS	TRI	Pounds																		A	H121	A07	A05						N 	E3		W	H123								N 	E2																																						NO	AUSTERBERRYJ@DTEENERGY.COM			YES	 	
2011	NO	49738WYRHS4111E	WEYERHAEUSER NR CO	4111 W FOUR MILE RD	GRAYLING	CRAWFORD	MI	49738	YES	NO	NO	NO								321219						44.59849	-84.696432	001306992								WEYERHAEUSER NR CO	828789524	1311209151606	000050000	FORMALDEHYDE	TRI	Pounds																		A	H081								N 	E6		A	A05	H040							N 	E4																																						NO	KATHI.MOSS@WEYERHAEUSER.COM			NO	 	
2011	NO	49738WYRHS4111E	WEYERHAEUSER NR CO	4111 W FOUR MILE RD	GRAYLING	CRAWFORD	MI	49738	YES	NO	NO	NO								321219						44.59849	-84.696432	001306992								WEYERHAEUSER NR CO	828789524	1311209151618	N420	LEAD COMPOUNDS	PBT	Pounds																		NA									N 																																																			NO	KATHI.MOSS@WEYERHAEUSER.COM			YES	 	
2011	NO	48170PLYMT42200	PLYMOUTH PLATING WORKS	42200 JOY RD	PLYMOUTH	WAYNE	MI	48170	YES	NO	NO	NO								332813						42.35176	-83.45736	005360227										1311209441118	N982	ZINC COMPOUNDS	TRI	Pounds																		W	H077	H121	H123						N 	E4																																																		NO				YES	 	
2011	NO	49316NVRNM6450H	HELEN,INC DBA ENVIRONMENTAL COATINGS,INC	6450 HANNA LAKE AVE SE	CALEDONIA	KENT	MI	49316	YES	NO	NO	NO								325510						42.84837	-85.58524	042003677										1311209217494	000108883	TOLUENE	TRI	Pounds																																																																														NO	JYOUNG@ENVCOATINGS.COM			NO	 	
2011	NO	48759MCHGN763BE	MICHIGAN SUGAR CO	501 PINE ST	SEBEWAING	HURON	MI	487590626	YES	NO	NO	NO								311313						43.74046	-83.4463	103202128								MICHIGAN SUGAR CO		1311209111297	N420	LEAD COMPOUNDS	PBT	Pounds																		NA									N 																																																			NO				YES	 	
2011	NO	48040MLLRB2409W	MUELLER IMPACTS CO	2409 WILLS ST	MARYSVILLE	ST CLAIR	MI	48040	YES	NO	NO	NO								332112						42.88607	-82.48364	858476096								MUELLER INDUSTRIES INC	622031748	1311209288986	007697372	NITRIC ACID	TRI	Pounds																		W	H077	H121	H123	H101					N 	E3		A	A03	H121							N 	E3																																						NO				NO	 	
2011	NO	48065RMRMN74000	ROMEO RIM INC - PLANTS 1 & 2	74000 VAN DYKE AVE	ROMEO	MACOMB	MI	48065	YES	NO	NO	NO								326199						42.838667	-83.020539	061750220								R MARK HAMLIN JR TRUST		1311209549892	N120	DIISOCYANATES	TRI	Pounds																		NA									N 																																																			NO				NO	 	
2011	NO	49445NRTHM3005H	MARATHON PETROLEUM CO - NORTH MUSKEGON MI TERMINAL	3005 HOLTON RD	NORTH MUSKEGON	MUSKEGON	MI	494452513	YES	NO	NO	NO								424710						43.309605	-86.184811	092954098								MARATHON PETROLEUM CORP	968393996	1311209609256	000071432	BENZENE	TRI	Pounds																		NA									N 																																																			NO				NO	 	
2011	NO	48183DTRTD4695W	DETROIT EDISON CO TRENTON CHANNEL POWER PLANT	4695 W JEFFERSON AVE	TRENTON	WAYNE	MI	48183	YES	NO	NO	NO								221112						42.12436	-83.18642	120464540								DTE ENERGY CO	839329158	1311209378532	007664393	HYDROGEN FLUORIDE	TRI	Pounds																		A	A07	A05	H121						N 	E6																																																		NO	AUSTERBERRYJ@DTEENERGY.COM			NO	 	
2011	NO	48183DTRTD4695W	DETROIT EDISON CO TRENTON CHANNEL POWER PLANT	4695 W JEFFERSON AVE	TRENTON	WAYNE	MI	48183	YES	NO	NO	NO								221112						42.12436	-83.18642	120464540								DTE ENERGY CO	839329158	1311209378569	N458	MERCURY COMPOUNDS	PBT	Pounds																		A	A07	A05	H121						N 	E6		W	H123								N 	E2																																						NO	AUSTERBERRYJ@DTEENERGY.COM			YES	 	
2011	NO	48174SFTYK148HA	SAFETY-KLEEN SYSTEMS (405503)	10480 HARRISON RD	ROMULUS	WAYNE	MI	48174	YES	NO	NO	NO								562112	484220	484230				42.22859	-83.31776	053976551								SAFETY-KLEEN HOLDCO INC	053976551	1311209676461	007439921	LEAD	TRI	Pounds																		NA									N 																																																			NO	JOSHUA.RAMM@SAFETY-KLEEN.COM			YES	 	
2011	NO	49855PRSQS2701L	PRESQUE ISLE POWER PLANT	2701 LAKESHORE BLVD	MARQUETTE	MARQUETTE	MI	49855	YES	NO	NO	NO								221112						46.57763	-87.39276	007947385								WISCONSIN ENERGY CORP	157305780	1311209471349	N150	DIOXIN AND DIOXIN-LIKE COMPOUNDS	DIOXIN	Grams																		A	A05	A07							N 	E6																																																		NO	DONNA.DANIHEL@WE-ENERGIES.COM			NO	 	
2011	NO	48121DRBRN3001M	FORD MOTOR CO DEARBORN DIVERSIFIED MANUFACTURING	3001 MILLER RD	DEARBORN	WAYNE	MI	48121	YES	NO	NO	NO								336399						42.31029	-83.15769	178068136								FORD MOTOR CO	001344746	1311209227495	N495	NICKEL COMPOUNDS	TRI	Pounds																		W	H121	H077	H123	H101					N 	E5																																																		NO	KLITTEJ@FORD.COM			YES	 	
2011	NO	48121FRDM33001M	FORD MOTOR CO DEARBORN ENGINE PLANT	3001 MILLER RD	DEARBORN	WAYNE	MI	481211616	YES	NO	NO	NO								336312						42.31029	-83.15769	178068078								FORD MOTOR CO	001344746	1311209512437	007439921	LEAD	TRI	Pounds																		NA									N 																																																			NO				YES	 	
2011	NO	48708CRBNF900HA	MERSEN USA BN CORP BAY CITY BRANCH	900 HARRISON ST	BAY CITY	BAY	MI	48708	YES	NO	NO	NO								335991						43.56387	-83.90108	042859876								MERSEN NA	042859876	1311209067887	007782505	CHLORINE	TRI	Pounds																		A	A03	H121							N 	E3																																																		NO	JOHN.HODGSON@MERSEN.COM			NO	 	
2011	NO	49001THPJH7171P	PHARMACIA & UPJOHN CO LLC A SUBSIDIARY OF PFIZER INC	7171 PORTAGE RD	KALAMAZOO	KALAMAZOO	MI	49001	YES	NO	NO	NO								325412						42.21319	-85.55999	007702681								PFIZER INC	001326495	1311209571571	000108883	TOLUENE	TRI	Pounds																		W	H123								N 	E6		W	H121	H123							N 	E6		A	A07	A03							N 	E4																										NO	CHRISTOPHER.LODER@PFIZER.COM			NO	 	
2011	NO	48174RMLSR28000	MARATHON PETROLEUM CO - ROMULUS MI TERMINAL	28001 CITRON DR	ROMULUS	WAYNE	MI	48174	YES	NO	NO	NO								424710						42.245659	-83.308248	057697591								MARATHON PETROLEUM CORP	968393996	1311209612718	001330207	XYLENE (MIXED ISOMERS)	TRI	Pounds																		NA									N 																																																			NO				NO	 	
2011	NO	48111WYNDS49350	WAYNE DISPOSAL INC	49350 N I-94 SERVICE DR	BELLEVILLE	WAYNE	MI	48111	NO	YES	NO	NO								562211	562998	562219				42.1966	-83.4863	058972555	048090633	MID048090633		MI0056413				EQ HOLDING CO	022528553	1311209672272	000117817	DI(2-ETHYLHEXYL) PHTHALATE	TRI	Pounds																		A	A06	A07	A03						N 	E4		S	H111								N 	E4																																						NO	BOB.DOYLE@EQONLINE.COM			NO	 	
2011	NO	49443CLRCR2700W	MICHIGAN SPRING & STAMPING OF MUSKEGON LLC	2700 WICKHAM DR	MUSKEGON	MUSKEGON	MI	49441	YES	NO	NO	NO								332612						43.20442	-86.283222	802726265										1311209343007	007440473	CHROMIUM	TRI	Pounds																		NA									N 																																																			NO	KMAYBERRY@MSANDS.COM			YES	 	
2011	NO	49631LBRTY530NR	LIBERTY DAIRY CO	530 N RIVER ST	EVART	OSCEOLA	MI	49631	YES	NO	NO	NO								311511						43.906108	-85.258037	006547319								DEAN FOODS CO	005104815	1311209097625	007697372	NITRIC ACID	TRI	Pounds																		W	H121								N 	E1																																																		NO	JOHN_FOSTER@DEANFOODS.COM			NO	 	
2011	NO	48723MCHGN1551E	MICHIGAN ETHANOL LLC	1551 EMPIRE DR	CARO	TUSCOLA	MI	48723	YES	NO	NO	NO								325193						43.472444	-83.411056	121018357										1311209095292	000110543	N-HEXANE	TRI	Pounds																		NA									N 																																																			NO	DAVID.GLOER@POET.COM			NO	 	
2011	NO	49451SLDPW3800A	METAL TECHNOLOGIES INC  RAVENNA DUCTILE IRON	3800 ADAMS RD	RAVENNA	MUSKEGON	MI	49451	YES	NO	NO	NO								331511						43.183764	-85.93789	089720697								METAL TECHNOLOGIES INC		1311209061492	007429905	ALUMINUM (FUME OR DUST)	TRI	Pounds																		NA									N 																																																			NO	DLYNN@METAL-TECHNOLOGIES.COM			YES	 	
2011	NO	48809BLDNG200NG	BELDING TANK TECHNOLOGIES	200 N GOODING ST	BELDING	IONIA	MI	48809	YES	NO	NO	NO								326199						43.09818	-85.21299	605844422								BELDING TANK TECHNOLOGIES	605844422	1311208950776	000100425	STYRENE	TRI	Pounds																		NA									N 																																																			NO	PAUL@BELDINGTANK.COM			NO	 	
2011	NO	48441DTRTD755NH	DETROIT EDISON CO - HARBOR BEACH POWER PLANT	755 N HURON AVE	HARBOR BEACH	HURON	MI	48441	YES	NO	NO	NO								221112						43.852452	-82.654065	094551926								DTE ENERGY CO	839329158	1311209378468	007664939	SULFURIC ACID (1994 AND AFTER "ACID AEROSOLS" ONLY)	TRI	Pounds																		A	H121	A05	A07						N 	E5																																																		NO	AUSTERBERRYJ@DTEENERGY.COM			NO	 	
2011	NO	48134MZDMT1MAZD	AUTOALLIANCE INTERNATIONAL INC	1 INTERNATIONAL DR	FLAT ROCK	WAYNE	MI	48134	YES	NO	NO	NO								336111	336211	336370				42.10247	-83.24352	139464804								FORD MOTOR(50%) & MAZDA JAPAN(50%)	001344746	1311209244274	000110827	CYCLOHEXANE	TRI	Pounds																		W	H124	H083	H077	H123	H121	H101			N 	E6																																																		NO				NO	 	
2011	NO	48134MZDMT1MAZD	AUTOALLIANCE INTERNATIONAL INC	1 INTERNATIONAL DR	FLAT ROCK	WAYNE	MI	48134	YES	NO	NO	NO								336111	336211	336370				42.10247	-83.24352	139464804								FORD MOTOR(50%) & MAZDA JAPAN(50%)	001344746	1311209244312	N450	MANGANESE COMPOUNDS	TRI	Pounds																		W	H124	H083	H077	H123	H121	H101			N 	E4																																																		NO				YES	 	
2011	NO	48057HSPTR4150S	LYMTAL INTERNATIONAL,INC	4150 S LAPEER RD	LAKE ORION	OAKLAND	MI	48359	YES	NO	NO	NO								325510						42.719616	-83.242795	861267284										1311209623281	000140885	ETHYL ACRYLATE	TRI	Pounds																																																																														NO	FRANK@LYMTAL.COM			NO	 	
2011	NO	48551GMCTRG3100	GM LLC POWERTRAIN FLINT ENGINE OPERATIONS	2100 BRISTOL RD	FLINT	GENESEE	MI	48552	NO	YES	NO	NO								336370						42.98526	-83.7192	005356662	070628511							GENERAL MOTORS LLC	831247536	1311209233550	007632000	SODIUM NITRITE	TRI	Pounds																		NA									N 																																																			NO	KIMBERLY.CARPENTER@GM.COM			YES	 	
2011	NO	48215CHRYL2101C	CHRYSLER JEFFERSON NORTH ASSEMBLY PLANT	2101 CONNOR AVE	DETROIT	WAYNE	MI	48215	YES	NO	NO	NO								336111						42.37609	-82.9693	121848105								CHRYSLER GROUP LLC	830966904	1311209516246	N230	CERTAIN GLYCOL ETHERS	TRI	Pounds																		A	A07	H040							N 	E6		A	A07								N 	E6		S	H101	H129							N 	E4		W	H129	H077	H123	H129	H121				N 	E4														NO	RTG19@CHRYSLER.COM			NO	 	
2011	NO	48809JYCRN8634N	JAYCOR INC	8634 STOREY RD	BELDING	IONIA	MI	48809	YES	NO	NO	NO								326199						43.110857	-85.262715	607387305										1311208998043	000100425	STYRENE	TRI	Pounds																		NA									N 																																																			NO	DCASEY@JAYCORINC.NET			NO	 	
2011	NO	48921GMCGL920TO	GMVM-LANSING GRAND RIVER ASSEMBLY	920 TOWNSEND ST MAIL CODE: 489-066-600	LANSING	INGHAM	MI	48921	YES	NO	NO	NO								336111						42.724183	-84.55559	125356613								GENERAL MOTORS LLC	831247536	1311209232127	000110543	N-HEXANE	TRI	Pounds																		A	A07								N 	E4		W	H129	H121	H077	H123	H101				N 	E1																																						NO	KIMBERLY.CARPENTER@GM.COM			NO	 	
2011	NO	49503MDWST613NO	MIDWEST PLATING CO INC	613 N AVE NE	GRAND RAPIDS	KENT	MI	495031610	YES	NO	NO	NO								332813						42.973963	-85.659782	006020457										1311209323637	N090	CHROMIUM COMPOUNDS(EXCEPT CHROMITE ORE MINED IN THE TRANSVAAL REGION)	TRI	Pounds																		W	H077	H123							N 	E4																																																		NO	MIDWESTPLATING@AOL.COM			YES	 	
2011	NO	48218DTRTL25MAR	CARMEUSE LIME INC  RIVER ROUGE FACILITY	25 MARION AVE	RIVER ROUGE	WAYNE	MI	48218	YES	NO	NO	NO								327410						42.277947	-83.129587	039103122								CARMEUSE NA	021073510	1311209330657	N458	MERCURY COMPOUNDS	PBT	Pounds																		NA									N 																																																			NO	JEFF.BITTNER@CARMEUSENA.COM			YES	 	
2011	NO	48917LNSNG3725S	LANSING BOARD OF WATER & LIGHT -ERICKSON	3725 S CANAL RD	LANSING	INGHAM	MI	48917	YES	NO	NO	NO								221112						42.692364	-84.657362									LANSING BOARD OF WATER & LIGHT		1311209390412	007647010	HYDROCHLORIC ACID (1995 AND AFTER "ACID AEROSOLS" ONLY)	TRI	Pounds																		NA									N 																																																			NO	SXS@LBWL.COM			NO	 	
2011	NO	49201JCKSN2090M	MARATHON PETROLEUM CO - JACKSON MI TERMINAL	2090 MORRILL RD	JACKSON	JACKSON	MI	49201	YES	NO	NO	NO								424710						42.309931	-84.424735	113053755								MARATHON PETROLEUM CORP	968393996	1311209609142	N420	LEAD COMPOUNDS	PBT	Pounds																		NA									N 																																																			NO				YES	 	
2011	NO	48837TMNTR920NC	ETM ENTERPRISES INC	920 N CLINTON ST	GRAND LEDGE	EATON	MI	48837	YES	NO	NO	NO								336399						42.7615	-84.7397	053665188										1311209673274	000108883	TOLUENE	TRI	Pounds																		NA									N 																																																			NO	DAVE.MOHNKE@ETMENTERPRISES.COM			NO	 	
2011	NO	48667THDWCMICHI	THE DOW CHEMICAL CO	1790 BUILDING	MIDLAND	MIDLAND	MI	48667	YES	NO	NO	NO								325199	325211	325320				43.606083	-84.219528	877223370								THE DOW CHEMICAL CO	001381581	1311209691272	000094757	2,4-D	TRI	Pounds																		W	H123	H081	H121	H123	H077				N 	E3		L	H040	H077							N 	E1		S	H040	H077							N 	E1																										NO	MORLOCK@DOW.COM			NO	 	
2011	NO	48667THDWCMICHI	THE DOW CHEMICAL CO	1790 BUILDING	MIDLAND	MIDLAND	MI	48667	YES	NO	NO	NO								325199	325211	325320				43.606083	-84.219528	877223370								THE DOW CHEMICAL CO	001381581	1311209691308	002702729	2,4-D SODIUM SALT	TRI	Pounds																		L	H040	H077							N 	E1		S	H040	H077							N 	E1																																						NO	MORLOCK@DOW.COM			NO	 	
2011	NO	48667THDWCMICHI	THE DOW CHEMICAL CO	1790 BUILDING	MIDLAND	MIDLAND	MI	48667	YES	NO	NO	NO								325199	325211	325320				43.606083	-84.219528	877223370								THE DOW CHEMICAL CO	001381581	1311209691334	000075058	ACETONITRILE	TRI	Pounds																		A	H040	A03							N 	E3		W	H123	H081	H121	H123	H077				N 	E4		L	H040	H077							N 	E1		S	H040	H077							N 	E1														NO	MORLOCK@DOW.COM			NO	 	
2011	NO	48211DYNCL6520G	DYNECOL INC	6520 GEORGIA ST	DETROIT	WAYNE	MI	48211	YES	NO	NO	NO								562211						42.39352	-83.03268	074259565								PVS CHEMICALS INC	006530273	1311209742283	007439921	LEAD	TRI	Pounds																		W	H077	H071	H121	H123	H082	H129			N 	E1																																																		NO	JCANNON@PVSCHEMICALS.COM			YES	 	
2011	NO	49651LKCTY415NW	LC MANUFACTURING LLC	4150 N WOLCOTT RD	LAKE CITY	MISSAUKEE	MI	49651	YES	NO	NO	NO								332111						44.40285	-85.210994									M&B MFG LLC		1311209099821	007439965	MANGANESE	TRI	Pounds																		NA									N 																																																			NO	SSTEPHENS@LCFORGE.COM			YES	 	
2011	NO	48228PVSNL9000H	PVS NOLWOOD CHEMICALS INC	9000 HUBBELL AVE	DETROIT	WAYNE	MI	48228	YES	NO	NO	NO								424690						42.36128	-83.18733	004912309								PVS CHEMICALS INC	004912309	1311209464751	000111422	DIETHANOLAMINE	TRI	Pounds																		W	H129								N 	E4																																																		NO	JWHITTEN@PVSCHEMICALS.COM			NO	 	
2011	NO	48371MSPND45WAK	MSP INDUSTRIES	45 W OAKWOOD RD	OXFORD	OAKLAND	MI	48371	YES	NO	NO	NO								332111						42.86911	-83.29092	057492290								AMERICAN AXLE & MANUFACTURING INC	808844567	1311209755786	000107211	ETHYLENE GLYCOL	TRI	Pounds																		NA									N 																																																			NO				NO	 	
2011	NO	49615LMNNC1000F	ANCHOR LAMINA AMERICA	3650 S DERENZY RD	BELLAIRE	ANTRIM	MI	496150250	YES	NO	NO	NO								332813	332999					44.98029	-85.19314	005353792								CONNELL LP	005353379	1311209697921	007440020	NICKEL	TRI	Pounds																																																																														NO	GHAMZIK@ANCHORDANLY.COM			YES	 	
2011	NO	49876CHMPNUSHIG	VERSO QUINNESEC LLC	US HWY 2	QUINNESEC	DICKINSON	MI	49876	YES	NO	NO	NO								322121	322110					45.803102	-87.963891	038771036								VERSO PAPER CORP	826480902	1311209329097	000067561	METHANOL	TRI	Pounds																		A	H040								N 	E4		W	H081	H123							N 	E3																																						NO	JEFF.MAULE@VERSOPAPER.COM			NO	 	
2011	NO	49504HBFLL2727K	HB FULLER CO	2727 KINNEY N W	GRAND RAPIDS	KENT	MI	49544	YES	NO	NO	NO								325520						43.01406	-85.76807	065850620								HB FULLER CO	006159776	1311209337878	000108883	TOLUENE	TRI	Pounds																		NA									N 																																																			NO	BRETT.CALVIN@HBFULLER.COM			NO	 	
2011	NO	48071STLPR31624	EMERALD STEEL PROCESSING LLC - MADISON HEIGHTS FACILITY	31624 STEPHENSON HWY	MADISON HEIGHTS	OAKLAND	MI	48071	YES	NO	NO	NO								332811	331222	332812				42.52481	-83.1196											1311209657206	007697372	NITRIC ACID	TRI	Pounds																		W	H077								N 	E1																																																		NO				NO	 	
2011	NO	49503PLSTC1648M	PLASTIC PLATE INC-MONROE PLA NT	1648 MONROE AVE NW	GRAND RAPIDS	KENT	MI	49505	YES	NO	NO	NO								332813						42.99325	-85.67049	006409387								LACKS ENTERPRISES INC	616811659	1311209476860	007697372	NITRIC ACID	TRI	Pounds																		W	H121	H071							N 	E1		A	A03								N 	E4																																						NO				NO	 	
2011	NO	49508LCKSN4260A	LACKS TRIM SYSTEMS INC - AIR LANE PLANT	4260 AIRLANE SE	KENTWOOD	KENT	MI	49512	YES	NO	NO	NO								332813	326199	336399				42.88544	-85.57532	118712306								LACKS ENTERPRISES INC	616811659	1311209521196	N090	CHROMIUM COMPOUNDS(EXCEPT CHROMITE ORE MINED IN THE TRANSVAAL REGION)	TRI	Pounds																		W	H129	H121	H071						N 	E4		A	A03								N 	E4																																						NO				YES	 	
2011	NO	48178SNSTL550MI	SUN STEEL TREATING INC	550 N MILL ST	SOUTH LYON	OAKLAND	MI	48178	YES	NO	NO	NO								332811						42.46526	-83.64555	005364732										1311209016385	N040	BARIUM COMPOUNDS	TRI	Pounds																		NA									N 																																																			NO	DVANBUSKIRK@SUNSTEELTREATING.COM			YES	 	
2011	NO	48121RGSTL3001M	SEVERSTAL DEARBORN LLC	4001 MILLER RD	DEARBORN	WAYNE	MI	48120	YES	NO	NO	NO								331111	331221					42.31029	-83.15769	142299051								SEVERSTAL NA INC	645166489	1311209638168	007429905	ALUMINUM (FUME OR DUST)	TRI	Pounds																		NA									N 																																																			NO				YES	 	
2011	NO	48174KTPRD13177	CHEMETALL US INC	13177 HURON RIVER DR	ROMULUS	WAYNE	MI	481743631	YES	NO	NO	NO								325611						42.20784	-83.40456	556121200								ROCKWOOD HOLDINGS INC		1311209266093	N090	CHROMIUM COMPOUNDS(EXCEPT CHROMITE ORE MINED IN THE TRANSVAAL REGION)	TRI	Pounds																		NA									N 																																																			NO				YES	 	
2011	NO	48054DTRTD4901P	DETROIT EDISON ST CLAIR POWER PLANT	4901 POINTE DR	EAST CHINA TOWNSHIP	ST CLAIR	MI	48054	NO	YES	NO	NO								221112						42.758123	-82.476993	021091061								DTE ENERGY CO	839329158	1311209379229	001336363	POLYCHLORINATED BIPHENYLS	PBT	Pounds																		A	H121	A07	A05						N 	E6																																																		NO	AUSTERBERRYJ@DTEENERGY.COM			NO	 	
2011	NO	48212GMCSG1840H	AAM-DMC	1840 HOLBROOK AVE	DETROIT	WAYNE	MI	482123488	YES	NO	NO	NO								336330						42.38947	-83.06343	825405731		MID086744802						AMERICAN MANUFACTURING & ENGINEERING INC	808844567	1311209791336	007439965	MANGANESE	TRI	Pounds																		NA									N 																																																			NO	MARK.WILLIAMS@AAM.COM			YES	 	
2011	NO	48551GMCTRG3100	GM LLC POWERTRAIN FLINT ENGINE OPERATIONS	2100 BRISTOL RD	FLINT	GENESEE	MI	48552	NO	YES	NO	NO								336350						42.98526	-83.7192	005356662	070628511							GENERAL MOTORS LLC	831247536	1311209552761	000071363	N-BUTYL ALCOHOL	TRI	Pounds																		NA									N 																																																			NO	KIMBERLY.CARPENTER@GM.COM			NO	 	
2011	NO	49007ZNSYS2204R	AZON USA INC	2204 RAVINE RD	KALAMAZOO	KALAMAZOO	MI	49004	YES	NO	NO	NO								325991						42.3103	-85.61659	060174166		MID060174166		MIR23P001						1311209701907	000107211	ETHYLENE GLYCOL	TRI	Pounds																		NA									N 																																																			NO				NO	 	
2011	NO	49601FRWNN609W1	REC BOAT HOLDINGS - CRUISER PLANT	609 13TH ST	CADILLAC	WEXFORD	MI	49601	YES	NO	NO	NO								336612						44.26691	-85.416692									REC BOAT HOLDINGS LLC		1311209240528	000080626	METHYL METHACRYLATE	TRI	Pounds																		NA									N 																																																			NO	RVIDEAN@RECBOATHOLDINGS.COM			NO	 	
2011	NO	49001THPJH7171P	PHARMACIA & UPJOHN CO LLC A SUBSIDIARY OF PFIZER INC	7171 PORTAGE RD	KALAMAZOO	KALAMAZOO	MI	49001	YES	NO	NO	NO								325412						42.21319	-85.55999	007702681								PFIZER INC	001326495	1311209571177	007664417	AMMONIA	TRI	Pounds																		A	A07	A03							N 	E4		W	H121	H123							N 	E6		W	H123								N 	E6																										NO	CHRISTOPHER.LODER@PFIZER.COM			NO	 	
2011	NO	49001THPJH7171P	PHARMACIA & UPJOHN CO LLC A SUBSIDIARY OF PFIZER INC	7171 PORTAGE RD	KALAMAZOO	KALAMAZOO	MI	49001	YES	NO	NO	NO								325412						42.21319	-85.55999	007702681								PFIZER INC	001326495	1311209571342	N458	MERCURY COMPOUNDS	PBT	Pounds																		W	H121	H123							N 	E6																																																		NO	CHRISTOPHER.LODER@PFIZER.COM			YES	 	
2011	NO	49036BRZNG94CON	BRAZING CONCEPTS	94 CONCEPT DR	COLDWATER	BRANCH	MI	49036	YES	NO	NO	NO								332811						41.949503	-84.978571	878947027								BLUEWATER THERMAL PROCESSING LLC	606710171	1311209664111	007440508	COPPER	TRI	Pounds																		NA									N 																																																			NO	JLOSINSKI@BLUEWATERTHERMAL.COM			YES	 	
2011	NO	48091SPRST6227R	SUPER STEEL TREATING CO	6227 RINKE	WARREN	MACOMB	MI	48091	YES	NO	NO	NO								332811						42.47391	-83.04065	004918934										1311209383001	N982	ZINC COMPOUNDS	TRI	Pounds																		W	H077	H101							N 	E3																																																		NO	MHULDIN@SUPERSTEELTREATING.COM			YES	 	
2011	NO	48661GTVLN510GR	SANDVIK HARD MATERIALS	510 GRIFFIN RD	WEST BRANCH	OGEMAW	MI	48661	YES	NO	NO	NO								333515						44.269405	-84.227887									SANDVIK INC		1311208994970	N096	COBALT COMPOUNDS	TRI	Pounds																		NA									N 																																																			NO				YES	 	
2011	NO	49707LFRGCFORDA	LAFARGE MIDWEST INC	1435 FORD AVE	ALPENA	ALPENA	MI	49707	YES	NO	NO	NO								327310						45.07015	-83.41531	555427079								LAFARGE NA INC	050622018	1311209292628	N420	LEAD COMPOUNDS	PBT	Pounds																		A	A06								N 	E3																																																		NO	BOB.BUDNIK@LAFARGE-NA.COM			YES	 	
2011	NO	49120NTNLS1631L	DW NATIONAL STANDARD - NILES LLC	1631 LAKE ST	NILES	BERRIEN	MI	49120	YES	NO	NO	NO								331222						41.84128	-86.235635	786533117								HEICO HOLDING INC	786533117	1311209667070	N511	NITRATE COMPOUNDS	TRI	Pounds																		NA									N 																																																			NO	TMORAN@NATIONALSTANDARD.COM			NO	 	
2011	NO	49023TCHNC1200C	TECH NICKEL INC	1200 S CRYSTAL AVE	BENTON HARBOR	BERRIEN	MI	49023	YES	NO	NO	NO								332813						42.0958	-86.41729	102350311										1311209587195	N495	NICKEL COMPOUNDS	TRI	Pounds																		W	H077	H121	H123	H101					N 	E1																																																		NO	LOUIE@TECHNICKEL.COM			YES	 	
2011	NO	49276GLBLT1144C	GREEN PLAINS RENEWABLE ENERGY INC	11440 CEMETERY RD	RIGA	LENAWEE	MI	49276	YES	NO	NO	NO								325193						41.814436	-83.836092									GREEN PLAINS HOLDING II LLC	186380718	1311209118177	000091203	NAPHTHALENE	TRI	Pounds																																																																														NO	ERICA.MONTEFUSCO@GPREINC.COM			NO	 	
2011	NO	49276GLBLT1144C	GREEN PLAINS RENEWABLE ENERGY INC	11440 CEMETERY RD	RIGA	LENAWEE	MI	49276	YES	NO	NO	NO								325193						41.814436	-83.836092									GREEN PLAINS HOLDING II LLC	186380718	1311209118215	001330207	XYLENE (MIXED ISOMERS)	TRI	Pounds																		A	A01								N 	E4		A	A03								N 	E5		A	H040								N 	E4																										NO	ERICA.MONTEFUSCO@GPREINC.COM			NO	 	
2011	NO	49441NNFRR1146N	NON-FERROUS CAST ALLOYS INC	1146 N GATEWAY BLVD	MUSKEGON	MUSKEGON	MI	49441	YES	NO	NO	NO								331524						43.14395	-86.21642	062236658										1311209703798	007440508	COPPER	TRI	Pounds																		NA									N 																																																			NO	DALE@NFCA.COM			YES	 	
2011	NO	48066HFLYM15500	GLOBAL ROLLFORMING SYSTEMS	15500 12 MILE RD	ROSEVILLE	MACOMB	MI	48066	YES	NO	NO	NO								336399						42.50897	-82.96251	789000473								GLOBAL AUTOMOTIVE SYSTEMS	614897440	1311209313321	007440508	COPPER	TRI	Pounds																																																																														NO	KEVIN.MEGER@GLOBALAUTOSYS.COM			YES	 	
2011	NO	48458FLNTMG6065	MARATHON PETROLEUM CO - FLINT MI TERMINAL	G-6065 N DORT HWY	MOUNT MORRIS	GENESEE	MI	48458	YES	NO	NO	NO								424710						43.09197	-83.6746	124826517								MARATHON PETROLEUM CORP	968393996	1311209608809	000071432	BENZENE	TRI	Pounds																		NA									N 																																																			NO				NO	 	
2011	NO	48057HSPTR4150S	LYMTAL INTERNATIONAL,INC	4150 S LAPEER RD	LAKE ORION	OAKLAND	MI	48359	YES	NO	NO	NO								325510						42.719616	-83.242795	861267284										1311209623293	000067561	METHANOL	TRI	Pounds																																																																														NO	FRANK@LYMTAL.COM			NO	 	
2011	NO	48183MNSNT5045W	SOLUTIA INC	5100 W JEFFERSON AVE	TRENTON	WAYNE	MI	48183	YES	NO	NO	NO								325211	325199					42.11768	-83.19019	040853731								SOLUTIA INC		1311209847779	000075070	ACETALDEHYDE	TRI	Pounds																		W	H081								N 	E4		A	A04								N 	E4																																						NO	GAWILL2@SOLUTIA.COM	RR4		NO	 	
2011	NO	48071HWRDP32565	HOWARD FINISHING LLC	32565 DEQUINDRE	MADISON HEIGHTS	OAKLAND	MI	48071	YES	NO	NO	NO								332813						42.53172	-83.08673	113233691								HOWARD FINISHING LLC	113233691	1311209257486	N511	NITRATE COMPOUNDS	TRI	Pounds																		W	H129	H071	H121	H077	H123	H101			N 	E3																																																		NO	JEGRIMES@HOWARDFINISHING.COM			NO	 	
2011	NO	48801CNTCH205NG	CONTECH CASTINGS LLC	250 ADAMS AVE	ALMA	GRATIOT	MI	48801	YES	NO	NO	NO								331521						43.37592	-84.646348	053669594								CONTECH CASTINGS LLC	837250562	1311209269556	007440508	COPPER	TRI	Pounds																		NA									N 																																																			NO	JOE.BOWEN@CONTECHCASTINGS.COM			YES	 	
2011	NO	49444WBBCH2708J	WEBB CHEMICAL SERVICE CORP	2708 JARMAN	MUSKEGON HEIGHTS	MUSKEGON	MI	49444	YES	NO	NO	NO								424690						43.20213	-86.23097	006410740										1311209383607	000050000	FORMALDEHYDE	TRI	Pounds																		W	H121								N 	E6																																																		NO	TFINKLER@WEBBCHEMICAL.COM			NO	 	
2011	NO	48917LNSNG3725S	LANSING BOARD OF WATER & LIGHT -ERICKSON	3725 S CANAL RD	LANSING	INGHAM	MI	48917	YES	NO	NO	NO								221112						42.692364	-84.657362									LANSING BOARD OF WATER & LIGHT		1311209390386	N040	BARIUM COMPOUNDS	TRI	Pounds																		NA									N 																																																			NO	SXS@LBWL.COM			YES	 	
2011	NO	49934PNNSL1700D	OSMOSE INC	52430 DUNCAN AVE	HUBBELL	HOUGHTON	MI	49934	YES	NO	NO	NO								325188						47.175	-88.429167	002112944										1311209453099	N420	LEAD COMPOUNDS	PBT	Pounds																		NA									N 																																																			NO	JMCKENZIE@OSMOSE.COM			YES	 	
2011	NO	49512LCKSN43755	LACKS TRIM SYSTEMS INC-52ND STREET PAINT EAST	4375 52ND ST SE	KENTWOOD	KENT	MI	49512	YES	NO	NO	NO								336399						42.86901	-85.55742	607580149								LACKS ENTERPRISES INC	616811659	1311209476783	001330207	XYLENE (MIXED ISOMERS)	TRI	Pounds																		A	A07								N 	E5																																																		NO				NO	 	
2011	NO	49601CDLLC603WE	AVON AUTOMOTIVE PLANT 1	603 W 7TH ST	CADILLAC	WEXFORD	MI	49601	YES	NO	NO	NO								326220						44.26082	-85.416615	151927944										1311209554423	N230	CERTAIN GLYCOL ETHERS	TRI	Pounds																		NA									N 																																																			NO	BSOMERS@AVONAUTO.COM			NO	 	
2011	NO	48192CDNPL3715E	CADON PLATING CO	3715 11TH ST	WYANDOTTE	WAYNE	MI	48192	YES	NO	NO	NO								332812	332813					42.194944	-83.166308	005339460										1311209560364	N511	NITRATE COMPOUNDS	TRI	Pounds																		NA									N 																																																			NO				NO	 	
2011	NO	49441CWCCS2672H	CWC TEXTRON	1085 W SHERMAN BLVD	MUSKEGON	MUSKEGON	MI	494413588	YES	NO	NO	NO								331511						43.2054	-86.26925	006030357		MID006030357		MIG250337				TEXTRON INC	001339879	1311209688783	007440473	CHROMIUM	TRI	Pounds																		NA									N 																																																			NO	BOB.MEACHAM@KAUTEX.TEXTRON.COM			YES	 	
2011	NO	48764TWSPL510IN	TAWAS PLATING CO	510 INDUSTRIAL AVE	TAWAS CITY	IOSCO	MI	48763	YES	NO	NO	NO								332813						44.263361	-83.526097	020892121										1311209725617	007697372	NITRIC ACID	TRI	Pounds																		L	H121								N 	E1																																																		NO	KJUNGQUIST@TAWASPLATING.COM			NO	 	
2011	NO	48911JTNG 5212A	SYMMETRY MEDICAL INC LANSING	5212 AURELIUS RD	LANSING	INGHAM	MI	48911	YES	NO	NO	NO								332112						42.681188	-84.523502	155271810								SYMMETRY MEDICAL INC	070987714	1311209732686	007697372	NITRIC ACID	TRI	Pounds																		A	A03								N 	E5																																																		NO	HEATHER.MONAGHAN@SYMMETRYMEDICAL.COM			NO	 	
2011	NO	48189TRCHS1781P	TORCH SURFACE TECHNOLOGIES	10781 PLAZA DR	WHITMORE LAKE	LIVINGSTON	MI	48189	NO	NO	NO	NO								325611	325188	325613				42.447285	-83.764087	0134763										1311209808447	N511	NITRATE COMPOUNDS	TRI	Pounds																																																																														NO	ROS@TORCHSURFACETECH.COM			NO	 	
2011	NO	48188STLTC5501B	STEEL TECHNOLOGIES INC	5501 BELLEVILLE RD	CANTON	WAYNE	MI	48188	YES	NO	NO	NO								331221						42.26733	-83.48709	783734916								MITSUI USA	610712014	1311209216617	007440473	CHROMIUM	TRI	Pounds																		NA									N 																																																			NO				YES	 	
2011	NO	49201TCMNF4111C	TAC MANUFACTURING INC	4111 COUNTY FARM RD	JACKSON	JACKSON	MI	49201	YES	NO	NO	NO								336322						42.27657	-84.4735	785635376										1311209631504	000108883	TOLUENE	TRI	Pounds																		A	H040								N 	E5																																																		NO	SSTURGIS@TRAMGROUP.COM			NO	 	
2011	NO	49801GRDFN801SC	GREDE LLC - IRON MOUNTAIN	801 S CARPENTER AVE	KINGSFORD	DICKINSON	MI	49802	YES	NO	NO	NO								331511						45.799405	-88.070937	006131890								GREDE HOLDINGS LLC	961705873	1311209683186	007440020	NICKEL	TRI	Pounds																																																																														NO	SFLAMINIO@GREDE.COM			YES	 	
2011	NO	48218DTRTD1BELA	DETROIT EDISON -RIVER ROUGE POWER PLANT	1 BELANGER PARK DR	RIVER ROUGE	WAYNE	MI	48218	YES	NO	NO	NO								221112						42.27051	-83.12469	783638471								DTE ENERGY CO	839329158	1311209378064	N150	DIOXIN AND DIOXIN-LIKE COMPOUNDS	DIOXIN	Grams																		A	H121	A07	A05						N 	E6																																																		NO	AUSTERBERRYJ@DTEENERGY.COM			NO	 	
2011	NO	4816WTBCTY3EAST	TUBE CITY IMS	3000 E FRONT ST	MONROE	MONROE	MI	48161	YES	NO	NO	NO								562920						41.897173	-83.361645									TUBE CITY IMS		1311209277185	N450	MANGANESE COMPOUNDS	TRI	Pounds																		NA									N 																																																			NO	MCONNOLLY@TUBECITYIMS.COM			YES	 	
2011	NO	48211SLCTY1923F	EQ DETROIT INC	1923 FREDERICK	DETROIT	WAYNE	MI	48211	YES	NO	NO	NO								562211	562998	562219				42.365899	-83.047781	035420772								EQ HOLDINGS CO	022528553	1311209379623	000111422	DIETHANOLAMINE	TRI	Pounds																		S	H111								N 	E5		A	A06								N 	E2																																						NO	BOB.DOYLE@EQONLINE.COM			NO	 	
2011	NO	48211SLCTY1923F	EQ DETROIT INC	1923 FREDERICK	DETROIT	WAYNE	MI	48211	YES	NO	NO	NO								562211	562998	562219				42.365899	-83.047781	035420772								EQ HOLDINGS CO	022528553	1311209379852	000108883	TOLUENE	TRI	Pounds																		S	H111								N 	E5		A	A06								N 	E2																																						NO	BOB.DOYLE@EQONLINE.COM			NO	 	
2011	NO	48551GMCTRG3100	GM LLC POWERTRAIN FLINT ENGINE OPERATIONS	2100 BRISTOL RD	FLINT	GENESEE	MI	48552	NO	YES	NO	NO								336112						42.98526	-83.7192	005356662	070628511							GENERAL MOTORS LLC	831247536	1311209233384	001330207	XYLENE (MIXED ISOMERS)	TRI	Pounds																		A	A07								N 	E6																																																		NO	KIMBERLY.CARPENTER@GM.COM			NO	 	
2011	NO	48087MNPCR44225	MNP CORP	44225 UTICA RD	UTICA	MACOMB	MI	48317	YES	NO	NO	NO								332722						42.61895	-83.03788	070299268								MNP CORP		1311209738677	007664939	SULFURIC ACID (1994 AND AFTER "ACID AEROSOLS" ONLY)	TRI	Pounds																		NA									N 																																																			NO	RANDY.ALLISON@MNP.COM			NO	 	
2011	NO	48218SCKBT14ZUG	EES COKE BATTERY LLC	1400 ZUG ISLAND	RIVER ROUGE	WAYNE	MI	48218	YES	NO	NO	NO								324199						42.29	-83.11	876235490								DTE ENERGY CO	839329158	1311209651052	000074851	ETHYLENE	TRI	Pounds																		NA									N 																																																			NO				NO	 	
2011	NO	49078MNSHC320NF	OTSEGO PAPER INC	320 N FARMER ST	OTSEGO	ALLEGAN	MI	49078	YES	NO	NO	NO								322121						42.46354	-85.69606	005212600								USG CORP	005212600	1311209201742	N511	NITRATE COMPOUNDS	TRI	Pounds																		NA									N 																																																			NO	RWILLIAMS@USG.COM			NO	 	
2011	NO	48220GGPRD625WA	GAGE PRODUCTS CO	625 WANDA AVE	FERNDALE	OAKLAND	MI	48220	YES	NO	NO	NO								325510						42.451389	-83.114722	005355086		MID005338801								1311209577446	000067561	METHANOL	TRI	Pounds																		A	A02								N 	E4																																																		NO	JMILESKIY@GAGEPRODUCTS.COM			NO	 	
2011	NO	48150STLND331CA	STEEL INDUSTRIES INC PLANT 5	33100 CAPITOL AVE	LIVONIA	WAYNE	MI	48150	YES	NO	NO	NO								332710						42.37284	-83.36989	102673725								AMERIFORGE GROUP	136438327	1311209014810	007440473	CHROMIUM	TRI	Pounds																																																																														NO	RMICALLEF@AMERIFORGE.COM			YES	 	
2011	NO	48731TWRTM81DRE	TOWER AUTOMOTIVE TOOL LLC	81 DRETTMAN DR	ELKTON	HURON	MI	48731	YES	NO	NO	NO								336370						43.818423	-83.177731	005398615								TOWER INTERNATIONAL LLC		1311209782059	007440020	NICKEL	TRI	Pounds																		NA									N 																																																			NO				YES	 	
2011	NO	48174GMCCP36880	GM - ROMULUS ENGINE OPERATIONS	36880 ECORSE RD	ROMULUS	WAYNE	MI	48174	YES	NO	NO	NO								336312						42.25217	-83.3996	037749264								GENERAL MOTORS LLC	831247536	1311209178399	007439921	LEAD	TRI	Pounds																		NA									N 																																																			NO	KIMBERLY.CARPENTER@GM.COM			YES	 	
2011	NO	48139PRGRS10850	PROGRESSIVE METAL FORMING INC	10850 HALL RD	HAMBURG	LIVINGSTON	MI	48139	YES	NO	NO	NO								332116						42.444811	-83.792988	005498423										1311209226277	007440484	COBALT	TRI	Pounds																		NA									N 																																																			NO	THERESA@PMFDRAW.COM			YES	 	
2011	NO	48184XCHMN38070	POLYCHEMIE INC	38070 VAN BORN RD	WAYNE	WAYNE	MI	48184	YES	NO	NO	NO								325998						42.26613	-83.4126	124243549								SNF HOLDING CO	878930965	1311209410556	000050000	FORMALDEHYDE	TRI	Pounds																		A	A03								N 	E5																																																		NO	BHANSON@SNFHC.COM			NO	 	
